%time,field.header.seq,field.header.stamp,field.pose.pose.position.x,field.pose.pose.position.y,field.pose.pose.position.z,field.pose.pose.orientation.x,field.pose.pose.orientation.y,field.pose.pose.orientation.z,field.pose.pose.orientation.w,field.twist.twist.linear.x,field.twist.twist.linear.y,field.twist.twist.linear.z,field.twist.twist.angular.x,field.twist.twist.angular.y,field.twist.twist.angular.z
1609059017974379539,48,1609059017974379539,-0.00703716701874,0.0155626066356,-0.000480212156265,-1.99890732677e-05,-2.75398969707e-06,-0.000123087322656,0.999999992221,0.0,0.0,0.0,0.0,0.0,0.0
1609059018067486525,49,1609059018067486525,-0.00936058506725,0.0129073770103,0.000414991595374,-2.10547101921e-05,4.37919047992e-06,-7.48379855366e-05,0.999999996968,0.0,0.0,0.0,0.0,0.0,0.0
1609059018178694963,50,1609059018178694963,-0.00936058506725,0.0129073770103,0.000414991595374,-2.10547101921e-05,4.37919047992e-06,-7.48379855366e-05,0.999999996968,0.0,0.0,0.0,0.0,0.0,0.0
1609059018272431135,51,1609059018272431135,-0.0042678401894,0.00997856831394,-3.82138024763e-05,-1.98035925025e-05,5.49841744484e-06,-0.000113187485647,0.999999993383,0.0,0.0,0.0,0.0,0.0,0.0
1609059018367440701,52,1609059018367440701,-0.0042678401894,0.00997856831394,-3.82138024763e-05,-1.98035925025e-05,5.49841744484e-06,-0.000113187485647,0.999999993383,0.0,0.0,0.0,0.0,0.0,0.0
1609059018478589058,53,1609059018478589058,-0.00562695999234,0.0155016736929,0.000553088583697,-2.55601424095e-05,1.35620664375e-05,-0.000131568314299,0.999999990926,0.0,0.0,0.0,0.0,0.0,0.0
1609059018572626829,54,1609059018572626829,-0.00562695999234,0.0155016736929,0.000553088583697,-2.55601424095e-05,1.35620664375e-05,-0.000131568314299,0.999999990926,0.0,0.0,0.0,0.0,0.0,0.0
1609059018667671204,55,1609059018667671204,-0.00863065458741,0.0178236017161,6.05201373705e-05,-3.15926772842e-05,-8.26329363381e-06,-4.3291139783e-05,0.99999999853,0.0,0.0,0.0,0.0,0.0,0.0
1609059018778500557,56,1609059018778500557,-0.00863065458741,0.0178236017161,6.05201373705e-05,-3.15926772842e-05,-8.26329363381e-06,-4.3291139783e-05,0.99999999853,0.0,0.0,0.0,0.0,0.0,0.0
1609059018872721195,57,1609059018872721195,-0.00476587885674,0.0106833176302,9.68850511795e-05,-1.70489159028e-05,1.29949955474e-05,-1.8562788461e-05,0.999999999598,0.0,0.0,0.0,0.0,0.0,0.0
1609059018967651606,58,1609059018967651606,-0.00476587885674,0.0106833176302,9.68850511795e-05,-1.70489159028e-05,1.29949955474e-05,-1.8562788461e-05,0.999999999598,0.0,0.0,0.0,0.0,0.0,0.0
1609059019078708410,59,1609059019078708410,-0.00791648366024,0.0122900636666,0.000782259853786,-1.90225488827e-05,1.41229924527e-05,0.000111869962867,0.999999993462,0.0,0.0,0.0,0.0,0.0,0.0
1609059019172344685,60,1609059019172344685,-0.00791648366024,0.0122900636666,0.000782259853786,-1.90225488827e-05,1.41229924527e-05,0.000111869962867,0.999999993462,0.0,0.0,0.0,0.0,0.0,0.0
1609059019267207861,61,1609059019267207861,-0.00947625041088,0.00721911655783,0.000150880341286,-1.31414595593e-05,5.9840671863e-06,-7.52159525641e-05,0.999999997067,0.0,0.0,0.0,0.0,0.0,0.0
1609059019378281355,62,1609059019378281355,-0.00947625041088,0.00721911655783,0.000150880341286,-1.31414595593e-05,5.9840671863e-06,-7.52159525641e-05,0.999999997067,0.0,0.0,0.0,0.0,0.0,0.0
1609059019472374201,63,1609059019472374201,-0.0103758567248,0.0141705245944,-0.000670031073785,-2.41127230009e-05,-1.93169072943e-05,-6.6768737539e-05,0.999999997294,0.0,0.0,0.0,0.0,0.0,0.0
1609059019567658663,64,1609059019567658663,-0.0103758567248,0.0141705245944,-0.000670031073785,-2.41127230009e-05,-1.93169072943e-05,-6.6768737539e-05,0.999999997294,0.0,0.0,0.0,0.0,0.0,0.0
1609059019678522348,65,1609059019678522348,-0.01174766044,0.00481718427465,-0.000443392220984,-1.22191569216e-05,-1.49293287573e-05,6.80095754125e-05,0.999999997501,0.0,0.0,0.0,0.0,0.0,0.0
1609059019772648573,66,1609059019772648573,-0.01174766044,0.00481718427465,-0.000443392220984,-1.22191569216e-05,-1.49293287573e-05,6.80095754125e-05,0.999999997501,0.0,0.0,0.0,0.0,0.0,0.0
1609059019867471457,67,1609059019867471457,-0.00662027613717,0.0123003735031,-0.000882421599436,-1.65706785688e-05,-1.50187949085e-05,7.62888647737e-05,0.99999999684,0.0,0.0,0.0,0.0,0.0,0.0
1609059019980206013,68,1609059019980206013,-0.00662027613717,0.0123003735031,-0.000882421599436,-1.65706785688e-05,-1.50187949085e-05,7.62888647737e-05,0.99999999684,0.0,0.0,0.0,0.0,0.0,0.0
1609059020080105782,69,1609059020080105782,-0.00403706813106,0.00121482002755,-0.000701496044015,-5.05405273767e-06,-8.91898900095e-06,-9.63128145766e-05,0.999999995309,0.0,0.0,0.0,0.0,0.0,0.0
1609059020183548212,70,1609059020183548212,-0.00403706813106,0.00121482002755,-0.000701496044015,-5.05405273767e-06,-8.91898900095e-06,-9.63128145766e-05,0.999999995309,0.0,0.0,0.0,0.0,0.0,0.0
1609059020287601233,71,1609059020287601233,-0.00730924115919,0.00942970103181,-0.00104825669847,-1.78352617284e-05,-2.374134102e-05,-0.000100284111867,0.999999994531,0.0,0.0,0.0,0.0,0.0,0.0
1609059020389884949,72,1609059020389884949,-0.00730924115919,0.00942970103181,-0.00104825669847,-1.78352617284e-05,-2.374134102e-05,-0.000100284111867,0.999999994531,0.0,0.0,0.0,0.0,0.0,0.0
1609059020492949009,73,1609059020492949009,-0.00579236583591,0.00834263668584,-0.000196032096977,-1.31526481995e-05,-1.0657791877e-08,-3.39913104764e-05,0.999999999336,0.0,0.0,0.0,0.0,0.0,0.0
1609059020595948458,74,1609059020595948458,-0.00579236583591,0.00834263668584,-0.000196032096977,-1.31526481995e-05,-1.0657791877e-08,-3.39913104764e-05,0.999999999336,0.0,0.0,0.0,0.0,0.0,0.0
1609059020667799473,75,1609059020667799473,-0.00469824176129,-0.00490953108449,0.000319558821736,8.99911516831e-06,6.04737304616e-06,2.58715047946e-05,0.999999999607,0.0,0.0,0.0,0.0,0.0,0.0
1609059020768152475,76,1609059020768152475,-0.00469824176129,-0.00490953108449,0.000319558821736,8.99911516831e-06,6.04737304616e-06,2.58715047946e-05,0.999999999607,0.0,0.0,0.0,0.0,0.0,0.0
1609059020873144388,77,1609059020873144388,-0.00457501103519,0.00413041187462,-0.000268430971316,-6.31789972341e-06,-4.21537824164e-07,-4.51559814132e-05,0.99999999896,0.0,0.0,0.0,0.0,0.0,0.0
1609059020974766493,78,1609059020974766493,-0.00457501103519,0.00413041187462,-0.000268430971316,-6.31789972341e-06,-4.21537824164e-07,-4.51559814132e-05,0.99999999896,0.0,0.0,0.0,0.0,0.0,0.0
1609059021077505827,79,1609059021077505827,-0.0083751350235,0.00453191283654,-0.000534547385417,-8.73833284351e-06,-7.42628875499e-06,-1.1323328745e-05,0.99999999987,0.0,0.0,0.0,0.0,0.0,0.0
1609059021180338383,80,1609059021180338383,-0.0083751350235,0.00453191283654,-0.000534547385417,-8.73833284351e-06,-7.42628875499e-06,-1.1323328745e-05,0.99999999987,0.0,0.0,0.0,0.0,0.0,0.0
1609059021283048153,81,1609059021283048153,-0.00862100369772,0.00448097843968,-0.000796090069263,-1.28840917464e-05,-2.04388201303e-05,-8.28178398427e-05,0.999999996279,0.0,0.0,0.0,0.0,0.0,0.0
1609059021386394978,82,1609059021386394978,-0.00862100369772,0.00448097843968,-0.000796090069263,-1.28840917464e-05,-2.04388201303e-05,-8.28178398427e-05,0.999999996279,0.0,0.0,0.0,0.0,0.0,0.0
1609059021489202261,83,1609059021489202261,-0.0102676689415,0.000638842784928,-0.000549860475306,4.62276662594e-08,-1.92117330429e-05,-5.17159555373e-05,0.999999998478,0.0,0.0,0.0,0.0,0.0,0.0
1609059021592097282,84,1609059021592097282,-0.0102676689415,0.000638842784928,-0.000549860475306,4.62276662594e-08,-1.92117330429e-05,-5.17159555373e-05,0.999999998478,0.0,0.0,0.0,0.0,0.0,0.0
1609059021695342302,85,1609059021695342302,-0.0143134963626,-0.000785044492993,-0.000940403213491,1.48132288806e-06,-2.44448123261e-05,9.37209997256e-05,0.999999995308,0.0,0.0,0.0,0.0,0.0,0.0
1609059021766953230,86,1609059021766953230,-0.0143134963626,-0.000785044492993,-0.000940403213491,1.48132288806e-06,-2.44448123261e-05,9.37209997256e-05,0.999999995308,0.0,0.0,0.0,0.0,0.0,0.0
1609059021867946148,87,1609059021867946148,-0.0121519647984,0.00540557832668,0.000421444382295,-1.03800101374e-05,1.27690132784e-06,-6.86728955821e-05,0.999999997587,0.0,0.0,0.0,0.0,0.0,0.0
1609059021970662117,88,1609059021970662117,-0.0121519647984,0.00540557832668,0.000421444382295,-1.03800101374e-05,1.27690132784e-06,-6.86728955821e-05,0.999999997587,0.0,0.0,0.0,0.0,0.0,0.0
1609059022074503899,89,1609059022074503899,-0.00658406480125,0.013690268548,0.000623133048996,-2.64689509771e-05,1.15296003115e-05,-6.92200203164e-05,0.999999997188,0.0,0.0,0.0,0.0,0.0,0.0
1609059022178193331,90,1609059022178193331,-0.00658406480125,0.013690268548,0.000623133048996,-2.64689509771e-05,1.15296003115e-05,-6.92200203164e-05,0.999999997188,0.0,0.0,0.0,0.0,0.0,0.0
1609059022280582905,91,1609059022280582905,0.00211675917602,0.0191485890822,0.00091250742681,-3.20202350186e-05,2.97769491216e-05,-4.95147313358e-06,0.999999999032,0.0,0.0,0.0,0.0,0.0,0.0
1609059022383079052,92,1609059022383079052,0.00211675917602,0.0191485890822,0.00091250742681,-3.20202350186e-05,2.97769491216e-05,-4.95147313358e-06,0.999999999032,0.0,0.0,0.0,0.0,0.0,0.0
1609059022486084938,93,1609059022486084938,-0.00440021050499,0.00870708532511,-8.68911619303e-05,-1.67214570031e-05,-6.70497236022e-06,-0.000201277836156,0.999999979581,0.0,0.0,0.0,0.0,0.0,0.0
1609059022589176893,94,1609059022589176893,-0.00440021050499,0.00870708532511,-8.68911619303e-05,-1.67214570031e-05,-6.70497236022e-06,-0.000201277836156,0.999999979581,0.0,0.0,0.0,0.0,0.0,0.0
1609059022692739010,95,1609059022692739010,-0.00345489727935,0.0188555548675,0.000334545547441,-3.82932823126e-05,5.88914508176e-06,-0.000103653354353,0.999999993877,0.0,0.0,0.0,0.0,0.0,0.0
1609059022796793461,96,1609059022796793461,-0.00345489727935,0.0188555548675,0.000334545547441,-3.82932823126e-05,5.88914508176e-06,-0.000103653354353,0.999999993877,0.0,0.0,0.0,0.0,0.0,0.0
1609059022867232084,97,1609059022867232084,-0.00469056762864,0.014288465814,8.49926700475e-05,-2.38938349742e-05,8.24473937202e-06,-9.94462236102e-05,0.999999994736,0.0,0.0,0.0,0.0,0.0,0.0
1609059022967660904,98,1609059022967660904,-0.00469056762864,0.014288465814,8.49926700475e-05,-2.38938349742e-05,8.24473937202e-06,-9.94462236102e-05,0.999999994736,0.0,0.0,0.0,0.0,0.0,0.0
1609059023070525646,99,1609059023070525646,-0.00887632301527,0.0219624743802,-0.000605063966286,-4.098587033e-05,-1.49330303488e-05,-5.83078872315e-05,0.999999997349,0.0,0.0,0.0,0.0,0.0,0.0
1609059023173918247,100,1609059023173918247,-0.00887632301527,0.0219624743802,-0.000605063966286,-4.098587033e-05,-1.49330303488e-05,-5.83078872315e-05,0.999999997349,0.0,0.0,0.0,0.0,0.0,0.0
1609059023277442932,101,1609059023277442932,-0.00317393014946,0.0117901562488,-0.000439950325756,-1.85469403387e-05,3.60239795733e-07,-8.40929919685e-05,0.999999996292,0.0,0.0,0.0,0.0,0.0,0.0
1609059023380221605,102,1609059023380221605,-0.00317393014946,0.0117901562488,-0.000439950325756,-1.85469403387e-05,3.60239795733e-07,-8.40929919685e-05,0.999999996292,0.0,0.0,0.0,0.0,0.0,0.0
1609059023483368158,103,1609059023483368158,-0.00683948145663,0.0187917465082,0.00032013572443,-3.20277648371e-05,1.01830820969e-06,3.18408648413e-05,0.99999999898,0.0,0.0,0.0,0.0,0.0,0.0
1609059023586247444,104,1609059023586247444,-0.00683948145663,0.0187917465082,0.00032013572443,-3.20277648371e-05,1.01830820969e-06,3.18408648413e-05,0.99999999898,0.0,0.0,0.0,0.0,0.0,0.0
1609059023689791679,105,1609059023689791679,-0.00595580548689,0.0141865873965,0.000309842081029,-2.23102254283e-05,8.39880495285e-06,7.2783822133e-05,0.999999997067,0.0,0.0,0.0,0.0,0.0,0.0
1609059023792383432,106,1609059023792383432,-0.00595580548689,0.0141865873965,0.000309842081029,-2.23102254283e-05,8.39880495285e-06,7.2783822133e-05,0.999999997067,0.0,0.0,0.0,0.0,0.0,0.0
1609059023895503759,107,1609059023895503759,-0.00263270781197,0.0158301867571,0.000613309386576,-2.64493919729e-05,1.62709230616e-05,-0.00010092181098,0.999999994425,0.0,0.0,0.0,0.0,0.0,0.0
1609059023967433929,108,1609059023967433929,-0.00263270781197,0.0158301867571,0.000613309386576,-2.64493919729e-05,1.62709230616e-05,-0.00010092181098,0.999999994425,0.0,0.0,0.0,0.0,0.0,0.0
1609059024067342758,109,1609059024067342758,-0.00395314348997,0.0130032933467,0.000749285771925,-2.44065078568e-05,1.74528338585e-05,-0.000134811587135,0.999999990463,0.0,0.0,0.0,0.0,0.0,0.0
1609059024172347546,110,1609059024172347546,-0.00395314348997,0.0130032933467,0.000749285771925,-2.44065078568e-05,1.74528338585e-05,-0.000134811587135,0.999999990463,0.0,0.0,0.0,0.0,0.0,0.0
1609059024273520231,111,1609059024273520231,-0.00567005337315,0.0138418244578,9.24964134327e-05,-2.56434474835e-05,-1.7825721293e-06,-0.000237172081467,0.999999971544,0.0,0.0,0.0,0.0,0.0,0.0
1609059024378080606,112,1609059024378080606,-0.00567005337315,0.0138418244578,9.24964134327e-05,-2.56434474835e-05,-1.7825721293e-06,-0.000237172081467,0.999999971544,0.0,0.0,0.0,0.0,0.0,0.0
1609059024479892015,113,1609059024479892015,-0.00653846629919,0.0125328572691,0.000145064457828,-1.96126760903e-05,-1.00116418056e-06,2.44457747688e-06,0.999999999804,0.0,0.0,0.0,0.0,0.0,0.0
1609059024582989216,114,1609059024582989216,-0.00653846629919,0.0125328572691,0.000145064457828,-1.96126760903e-05,-1.00116418056e-06,2.44457747688e-06,0.999999999804,0.0,0.0,0.0,0.0,0.0,0.0
1609059024686078072,115,1609059024686078072,-0.00831183279157,0.00547484040717,-0.000217084982952,-1.42025579477e-05,-1.54141651361e-06,-7.12879904879e-05,0.999999997357,0.0,0.0,0.0,0.0,0.0,0.0
1609059024789220572,116,1609059024789220572,-0.00831183279157,0.00547484040717,-0.000217084982952,-1.42025579477e-05,-1.54141651361e-06,-7.12879904879e-05,0.999999997357,0.0,0.0,0.0,0.0,0.0,0.0
1609059024892245531,117,1609059024892245531,-0.00289064322568,0.0116725337199,-0.000516948214488,-1.93937234516e-05,-4.13654756322e-06,-5.04418850958e-05,0.999999998531,0.0,0.0,0.0,0.0,0.0,0.0
1609059024995248556,118,1609059024995248556,-0.00289064322568,0.0116725337199,-0.000516948214488,-1.93937234516e-05,-4.13654756322e-06,-5.04418850958e-05,0.999999998531,0.0,0.0,0.0,0.0,0.0,0.0
1609059025067295790,119,1609059025067295790,-0.0051792653374,0.00750749566294,-0.00101176128597,-1.88741075002e-05,-2.05142289152e-05,-0.00019302129068,0.999999980983,0.0,0.0,0.0,0.0,0.0,0.0
1609059025167143106,120,1609059025167143106,-0.0051792653374,0.00750749566294,-0.00101176128597,-1.88741075002e-05,-2.05142289152e-05,-0.00019302129068,0.999999980983,0.0,0.0,0.0,0.0,0.0,0.0
1609059025271132469,121,1609059025271132469,-0.00458778092815,0.00553002895884,-0.000365828634787,-7.52531840488e-06,-1.89605436375e-06,-4.11971773397e-05,0.999999999121,0.0,0.0,0.0,0.0,0.0,0.0
1609059025375380754,122,1609059025375380754,-0.00458778092815,0.00553002895884,-0.000365828634787,-7.52531840488e-06,-1.89605436375e-06,-4.11971773397e-05,0.999999999121,0.0,0.0,0.0,0.0,0.0,0.0
1609059025477054119,123,1609059025477054119,-0.00588700485757,0.01740391655,-0.000243723579985,-3.00734954933e-05,-6.03118352572e-06,-0.000115836972296,0.999999992821,0.0,0.0,0.0,0.0,0.0,0.0
1609059025581265688,124,1609059025581265688,-0.00588700485757,0.01740391655,-0.000243723579985,-3.00734954933e-05,-6.03118352572e-06,-0.000115836972296,0.999999992821,0.0,0.0,0.0,0.0,0.0,0.0
1609059025684482574,125,1609059025684482574,-0.0051254387186,0.0254542058633,0.000380907212626,-4.97059631565e-05,6.05839913077e-06,-0.000227400644411,0.999999972891,0.0,0.0,0.0,0.0,0.0,0.0
1609059025786085606,126,1609059025786085606,-0.0051254387186,0.0254542058633,0.000380907212626,-4.97059631565e-05,6.05839913077e-06,-0.000227400644411,0.999999972891,0.0,0.0,0.0,0.0,0.0,0.0
1609059025889156342,127,1609059025889156342,-0.00621118768628,0.016243621633,-0.000497049429705,-2.70649622709e-05,-5.16763300611e-06,-9.07238309536e-05,0.999999995505,0.0,0.0,0.0,0.0,0.0,0.0
1609059025992651701,128,1609059025992651701,-0.00621118768628,0.016243621633,-0.000497049429705,-2.70649622709e-05,-5.16763300611e-06,-9.07238309536e-05,0.999999995505,0.0,0.0,0.0,0.0,0.0,0.0
1609059026095217466,129,1609059026095217466,-0.00927822233485,0.0191805272127,-0.000422875203296,-3.34666090928e-05,-1.25650012602e-05,-0.000215143994967,0.999999976218,0.0,0.0,0.0,0.0,0.0,0.0
1609059026166726112,130,1609059026166726112,-0.00927822233485,0.0191805272127,-0.000422875203296,-3.34666090928e-05,-1.25650012602e-05,-0.000215143994967,0.999999976218,0.0,0.0,0.0,0.0,0.0,0.0
1609059026266840458,131,1609059026266840458,-0.00918445339255,0.0196544208634,-0.000400271318626,-3.37304234776e-05,-8.61772960121e-06,-0.000192178563649,0.999999980928,0.0,0.0,0.0,0.0,0.0,0.0
1609059026370183706,132,1609059026370183706,-0.00918445339255,0.0196544208634,-0.000400271318626,-3.37304234776e-05,-8.61772960121e-06,-0.000192178563649,0.999999980928,0.0,0.0,0.0,0.0,0.0,0.0
1609059026473718405,133,1609059026473718405,-0.00479987798109,0.0180584932679,-0.000559904223436,-3.43316589173e-05,-7.71891731528e-06,-0.000282756253198,0.999999959405,0.0,0.0,0.0,0.0,0.0,0.0
1609059026577076674,134,1609059026577076674,-0.00479987798109,0.0180584932679,-0.000559904223436,-3.43316589173e-05,-7.71891731528e-06,-0.000282756253198,0.999999959405,0.0,0.0,0.0,0.0,0.0,0.0
1609059026679737806,135,1609059026679737806,-0.00649995545816,0.0073772840098,0.000162338926993,-1.29621511097e-05,-1.49973278604e-07,-8.76360810024e-05,0.999999996076,0.0,0.0,0.0,0.0,0.0,0.0
1609059026783007383,136,1609059026783007383,-0.00649995545816,0.0073772840098,0.000162338926993,-1.29621511097e-05,-1.49973278604e-07,-8.76360810024e-05,0.999999996076,0.0,0.0,0.0,0.0,0.0,0.0
1609059026886376381,137,1609059026886376381,-0.00847167964565,0.0170514038672,-3.15402963173e-05,-2.98963128116e-05,-4.22943550282e-06,-7.42565922029e-05,0.999999996787,0.0,0.0,0.0,0.0,0.0,0.0
1609059026989351034,138,1609059026989351034,-0.00847167964565,0.0170514038672,-3.15402963173e-05,-2.98963128116e-05,-4.22943550282e-06,-7.42565922029e-05,0.999999996787,0.0,0.0,0.0,0.0,0.0,0.0
1609059027092364311,139,1609059027092364311,-0.00682240571116,0.0172482842211,-1.24817862151e-05,-3.27546571555e-05,-3.27485701781e-07,-4.89952951667e-05,0.999999998263,0.0,0.0,0.0,0.0,0.0,0.0
1609059027196972132,140,1609059027196972132,-0.00682240571116,0.0172482842211,-1.24817862151e-05,-3.27546571555e-05,-3.27485701781e-07,-4.89952951667e-05,0.999999998263,0.0,0.0,0.0,0.0,0.0,0.0
1609059027267192364,141,1609059027267192364,-0.00564827462727,0.0201066002567,0.000383046578316,-3.32306825695e-05,1.11297668212e-05,-0.000154289770202,0.999999987483,0.0,0.0,0.0,0.0,0.0,0.0
1609059027367329121,142,1609059027367329121,-0.00564827462727,0.0201066002567,0.000383046578316,-3.32306825695e-05,1.11297668212e-05,-0.000154289770202,0.999999987483,0.0,0.0,0.0,0.0,0.0,0.0
1609059027470470428,143,1609059027470470428,-0.00359864688371,0.0166541519534,1.26374083244e-05,-3.14052422667e-05,5.34064930503e-06,-0.000246497787644,0.999999969112,0.0,0.0,0.0,0.0,0.0,0.0
1609059027573250055,144,1609059027573250055,-0.00359864688371,0.0166541519534,1.26374083244e-05,-3.14052422667e-05,5.34064930503e-06,-0.000246497787644,0.999999969112,0.0,0.0,0.0,0.0,0.0,0.0
1609059027677865744,145,1609059027677865744,-0.000719303902877,0.00949068450415,4.99936318437e-05,-2.17261800736e-05,3.76661532328e-06,-2.50247733789e-05,0.999999999444,0.0,0.0,0.0,0.0,0.0,0.0
1609059027779898405,146,1609059027779898405,-0.000719303902877,0.00949068450415,4.99936318437e-05,-2.17261800736e-05,3.76661532328e-06,-2.50247733789e-05,0.999999999444,0.0,0.0,0.0,0.0,0.0,0.0
1609059027883015871,147,1609059027883015871,-0.00822714367182,0.0257713870067,0.000247667979163,-4.83147065654e-05,3.54769676028e-06,-4.85629209957e-05,0.999999997647,0.0,0.0,0.0,0.0,0.0,0.0
1609059027986250162,148,1609059027986250162,-0.00822714367182,0.0257713870067,0.000247667979163,-4.83147065654e-05,3.54769676028e-06,-4.85629209957e-05,0.999999997647,0.0,0.0,0.0,0.0,0.0,0.0
1609059028089236975,149,1609059028089236975,-0.00612403819351,0.0195807757762,-5.98884538225e-05,-3.5515581906e-05,2.34633739172e-06,-0.00016550983643,0.99999998567,0.0,0.0,0.0,0.0,0.0,0.0
1609059028192186356,150,1609059028192186356,-0.00612403819351,0.0195807757762,-5.98884538225e-05,-3.5515581906e-05,2.34633739172e-06,-0.00016550983643,0.99999998567,0.0,0.0,0.0,0.0,0.0,0.0
1609059028295219183,151,1609059028295219183,-0.00835364418441,0.0186103930813,-9.26240133797e-05,-3.44129042337e-05,-4.30482168395e-06,-0.000104483884759,0.99999999394,0.0,0.0,0.0,0.0,0.0,0.0
1609059028366970062,152,1609059028366970062,-0.00835364418441,0.0186103930813,-9.26240133797e-05,-3.44129042337e-05,-4.30482168395e-06,-0.000104483884759,0.99999999394,0.0,0.0,0.0,0.0,0.0,0.0
1609059028467363119,153,1609059028467363119,-0.00810242480229,0.0280643273398,-0.000746843632646,-4.96674991031e-05,-2.12969999133e-05,-6.4762580821e-05,0.999999996443,0.0,0.0,0.0,0.0,0.0,0.0
1609059028570141792,154,1609059028570141792,-0.00810242480229,0.0280643273398,-0.000746843632646,-4.96674991031e-05,-2.12969999133e-05,-6.4762580821e-05,0.999999996443,0.0,0.0,0.0,0.0,0.0,0.0
1609059028673265934,155,1609059028673265934,-0.00181067306166,0.00741750436505,-0.000470774559086,-1.22924974168e-05,1.98661580162e-06,-0.000102975032278,0.999999994621,0.0,0.0,0.0,0.0,0.0,0.0
1609059028777006865,156,1609059028777006865,-0.00181067306166,0.00741750436505,-0.000470774559086,-1.22924974168e-05,1.98661580162e-06,-0.000102975032278,0.999999994621,0.0,0.0,0.0,0.0,0.0,0.0
1609059028880223989,157,1609059028880223989,-0.00476679811973,0.0075294821422,-0.000795155483646,-1.30008622049e-05,-1.32838149546e-05,-0.000144495577527,0.999999989388,0.0,0.0,0.0,0.0,0.0,0.0
1609059028982651949,158,1609059028982651949,-0.00476679811973,0.0075294821422,-0.000795155483646,-1.30008622049e-05,-1.32838149546e-05,-0.000144495577527,0.999999989388,0.0,0.0,0.0,0.0,0.0,0.0
1609059029085549355,159,1609059029085549355,-0.0097571469693,0.0122927046485,0.000275489597113,-2.05845203628e-05,-1.53385775763e-06,9.69614227634e-05,0.999999995086,0.0,0.0,0.0,0.0,0.0,0.0
1609059029188636065,160,1609059029188636065,-0.0097571469693,0.0122927046485,0.000275489597113,-2.05845203628e-05,-1.53385775763e-06,9.69614227634e-05,0.999999995086,0.0,0.0,0.0,0.0,0.0,0.0
1609059029291811466,161,1609059029291811466,-0.00617051302651,0.0280599875365,-3.96679209166e-05,-4.6706848089e-05,-3.29231385302e-06,4.13260461602e-07,0.999999998904,0.0,0.0,0.0,0.0,0.0,0.0
1609059029394959211,162,1609059029394959211,-0.00617051302651,0.0280599875365,-3.96679209166e-05,-4.6706848089e-05,-3.29231385302e-06,4.13260461602e-07,0.999999998904,0.0,0.0,0.0,0.0,0.0,0.0
1609059029466882229,163,1609059029466882229,-0.00820128798394,0.0151058681109,-0.000639810320408,-2.66460268592e-05,-1.6138713848e-05,-0.000106221045171,0.999999993873,0.0,0.0,0.0,0.0,0.0,0.0
1609059029568681717,164,1609059029568681717,-0.00820128798394,0.0151058681109,-0.000639810320408,-2.66460268592e-05,-1.6138713848e-05,-0.000106221045171,0.999999993873,0.0,0.0,0.0,0.0,0.0,0.0
1609059029671488047,165,1609059029671488047,-0.00867263786686,0.0237701221562,-0.000533306497337,-4.38445282076e-05,-2.12439684354e-05,4.22680780251e-05,0.99999999792,0.0,0.0,0.0,0.0,0.0,0.0
1609059029780179501,166,1609059029780179501,-0.00867263786686,0.0237701221562,-0.000533306497337,-4.38445282076e-05,-2.12439684354e-05,4.22680780251e-05,0.99999999792,0.0,0.0,0.0,0.0,0.0,0.0
1609059029883426905,167,1609059029883426905,-0.00930535174617,0.0148634232678,-0.000341453136396,-3.33414253933e-05,-1.31933166608e-05,-0.000178827673943,0.999999983367,0.0,0.0,0.0,0.0,0.0,0.0
1609059029986491203,168,1609059029986491203,-0.00930535174617,0.0148634232678,-0.000341453136396,-3.33414253933e-05,-1.31933166608e-05,-0.000178827673943,0.999999983367,0.0,0.0,0.0,0.0,0.0,0.0
1609059030090518951,169,1609059030090518951,-0.00198134549101,0.0153919834754,-0.000126235261918,-2.56780678061e-05,4.79319134988e-06,-0.000279522107789,0.999999960593,0.0,0.0,0.0,0.0,0.0,0.0
1609059030192771673,170,1609059030192771673,-0.00198134549101,0.0153919834754,-0.000126235261918,-2.56780678061e-05,4.79319134988e-06,-0.000279522107789,0.999999960593,0.0,0.0,0.0,0.0,0.0,0.0
1609059030295773268,171,1609059030295773268,-0.00517456326675,0.00276103042468,0.000605676598455,-2.56396856912e-06,1.5029597096e-05,-4.33904107515e-05,0.999999998942,0.0,0.0,0.0,0.0,0.0,0.0
1609059030369461775,172,1609059030369461775,-0.00517456326675,0.00276103042468,0.000605676598455,-2.56396856912e-06,1.5029597096e-05,-4.33904107515e-05,0.999999998942,0.0,0.0,0.0,0.0,0.0,0.0
1609059030472465515,173,1609059030472465515,-0.00412158140891,0.0165281968128,-0.000529949005754,-2.77670804996e-05,-2.31735646304e-06,-8.93313736791e-05,0.999999995622,0.0,0.0,0.0,0.0,0.0,0.0
1609059030575567722,174,1609059030575567722,-0.00412158140891,0.0165281968128,-0.000529949005754,-2.77670804996e-05,-2.31735646304e-06,-8.93313736791e-05,0.999999995622,0.0,0.0,0.0,0.0,0.0,0.0
1609059030679651260,175,1609059030679651260,-0.00372436421695,0.00288572658249,-0.000407303077823,-3.31589254136e-06,-2.66653408267e-06,-6.42205646673e-05,0.999999997929,0.0,0.0,0.0,0.0,0.0,0.0
1609059030781719685,176,1609059030781719685,-0.00372436421695,0.00288572658249,-0.000407303077823,-3.31589254136e-06,-2.66653408267e-06,-6.42205646673e-05,0.999999997929,0.0,0.0,0.0,0.0,0.0,0.0
1609059030884956121,177,1609059030884956121,-0.00371992033211,0.00979773301951,-0.000852088138179,-1.57450395258e-05,-1.48713750816e-05,-0.000132864894142,0.999999990939,0.0,0.0,0.0,0.0,0.0,0.0
1609059030988535404,178,1609059030988535404,-0.00371992033211,0.00979773301951,-0.000852088138179,-1.57450395258e-05,-1.48713750816e-05,-0.000132864894142,0.999999990939,0.0,0.0,0.0,0.0,0.0,0.0
1609059031090541601,179,1609059031090541601,-0.00711313216055,0.0155869642758,-0.000427897537863,-2.98219791887e-05,-1.44451332456e-05,6.47315519842e-05,0.999999997356,0.0,0.0,0.0,0.0,0.0,0.0
1609059031193632126,180,1609059031193632126,-0.00711313216055,0.0155869642758,-0.000427897537863,-2.98219791887e-05,-1.44451332456e-05,6.47315519842e-05,0.999999997356,0.0,0.0,0.0,0.0,0.0,0.0
1609059031297037363,181,1609059031297037363,0.000468359859349,0.017146600618,-0.000799054426373,-3.18598578425e-05,-1.04639200538e-05,-0.000373225681291,0.999999929789,0.0,0.0,0.0,0.0,0.0,0.0
1609059031367552519,182,1609059031367552519,0.000468359859349,0.017146600618,-0.000799054426373,-3.18598578425e-05,-1.04639200538e-05,-0.000373225681291,0.999999929789,0.0,0.0,0.0,0.0,0.0,0.0
1609059031468872786,183,1609059031468872786,-0.0052448518904,0.0177785773533,-8.72728694587e-05,-3.32595505509e-05,3.35480433283e-06,-0.000102246638519,0.999999994214,0.0,0.0,0.0,0.0,0.0,0.0
1609059031573636293,184,1609059031573636293,-0.0052448518904,0.0177785773533,-8.72728694587e-05,-3.32595505509e-05,3.35480433283e-06,-0.000102246638519,0.999999994214,0.0,0.0,0.0,0.0,0.0,0.0
1609059031675127029,185,1609059031675127029,-0.00380390750297,0.0130765142865,-0.000226299493282,-2.70083464108e-05,-2.75670753089e-06,-0.000110438233746,0.999999993533,0.0,0.0,0.0,0.0,0.0,0.0
1609059031779003382,186,1609059031779003382,-0.00380390750297,0.0130765142865,-0.000226299493282,-2.70083464108e-05,-2.75670753089e-06,-0.000110438233746,0.999999993533,0.0,0.0,0.0,0.0,0.0,0.0
1609059031881477833,187,1609059031881477833,0.00108227047681,0.0111750103126,0.000113085423992,-1.95174022934e-05,1.97822114165e-05,-0.000383451960954,0.999999926096,0.0,0.0,0.0,0.0,0.0,0.0
1609059031984583378,188,1609059031984583378,0.00108227047681,0.0111750103126,0.000113085423992,-1.95174022934e-05,1.97822114165e-05,-0.000383451960954,0.999999926096,0.0,0.0,0.0,0.0,0.0,0.0
1609059032089373827,189,1609059032089373827,-0.00253206806353,0.0203213547085,-6.92276204136e-05,-3.4081798305e-05,4.23831107454e-06,-0.000117052844136,0.99999999256,0.0,0.0,0.0,0.0,0.0,0.0
1609059032190745115,190,1609059032190745115,-0.00253206806353,0.0203213547085,-6.92276204136e-05,-3.4081798305e-05,4.23831107454e-06,-0.000117052844136,0.99999999256,0.0,0.0,0.0,0.0,0.0,0.0
1609059032295058012,191,1609059032295058012,-0.00334733978822,0.00820153227064,-0.000269808491187,-1.97193859435e-05,4.7891244682e-06,-0.000218929063629,0.999999975829,0.0,0.0,0.0,0.0,0.0,0.0
1609059032397250414,192,1609059032397250414,-0.00334733978822,0.00820153227064,-0.000269808491187,-1.97193859435e-05,4.7891244682e-06,-0.000218929063629,0.999999975829,0.0,0.0,0.0,0.0,0.0,0.0
1609059032467259407,193,1609059032467259407,-0.00655402203904,0.0204235714778,-7.57317840197e-05,-3.65235727402e-05,-1.46620429425e-06,-0.000260971713683,0.999999965279,0.0,0.0,0.0,0.0,0.0,0.0
1609059032568936825,194,1609059032568936825,-0.00655402203904,0.0204235714778,-7.57317840197e-05,-3.65235727402e-05,-1.46620429425e-06,-0.000260971713683,0.999999965279,0.0,0.0,0.0,0.0,0.0,0.0
1609059032672092676,195,1609059032672092676,-0.00374547407421,0.0143103530535,-0.000291017916287,-2.70353400534e-05,-3.55964429922e-06,-0.000191023727695,0.999999981383,0.0,0.0,0.0,0.0,0.0,0.0
1609059032775384665,196,1609059032775384665,-0.00374547407421,0.0143103530535,-0.000291017916287,-2.70353400534e-05,-3.55964429922e-06,-0.000191023727695,0.999999981383,0.0,0.0,0.0,0.0,0.0,0.0
1609059032879106998,197,1609059032879106998,-0.00547600765992,0.0298179167723,-0.000971170764096,-4.95768352902e-05,-1.22803495164e-05,-0.000196244570909,0.99999997944,0.0,0.0,0.0,0.0,0.0,0.0
1609059032981785774,198,1609059032981785774,-0.00547600765992,0.0298179167723,-0.000971170764096,-4.95768352902e-05,-1.22803495164e-05,-0.000196244570909,0.99999997944,0.0,0.0,0.0,0.0,0.0,0.0
1609059033084571838,199,1609059033084571838,-0.00457349222022,0.0183909763463,-0.000770827014774,-3.53991615279e-05,-1.72834354301e-05,-4.2404818708e-05,0.999999998325,0.0,0.0,0.0,0.0,0.0,0.0
1609059033187373400,200,1609059033187373400,-0.00457349222022,0.0183909763463,-0.000770827014774,-3.53991615279e-05,-1.72834354301e-05,-4.2404818708e-05,0.999999998325,0.0,0.0,0.0,0.0,0.0,0.0
1609059033290332317,201,1609059033290332317,-0.00896754527496,0.0109881520141,-0.000797643073085,-1.91567217023e-05,-1.82458124184e-05,-0.000170939080058,0.99999998504,0.0,0.0,0.0,0.0,0.0,0.0
1609059033393647909,202,1609059033393647909,-0.00896754527496,0.0109881520141,-0.000797643073085,-1.91567217023e-05,-1.82458124184e-05,-0.000170939080058,0.99999998504,0.0,0.0,0.0,0.0,0.0,0.0
1609059033496685743,203,1609059033496685743,-0.0113145611198,0.0257998117771,-0.000561168771137,-4.3459851253e-05,-2.1156351785e-05,2.06918968139e-05,0.999999998618,0.0,0.0,0.0,0.0,0.0,0.0
1609059033566900969,204,1609059033566900969,-0.0113145611198,0.0257998117771,-0.000561168771137,-4.3459851253e-05,-2.1156351785e-05,2.06918968139e-05,0.999999998618,0.0,0.0,0.0,0.0,0.0,0.0
1609059033668631315,205,1609059033668631315,-0.00742099002618,0.00418904664071,0.000273960046242,-8.98368629534e-06,5.43500491158e-06,-8.09256981597e-05,0.99999999667,0.0,0.0,0.0,0.0,0.0,0.0
1609059033771908998,206,1609059033771908998,-0.00742099002618,0.00418904664071,0.000273960046242,-8.98368629534e-06,5.43500491158e-06,-8.09256981597e-05,0.99999999667,0.0,0.0,0.0,0.0,0.0,0.0
1609059033875321150,207,1609059033875321150,-0.00820385032866,0.0223009010466,0.00115874766937,-3.72139309429e-05,1.8265235803e-05,-0.000163860867558,0.999999985716,0.0,0.0,0.0,0.0,0.0,0.0
1609059033978591442,208,1609059033978591442,-0.00820385032866,0.0223009010466,0.00115874766937,-3.72139309429e-05,1.8265235803e-05,-0.000163860867558,0.999999985716,0.0,0.0,0.0,0.0,0.0,0.0
1609059034081394911,209,1609059034081394911,-0.000887392947554,0.0215673731564,0.000261290179873,-3.112546175e-05,1.97172999055e-05,5.84736748145e-05,0.999999997612,0.0,0.0,0.0,0.0,0.0,0.0
1609059034184546232,210,1609059034184546232,-0.000887392947554,0.0215673731564,0.000261290179873,-3.112546175e-05,1.97172999055e-05,5.84736748145e-05,0.999999997612,0.0,0.0,0.0,0.0,0.0,0.0
1609059034287946463,211,1609059034287946463,-0.00817587905346,0.0142290243612,-0.00120439038705,-2.47394743021e-05,-1.66396205786e-05,-0.000317442183222,0.999999949171,0.0,0.0,0.0,0.0,0.0,0.0
1609059034390798807,212,1609059034390798807,-0.00817587905346,0.0142290243612,-0.00120439038705,-2.47394743021e-05,-1.66396205786e-05,-0.000317442183222,0.999999949171,0.0,0.0,0.0,0.0,0.0,0.0
1609059034493906498,213,1609059034493906498,-0.00591473828238,0.0137402502209,9.14139089366e-05,-2.4397906889e-05,2.04526184793e-06,-6.3521226079e-05,0.999999997683,0.0,0.0,0.0,0.0,0.0,0.0
1609059034597388029,214,1609059034597388029,-0.00591473828238,0.0137402502209,9.14139089366e-05,-2.4397906889e-05,2.04526184793e-06,-6.3521226079e-05,0.999999997683,0.0,0.0,0.0,0.0,0.0,0.0
1609059034668192387,215,1609059034668192387,-0.0026840020838,0.0180794972066,-0.00100938697928,-3.62153187139e-05,-2.17950734546e-05,-0.000174241527406,0.999999983927,0.0,0.0,0.0,0.0,0.0,0.0
1609059034768651247,216,1609059034768651247,-0.0026840020838,0.0180794972066,-0.00100938697928,-3.62153187139e-05,-2.17950734546e-05,-0.000174241527406,0.999999983927,0.0,0.0,0.0,0.0,0.0,0.0
1609059034871648788,217,1609059034871648788,-0.0147501753757,0.0193752879654,-0.000525538229491,-3.55790404751e-05,-2.45396718591e-05,-0.000143787048831,0.999999988729,0.0,0.0,0.0,0.0,0.0,0.0
1609059034974968672,218,1609059034974968672,-0.0147501753757,0.0193752879654,-0.000525538229491,-3.55790404751e-05,-2.45396718591e-05,-0.000143787048831,0.999999988729,0.0,0.0,0.0,0.0,0.0,0.0
1609059035078006029,219,1609059035078006029,-0.00105989860121,0.0148743414793,-0.000280250616599,-2.67321660173e-05,9.85821372412e-08,-8.01091455147e-05,0.999999996434,0.0,0.0,0.0,0.0,0.0,0.0
1609059035181508541,220,1609059035181508541,-0.00105989860121,0.0148743414793,-0.000280250616599,-2.67321660173e-05,9.85821372412e-08,-8.01091455147e-05,0.999999996434,0.0,0.0,0.0,0.0,0.0,0.0
1609059035284885645,221,1609059035284885645,-0.00867793111833,0.0247648477246,-0.000342701406333,-4.13502894122e-05,-1.35434420014e-05,-3.49653840981e-05,0.999999998442,0.0,0.0,0.0,0.0,0.0,0.0
1609059035387870073,222,1609059035387870073,-0.00867793111833,0.0247648477246,-0.000342701406333,-4.13502894122e-05,-1.35434420014e-05,-3.49653840981e-05,0.999999998442,0.0,0.0,0.0,0.0,0.0,0.0
1609059035490463734,223,1609059035490463734,-0.00942812864782,0.030263638001,-4.96258904401e-06,-5.38853657486e-05,-9.34274475779e-06,-0.000229867119819,0.999999972085,0.0,0.0,0.0,0.0,0.0,0.0
1609059035593838453,224,1609059035593838453,-0.00942812864782,0.030263638001,-4.96258904401e-06,-5.38853657486e-05,-9.34274475779e-06,-0.000229867119819,0.999999972085,0.0,0.0,0.0,0.0,0.0,0.0
1609059035697205782,225,1609059035697205782,-0.003658128859,0.0212009503243,-0.000205192517764,-3.73817885484e-05,-7.88254453059e-06,-3.85373165623e-05,0.999999998528,0.0,0.0,0.0,0.0,0.0,0.0
1609059035767210960,226,1609059035767210960,-0.003658128859,0.0212009503243,-0.000205192517764,-3.73817885484e-05,-7.88254453059e-06,-3.85373165623e-05,0.999999998528,0.0,0.0,0.0,0.0,0.0,0.0
1609059035869139671,227,1609059035869139671,-0.0072354969325,0.0189809336927,-0.000585386370528,-3.48600092468e-05,-9.82494485629e-06,-0.000128056923726,0.999999991145,0.0,0.0,0.0,0.0,0.0,0.0
1609059035972873211,228,1609059035972873211,-0.0072354969325,0.0189809336927,-0.000585386370528,-3.48600092468e-05,-9.82494485629e-06,-0.000128056923726,0.999999991145,0.0,0.0,0.0,0.0,0.0,0.0
1609059036075500011,229,1609059036075500011,-0.010254973947,0.00674719674909,-0.00029720112872,-1.28102077771e-05,-8.77147440751e-06,-4.32691868888e-05,0.999999998943,0.0,0.0,0.0,0.0,0.0,0.0
1609059036178774118,230,1609059036178774118,-0.010254973947,0.00674719674909,-0.00029720112872,-1.28102077771e-05,-8.77147440751e-06,-4.32691868888e-05,0.999999998943,0.0,0.0,0.0,0.0,0.0,0.0
1609059036281961918,231,1609059036281961918,-0.0112166020633,0.0077575707953,-0.000154042568908,-1.52084171727e-05,-3.37379255569e-06,-1.89096198716e-05,0.9999999997,0.0,0.0,0.0,0.0,0.0,0.0
1609059036384078264,232,1609059036384078264,-0.0112166020633,0.0077575707953,-0.000154042568908,-1.52084171727e-05,-3.37379255569e-06,-1.89096198716e-05,0.9999999997,0.0,0.0,0.0,0.0,0.0,0.0
1609059036488783598,233,1609059036488783598,-0.0112619086501,0.0300395159837,-0.00109823520171,-5.05440918839e-05,-2.95406746239e-05,-6.07278305302e-05,0.999999996442,0.0,0.0,0.0,0.0,0.0,0.0
1609059036591870546,234,1609059036591870546,-0.0112619086501,0.0300395159837,-0.00109823520171,-5.05440918839e-05,-2.95406746239e-05,-6.07278305302e-05,0.999999996442,0.0,0.0,0.0,0.0,0.0,0.0
1609059036694231033,235,1609059036694231033,-0.00683337106308,0.0193198391429,6.27255068743e-05,-3.1211593514e-05,-2.28299689254e-06,0.000106108151682,0.999999993881,0.0,0.0,0.0,0.0,0.0,0.0
1609059036796529055,236,1609059036796529055,-0.00683337106308,0.0193198391429,6.27255068743e-05,-3.1211593514e-05,-2.28299689254e-06,0.000106108151682,0.999999993881,0.0,0.0,0.0,0.0,0.0,0.0
1609059036867114305,237,1609059036867114305,-0.0110833369756,0.021395165382,-0.000125463443222,-3.09101503356e-05,-8.66629516084e-06,-3.59678628222e-05,0.999999998838,0.0,0.0,0.0,0.0,0.0,0.0
1609059036968831539,238,1609059036968831539,-0.0110833369756,0.021395165382,-0.000125463443222,-3.09101503356e-05,-8.66629516084e-06,-3.59678628222e-05,0.999999998838,0.0,0.0,0.0,0.0,0.0,0.0
1609059037072415829,239,1609059037072415829,-0.0112310204234,0.0105649898453,-2.61153443271e-05,-1.82508570973e-05,-2.89614235031e-06,-0.000112197390738,0.999999993535,0.0,0.0,0.0,0.0,0.0,0.0
1609059037174883366,240,1609059037174883366,-0.0112310204234,0.0105649898453,-2.61153443271e-05,-1.82508570973e-05,-2.89614235031e-06,-0.000112197390738,0.999999993535,0.0,0.0,0.0,0.0,0.0,0.0
1609059037278379917,241,1609059037278379917,-0.00666029797153,0.015607153821,-0.000310398176925,-2.94669143885e-05,-1.39829298233e-05,-0.000116113425275,0.999999992727,0.0,0.0,0.0,0.0,0.0,0.0
1609059037383863688,242,1609059037383863688,-0.00666029797153,0.015607153821,-0.000310398176925,-2.94669143885e-05,-1.39829298233e-05,-0.000116113425275,0.999999992727,0.0,0.0,0.0,0.0,0.0,0.0
1609059037484624147,243,1609059037484624147,-0.00950413029041,0.0252014396815,-0.000198659955223,-4.14459972443e-05,-1.09716519619e-05,-4.69818904688e-05,0.999999997977,0.0,0.0,0.0,0.0,0.0,0.0
1609059037587566853,244,1609059037587566853,-0.00950413029041,0.0252014396815,-0.000198659955223,-4.14459972443e-05,-1.09716519619e-05,-4.69818904688e-05,0.999999997977,0.0,0.0,0.0,0.0,0.0,0.0
1609059037691877365,245,1609059037691877365,-0.00828502113891,0.0275293733398,-0.000765641611873,-5.03769783618e-05,-2.35807983032e-05,-9.50006897284e-05,0.99999999394,0.0,0.0,0.0,0.0,0.0,0.0
1609059037793764114,246,1609059037793764114,-0.00828502113891,0.0275293733398,-0.000765641611873,-5.03769783618e-05,-2.35807983032e-05,-9.50006897284e-05,0.99999999394,0.0,0.0,0.0,0.0,0.0,0.0
1609059037897848606,247,1609059037897848606,-0.00680654679417,0.0195508670275,-3.79109154827e-05,-2.98695596149e-05,5.9126497451e-07,-0.000300101615916,0.999999954523,0.0,0.0,0.0,0.0,0.0,0.0
1609059037967562914,248,1609059037967562914,-0.00680654679417,0.0195508670275,-3.79109154827e-05,-2.98695596149e-05,5.9126497451e-07,-0.000300101615916,0.999999954523,0.0,0.0,0.0,0.0,0.0,0.0
1609059038069661379,249,1609059038069661379,-0.0117278239841,0.0374364738482,-0.000575938196754,-6.45523831545e-05,-1.79565199772e-05,-0.000181753605031,0.999999981238,0.0,0.0,0.0,0.0,0.0,0.0
1609059038173689127,250,1609059038173689127,-0.0117278239841,0.0374364738482,-0.000575938196754,-6.45523831545e-05,-1.79565199772e-05,-0.000181753605031,0.999999981238,0.0,0.0,0.0,0.0,0.0,0.0
1609059038275166035,251,1609059038275166035,-0.00911573744828,0.0243825958174,-0.000656726336995,-4.86670239977e-05,-1.78351531434e-05,-0.000268466992799,0.999999962619,0.0,0.0,0.0,0.0,0.0,0.0
1609059038378317356,252,1609059038378317356,-0.00911573744828,0.0243825958174,-0.000656726336995,-4.86670239977e-05,-1.78351531434e-05,-0.000268466992799,0.999999962619,0.0,0.0,0.0,0.0,0.0,0.0
1609059038482088566,253,1609059038482088566,-0.00813456800686,0.0124643990699,-0.0012354875183,-2.76924349863e-05,-2.92170896514e-05,-0.000286337671335,0.999999958195,0.0,0.0,0.0,0.0,0.0,0.0
1609059038584953547,254,1609059038584953547,-0.00813456800686,0.0124643990699,-0.0012354875183,-2.76924349863e-05,-2.92170896514e-05,-0.000286337671335,0.999999958195,0.0,0.0,0.0,0.0,0.0,0.0
1609059038687957525,255,1609059038687957525,-0.00464422976787,0.0218952619658,-0.000831604897808,-3.81621527879e-05,-7.44211105822e-06,-0.000253069765611,0.999999967222,0.0,0.0,0.0,0.0,0.0,0.0
1609059038790471792,256,1609059038790471792,-0.00464422976787,0.0218952619658,-0.000831604897808,-3.81621527879e-05,-7.44211105822e-06,-0.000253069765611,0.999999967222,0.0,0.0,0.0,0.0,0.0,0.0
1609059038894347906,257,1609059038894347906,-0.0111645555932,0.00974076245913,0.000707025623033,-1.83313623389e-05,1.25487823251e-05,-0.000119471386648,0.999999992617,0.0,0.0,0.0,0.0,0.0,0.0
1609059038996345282,258,1609059038996345282,-0.0111645555932,0.00974076245913,0.000707025623033,-1.83313623389e-05,1.25487823251e-05,-0.000119471386648,0.999999992617,0.0,0.0,0.0,0.0,0.0,0.0
1609059039066996574,259,1609059039066996574,-0.0108310865223,0.00669168873036,-0.000539224631937,-1.15366101416e-05,-1.40995664962e-05,6.1846612169e-06,0.999999999815,0.0,0.0,0.0,0.0,0.0,0.0
1609059039168853045,260,1609059039168853045,-0.0108310865223,0.00669168873036,-0.000539224631937,-1.15366101416e-05,-1.40995664962e-05,6.1846612169e-06,0.999999999815,0.0,0.0,0.0,0.0,0.0,0.0
1609059039272571325,261,1609059039272571325,-0.00458820780166,0.0117853855521,-0.000279062188296,-1.92495380708e-05,1.67990273397e-06,-0.000165010941256,0.999999986199,0.0,0.0,0.0,0.0,0.0,0.0
1609059039376215935,262,1609059039376215935,-0.00458820780166,0.0117853855521,-0.000279062188296,-1.92495380708e-05,1.67990273397e-06,-0.000165010941256,0.999999986199,0.0,0.0,0.0,0.0,0.0,0.0
1609059039480799198,263,1609059039480799198,-0.00563909114958,0.0309312564479,-0.000210886420125,-5.53316269273e-05,-2.44977680419e-06,-8.82959758851e-05,0.999999994568,0.0,0.0,0.0,0.0,0.0,0.0
1609059039567144871,264,1609059039567144871,-0.00563909114958,0.0309312564479,-0.000210886420125,-5.53316269273e-05,-2.44977680419e-06,-8.82959758851e-05,0.999999994568,0.0,0.0,0.0,0.0,0.0,0.0
1609059039668750525,265,1609059039668750525,-0.00838074560385,0.018388370637,0.000542294962113,-2.90677511567e-05,6.68972326445e-06,-0.000214328679093,0.999999976587,0.0,0.0,0.0,0.0,0.0,0.0
1609059039771687508,266,1609059039771687508,-0.00838074560385,0.018388370637,0.000542294962113,-2.90677511567e-05,6.68972326445e-06,-0.000214328679093,0.999999976587,0.0,0.0,0.0,0.0,0.0,0.0
1609059039875123739,267,1609059039875123739,-0.0140331488598,0.0181989343653,-2.24370314969e-05,-2.8470076118e-05,-1.34446536944e-05,1.39866821361e-06,0.999999999503,0.0,0.0,0.0,0.0,0.0,0.0
1609059039978095055,268,1609059039978095055,-0.0140331488598,0.0181989343653,-2.24370314969e-05,-2.8470076118e-05,-1.34446536944e-05,1.39866821361e-06,0.999999999503,0.0,0.0,0.0,0.0,0.0,0.0
1609059040085588217,269,1609059040085588217,-0.00822329629911,0.0206923489904,7.69508376417e-05,-3.27821095271e-05,1.20672893505e-06,-0.000130593757612,0.999999990935,0.0,0.0,0.0,0.0,0.0,0.0
1609059040189886570,270,1609059040189886570,-0.00822329629911,0.0206923489904,7.69508376417e-05,-3.27821095271e-05,1.20672893505e-06,-0.000130593757612,0.999999990935,0.0,0.0,0.0,0.0,0.0,0.0
1609059040291685343,271,1609059040291685343,-0.00681759903801,0.0151616116009,-8.03097312305e-05,-2.54384625406e-05,2.20997198674e-06,-0.000173603868177,0.999999984605,0.0,0.0,0.0,0.0,0.0,0.0
1609059040394795895,272,1609059040394795895,-0.00681759903801,0.0151616116009,-8.03097312305e-05,-2.54384625406e-05,2.20997198674e-06,-0.000173603868177,0.999999984605,0.0,0.0,0.0,0.0,0.0,0.0
1609059040466839075,273,1609059040466839075,-0.0129246255872,0.0212622534752,0.000161379580874,-3.62493262737e-05,-3.31235956966e-06,-0.000282273845157,0.999999959498,0.0,0.0,0.0,0.0,0.0,0.0
1609059040567986488,274,1609059040567986488,-0.0129246255872,0.0212622534752,0.000161379580874,-3.62493262737e-05,-3.31235956966e-06,-0.000282273845157,0.999999959498,0.0,0.0,0.0,0.0,0.0,0.0
1609059040671050549,275,1609059040671050549,-0.00951824605821,0.0210948248492,-0.000281524438575,-3.42492915428e-05,-1.2180267191e-05,2.70455438752e-05,0.999999998974,0.0,0.0,0.0,0.0,0.0,0.0
1609059040773321629,276,1609059040773321629,-0.00951824605821,0.0210948248492,-0.000281524438575,-3.42492915428e-05,-1.2180267191e-05,2.70455438752e-05,0.999999998974,0.0,0.0,0.0,0.0,0.0,0.0
1609059040877532005,277,1609059040877532005,-0.0106703991297,0.0138403964662,3.70429703088e-05,-2.65618625273e-05,-1.6001368871e-06,-0.000248973012878,0.999999968652,0.0,0.0,0.0,0.0,0.0,0.0
1609059040980399132,278,1609059040980399132,-0.0106703991297,0.0138403964662,3.70429703088e-05,-2.65618625273e-05,-1.6001368871e-06,-0.000248973012878,0.999999968652,0.0,0.0,0.0,0.0,0.0,0.0
1609059041083065033,279,1609059041083065033,-0.00949822091407,0.0138858175627,-4.92971281649e-05,-2.10101993383e-05,3.5328273391e-06,-0.000260819898844,0.99999996576,0.0,0.0,0.0,0.0,0.0,0.0
1609059041186012506,280,1609059041186012506,-0.00949822091407,0.0138858175627,-4.92971281649e-05,-2.10101993383e-05,3.5328273391e-06,-0.000260819898844,0.99999996576,0.0,0.0,0.0,0.0,0.0,0.0
1609059041289031029,281,1609059041289031029,-0.00723582054301,0.0226128078197,-0.000110729455366,-3.81027346731e-05,6.08705246144e-07,-0.000153655246253,0.999999987469,0.0,0.0,0.0,0.0,0.0,0.0
1609059041392050266,282,1609059041392050266,-0.00723582054301,0.0226128078197,-0.000110729455366,-3.81027346731e-05,6.08705246144e-07,-0.000153655246253,0.999999987469,0.0,0.0,0.0,0.0,0.0,0.0
1609059041495124340,283,1609059041495124340,-0.0128639314949,0.0165066318027,0.000574656522983,-3.02995816776e-05,1.10235209608e-05,-0.000248738074477,0.999999968545,0.0,0.0,0.0,0.0,0.0,0.0
1609059041566852570,284,1609059041566852570,-0.0128639314949,0.0165066318027,0.000574656522983,-3.02995816776e-05,1.10235209608e-05,-0.000248738074477,0.999999968545,0.0,0.0,0.0,0.0,0.0,0.0
1609059041666974545,285,1609059041666974545,-0.00916280503008,0.0161987260653,-0.000297451615065,-2.92401342631e-05,-1.45452018678e-05,-0.000163379499576,0.99999998612,0.0,0.0,0.0,0.0,0.0,0.0
1609059041770575047,286,1609059041770575047,-0.00916280503008,0.0161987260653,-0.000297451615065,-2.92401342631e-05,-1.45452018678e-05,-0.000163379499576,0.99999998612,0.0,0.0,0.0,0.0,0.0,0.0
1609059041873438597,287,1609059041873438597,-0.0117728079703,0.0196617200872,-0.000696839399456,-3.65198046459e-05,-2.23752562563e-05,-0.000160648866247,0.999999986179,0.0,0.0,0.0,0.0,0.0,0.0
1609059041976293087,288,1609059041976293087,-0.0117728079703,0.0196617200872,-0.000696839399456,-3.65198046459e-05,-2.23752562563e-05,-0.000160648866247,0.999999986179,0.0,0.0,0.0,0.0,0.0,0.0
1609059042079243898,289,1609059042079243898,-0.00730348583727,0.0172028040782,2.81935407763e-05,-3.26681091282e-05,-8.62731645578e-07,-0.000359971536103,0.999999934676,0.0,0.0,0.0,0.0,0.0,0.0
1609059042182323933,290,1609059042182323933,-0.00730348583727,0.0172028040782,2.81935407763e-05,-3.26681091282e-05,-8.62731645578e-07,-0.000359971536103,0.999999934676,0.0,0.0,0.0,0.0,0.0,0.0
1609059042285309076,291,1609059042285309076,-0.00623831446136,0.0174304804068,2.71157291141e-05,-3.08404854329e-05,1.45996164809e-06,-0.000307622339111,0.999999952208,0.0,0.0,0.0,0.0,0.0,0.0
1609059042389225721,292,1609059042389225721,-0.00623831446136,0.0174304804068,2.71157291141e-05,-3.08404854329e-05,1.45996164809e-06,-0.000307622339111,0.999999952208,0.0,0.0,0.0,0.0,0.0,0.0
1609059042492012739,293,1609059042492012739,-0.0115064489638,0.0135895746078,-0.000292193353088,-2.11582063904e-05,-1.11980700409e-05,-0.000172227662216,0.999999984882,0.0,0.0,0.0,0.0,0.0,0.0
1609059042594581366,294,1609059042594581366,-0.0115064489638,0.0135895746078,-0.000292193353088,-2.11582063904e-05,-1.11980700409e-05,-0.000172227662216,0.999999984882,0.0,0.0,0.0,0.0,0.0,0.0
1609059042666645527,295,1609059042666645527,-0.00969825654762,0.0164285965952,-0.000962528187803,-2.87625446214e-05,-2.68955094879e-05,-0.000292084774663,0.999999956568,0.0,0.0,0.0,0.0,0.0,0.0
1609059042768176794,296,1609059042768176794,-0.00969825654762,0.0164285965952,-0.000962528187803,-2.87625446214e-05,-2.68955094879e-05,-0.000292084774663,0.999999956568,0.0,0.0,0.0,0.0,0.0,0.0
1609059042870127916,297,1609059042870127916,-0.0129185376126,0.0131484627882,-0.000710399994313,-2.35341708294e-05,-2.10122202368e-05,-0.000255661649745,0.999999966821,0.0,0.0,0.0,0.0,0.0,0.0
1609059042973109007,298,1609059042973109007,-0.0129185376126,0.0131484627882,-0.000710399994313,-2.35341708294e-05,-2.10122202368e-05,-0.000255661649745,0.999999966821,0.0,0.0,0.0,0.0,0.0,0.0
1609059043076388836,299,1609059043076388836,-0.0124468690099,0.0216010058448,-0.000403764947699,-4.09611800972e-05,-2.00752298843e-05,-0.000197247930227,0.999999979506,0.0,0.0,0.0,0.0,0.0,0.0
1609059043181415081,300,1609059043181415081,-0.0124468690099,0.0216010058448,-0.000403764947699,-4.09611800972e-05,-2.00752298843e-05,-0.000197247930227,0.999999979506,0.0,0.0,0.0,0.0,0.0,0.0
1609059043282460928,301,1609059043282460928,-0.00784705783504,0.00991623316133,-0.000730238583429,-1.97962661184e-05,-1.40838591414e-05,-0.000310233870554,0.999999951582,0.0,0.0,0.0,0.0,0.0,0.0
1609059043385930061,302,1609059043385930061,-0.00784705783504,0.00991623316133,-0.000730238583429,-1.97962661184e-05,-1.40838591414e-05,-0.000310233870554,0.999999951582,0.0,0.0,0.0,0.0,0.0,0.0
1609059043488548040,303,1609059043488548040,-0.00813854128309,0.0223959648861,-1.50926521184e-05,-3.79252407756e-05,9.30857534137e-06,-0.000135815577584,0.999999990015,0.0,0.0,0.0,0.0,0.0,0.0
1609059043591886044,304,1609059043591886044,-0.00813854128309,0.0223959648861,-1.50926521184e-05,-3.79252407756e-05,9.30857534137e-06,-0.000135815577584,0.999999990015,0.0,0.0,0.0,0.0,0.0,0.0
1609059043695200205,305,1609059043695200205,-0.0108143515907,0.0235987132811,-0.000691735851174,-3.92136051934e-05,-2.56692336883e-05,-0.000202061731457,0.999999978487,0.0,0.0,0.0,0.0,0.0,0.0
1609059043766734600,306,1609059043766734600,-0.0108143515907,0.0235987132811,-0.000691735851174,-3.92136051934e-05,-2.56692336883e-05,-0.000202061731457,0.999999978487,0.0,0.0,0.0,0.0,0.0,0.0
1609059043867028475,307,1609059043867028475,-0.0147978589767,0.0205175308677,-0.00031873284595,-3.79153804955e-05,-1.94012973304e-05,-0.000130766245855,0.999999990543,0.0,0.0,0.0,0.0,0.0,0.0
1609059043971364260,308,1609059043971364260,-0.0147978589767,0.0205175308677,-0.00031873284595,-3.79153804955e-05,-1.94012973304e-05,-0.000130766245855,0.999999990543,0.0,0.0,0.0,0.0,0.0,0.0
1609059044073214054,309,1609059044073214054,-0.00874985625245,0.0212474224857,-0.000425809879268,-3.58566363195e-05,-1.08973521664e-05,-0.000129388486574,0.999999990927,0.0,0.0,0.0,0.0,0.0,0.0
1609059044176630497,310,1609059044176630497,-0.00874985625245,0.0212474224857,-0.000425809879268,-3.58566363195e-05,-1.08973521664e-05,-0.000129388486574,0.999999990927,0.0,0.0,0.0,0.0,0.0,0.0
1609059044281150818,311,1609059044281150818,-0.0101501256552,0.0260847801326,-0.00106962850712,-4.6955099751e-05,-2.86446736348e-05,-9.12313372278e-05,0.999999994326,0.0,0.0,0.0,0.0,0.0,0.0
1609059044383008003,312,1609059044383008003,-0.0101501256552,0.0260847801326,-0.00106962850712,-4.6955099751e-05,-2.86446736348e-05,-9.12313372278e-05,0.999999994326,0.0,0.0,0.0,0.0,0.0,0.0
1609059044485633135,313,1609059044485633135,-0.00702691082798,0.0210423158698,0.000194508838804,-3.94991888235e-05,4.04333709665e-06,-0.000142445115457,0.999999989066,0.0,0.0,0.0,0.0,0.0,0.0
1609059044588596106,314,1609059044588596106,-0.00702691082798,0.0210423158698,0.000194508838804,-3.94991888235e-05,4.04333709665e-06,-0.000142445115457,0.999999989066,0.0,0.0,0.0,0.0,0.0,0.0
1609059044691612482,315,1609059044691612482,-0.00861110134205,0.0243363502373,-0.000630939633079,-3.96087983372e-05,-1.27874029027e-05,-0.000146104774973,0.999999988461,0.0,0.0,0.0,0.0,0.0,0.0
1609059044794835329,316,1609059044794835329,-0.00861110134205,0.0243363502373,-0.000630939633079,-3.96087983372e-05,-1.27874029027e-05,-0.000146104774973,0.999999988461,0.0,0.0,0.0,0.0,0.0,0.0
1609059044866739273,317,1609059044866739273,-0.0115040891516,0.00677592314165,-0.000474303731469,-1.0697937684e-05,-1.07444394118e-05,-0.000125353504107,0.999999992028,0.0,0.0,0.0,0.0,0.0,0.0
1609059044966937304,318,1609059044966937304,-0.0115040891516,0.00677592314165,-0.000474303731469,-1.0697937684e-05,-1.07444394118e-05,-0.000125353504107,0.999999992028,0.0,0.0,0.0,0.0,0.0,0.0
1609059045070520163,319,1609059045070520163,-0.0115870577858,0.0166389109438,9.88405397316e-05,-3.12500679654e-05,1.80595336076e-06,-0.000106991000423,0.999999993787,0.0,0.0,0.0,0.0,0.0,0.0
1609059045173593521,320,1609059045173593521,-0.0115870577858,0.0166389109438,9.88405397316e-05,-3.12500679654e-05,1.80595336076e-06,-0.000106991000423,0.999999993787,0.0,0.0,0.0,0.0,0.0,0.0
1609059045276827335,321,1609059045276827335,-0.00903458042975,0.0117747620861,-0.00046510406915,-1.55661883066e-05,-2.22978995561e-07,-0.000273036869371,0.999999962604,0.0,0.0,0.0,0.0,0.0,0.0
1609059045379862547,322,1609059045379862547,-0.00903458042975,0.0117747620861,-0.00046510406915,-1.55661883066e-05,-2.22978995561e-07,-0.000273036869371,0.999999962604,0.0,0.0,0.0,0.0,0.0,0.0
1609059045482702971,323,1609059045482702971,-0.0116130054186,0.0206810089127,-0.000692625745323,-3.28065554169e-05,-1.50145058273e-05,-8.68369877316e-05,0.999999995579,0.0,0.0,0.0,0.0,0.0,0.0
1609059045585567951,324,1609059045585567951,-0.0116130054186,0.0206810089127,-0.000692625745323,-3.28065554169e-05,-1.50145058273e-05,-8.68369877316e-05,0.999999995579,0.0,0.0,0.0,0.0,0.0,0.0
1609059045688874722,325,1609059045688874722,-0.0178238496553,0.0168384981436,0.000231977065405,-2.71536594593e-05,-1.42811798081e-05,-7.21628729232e-06,0.999999999503,0.0,0.0,0.0,0.0,0.0,0.0
1609059045792053938,326,1609059045792053938,-0.0178238496553,0.0168384981436,0.000231977065405,-2.71536594593e-05,-1.42811798081e-05,-7.21628729232e-06,0.999999999503,0.0,0.0,0.0,0.0,0.0,0.0
1609059045896445513,327,1609059045896445513,-0.00555339196079,0.0190684792631,-0.000252644042126,-3.53023466535e-05,-6.22273134763e-07,-0.000186125225561,0.999999982055,0.0,0.0,0.0,0.0,0.0,0.0
1609059045968484879,328,1609059045968484879,-0.00555339196079,0.0190684792631,-0.000252644042126,-3.53023466535e-05,-6.22273134763e-07,-0.000186125225561,0.999999982055,0.0,0.0,0.0,0.0,0.0,0.0
1609059046069432974,329,1609059046069432974,-0.00981100900839,0.0244096550255,-0.000338049832945,-3.85346641751e-05,-1.1360628207e-05,-0.000198264030675,0.999999979539,0.0,0.0,0.0,0.0,0.0,0.0
1609059046171445370,330,1609059046171445370,-0.00981100900839,0.0244096550255,-0.000338049832945,-3.85346641751e-05,-1.1360628207e-05,-0.000198264030675,0.999999979539,0.0,0.0,0.0,0.0,0.0,0.0
1609059046274494171,331,1609059046274494171,-0.00767214888706,0.0248303194487,0.000744277378566,-3.86584470831e-05,2.33754085462e-05,-8.94811676156e-05,0.999999994976,0.0,0.0,0.0,0.0,0.0,0.0
1609059046375938654,332,1609059046375938654,-0.00767214888706,0.0248303194487,0.000744277378566,-3.86584470831e-05,2.33754085462e-05,-8.94811676156e-05,0.999999994976,0.0,0.0,0.0,0.0,0.0,0.0
1609059046480397224,333,1609059046480397224,-0.00355744451681,0.0201315069688,0.000420071011619,-3.17135713253e-05,1.77347306318e-05,-0.000132169682186,0.999999990605,0.0,0.0,0.0,0.0,0.0,0.0
1609059046584461451,334,1609059046584461451,-0.00355744451681,0.0201315069688,0.000420071011619,-3.17135713253e-05,1.77347306318e-05,-0.000132169682186,0.999999990605,0.0,0.0,0.0,0.0,0.0,0.0
1609059046686884880,335,1609059046686884880,-0.00198341837094,0.0198974172604,-1.58507059078e-05,-3.41270791224e-05,9.19037668631e-06,-0.00018314080658,0.999999982605,0.0,0.0,0.0,0.0,0.0,0.0
1609059046790023804,336,1609059046790023804,-0.00198341837094,0.0198974172604,-1.58507059078e-05,-3.41270791224e-05,9.19037668631e-06,-0.00018314080658,0.999999982605,0.0,0.0,0.0,0.0,0.0,0.0
1609059046892498493,337,1609059046892498493,-0.00894514503531,0.0246447633113,3.53188758045e-05,-3.88735272762e-05,4.15849875359e-07,-0.000104913857097,0.999999993741,0.0,0.0,0.0,0.0,0.0,0.0
1609059046995127916,338,1609059046995127916,-0.00894514503531,0.0246447633113,3.53188758045e-05,-3.88735272762e-05,4.15849875359e-07,-0.000104913857097,0.999999993741,0.0,0.0,0.0,0.0,0.0,0.0
1609059047067004681,339,1609059047067004681,-0.00822655175677,0.0289979347856,-5.50098267816e-05,-5.14345247659e-05,-1.09774994118e-06,-0.00023268009747,0.999999971607,0.0,0.0,0.0,0.0,0.0,0.0
1609059047167858839,340,1609059047167858839,-0.00822655175677,0.0289979347856,-5.50098267816e-05,-5.14345247659e-05,-1.09774994118e-06,-0.00023268009747,0.999999971607,0.0,0.0,0.0,0.0,0.0,0.0
1609059047271019220,341,1609059047271019220,-0.0118100656546,0.0335671774871,-0.000324259442385,-5.72680317397e-05,-1.06339829699e-05,-0.000148144583662,0.99999998733,0.0,0.0,0.0,0.0,0.0,0.0
1609059047374055386,342,1609059047374055386,-0.0118100656546,0.0335671774871,-0.000324259442385,-5.72680317397e-05,-1.06339829699e-05,-0.000148144583662,0.99999998733,0.0,0.0,0.0,0.0,0.0,0.0
1609059047477234364,343,1609059047477234364,-0.00490854971464,0.0124941050775,-0.000707775868045,-1.93610024e-05,-6.21687925513e-06,-5.21016234191e-05,0.999999998436,0.0,0.0,0.0,0.0,0.0,0.0
1609059047580589533,344,1609059047580589533,-0.00490854971464,0.0124941050775,-0.000707775868045,-1.93610024e-05,-6.21687925513e-06,-5.21016234191e-05,0.999999998436,0.0,0.0,0.0,0.0,0.0,0.0
1609059047683607340,345,1609059047683607340,-0.00708286523081,0.0140926665518,-0.00104203975973,-2.42446359043e-05,-1.32506484114e-05,-0.000157356583917,0.999999987238,0.0,0.0,0.0,0.0,0.0,0.0
1609059047786373615,346,1609059047786373615,-0.00708286523081,0.0140926665518,-0.00104203975973,-2.42446359043e-05,-1.32506484114e-05,-0.000157356583917,0.999999987238,0.0,0.0,0.0,0.0,0.0,0.0
1609059047889617682,347,1609059047889617682,-0.0110874673845,0.0197230236023,-0.000487377401309,-4.02336109798e-05,-1.9400022382e-05,-0.000159337973894,0.999999986308,0.0,0.0,0.0,0.0,0.0,0.0
1609059047992578030,348,1609059047992578030,-0.0110874673845,0.0197230236023,-0.000487377401309,-4.02336109798e-05,-1.9400022382e-05,-0.000159337973894,0.999999986308,0.0,0.0,0.0,0.0,0.0,0.0
1609059048096188307,349,1609059048096188307,-0.00443096108147,0.0212260665296,0.000205440035135,-3.76083207612e-05,1.05873176042e-05,-0.000266324029059,0.999999963773,0.0,0.0,0.0,0.0,0.0,0.0
1609059048167322397,350,1609059048167322397,-0.00443096108147,0.0212260665296,0.000205440035135,-3.76083207612e-05,1.05873176042e-05,-0.000266324029059,0.999999963773,0.0,0.0,0.0,0.0,0.0,0.0
1609059048267796755,351,1609059048267796755,-0.00702143460871,0.0238769127638,-0.000647624157964,-3.9845177874e-05,-1.40586084077e-05,-6.8953828964e-05,0.99999999673,0.0,0.0,0.0,0.0,0.0,0.0
1609059048370614290,352,1609059048370614290,-0.00702143460871,0.0238769127638,-0.000647624157964,-3.9845177874e-05,-1.40586084077e-05,-6.8953828964e-05,0.99999999673,0.0,0.0,0.0,0.0,0.0,0.0
1609059048473930597,353,1609059048473930597,-0.00999956263419,0.0224063703732,0.000465815796756,-3.75846839086e-05,1.40434907458e-05,-5.52981926483e-05,0.999999997666,0.0,0.0,0.0,0.0,0.0,0.0
1609059048577192068,354,1609059048577192068,-0.00999956263419,0.0224063703732,0.000465815796756,-3.75846839086e-05,1.40434907458e-05,-5.52981926483e-05,0.999999997666,0.0,0.0,0.0,0.0,0.0,0.0
1609059048680349827,355,1609059048680349827,-0.00644803677638,0.0164371004311,0.00088695453927,-3.17512722885e-05,2.0546297258e-05,-0.000279142847995,0.999999960324,0.0,0.0,0.0,0.0,0.0,0.0
1609059048783399820,356,1609059048783399820,-0.00644803677638,0.0164371004311,0.00088695453927,-3.17512722885e-05,2.0546297258e-05,-0.000279142847995,0.999999960324,0.0,0.0,0.0,0.0,0.0,0.0
1609059048886304617,357,1609059048886304617,-0.00771886674348,0.0288150317862,-0.000206960996923,-4.82975030472e-05,-1.4885270094e-05,-0.000159390580382,0.99999998602,0.0,0.0,0.0,0.0,0.0,0.0
1609059048989261866,358,1609059048989261866,-0.00771886674348,0.0288150317862,-0.000206960996923,-4.82975030472e-05,-1.4885270094e-05,-0.000159390580382,0.99999998602,0.0,0.0,0.0,0.0,0.0,0.0
