%time,field.header.seq,field.header.stamp,field.pose.pose.position.x,field.pose.pose.position.y,field.pose.pose.position.z,field.pose.pose.orientation.x,field.pose.pose.orientation.y,field.pose.pose.orientation.z,field.pose.pose.orientation.w,field.twist.twist.linear.x,field.twist.twist.linear.y,field.twist.twist.linear.z,field.twist.twist.angular.x,field.twist.twist.angular.y,field.twist.twist.angular.z
1609055138082436800,38,1609055138082436800,-0.0036036742966,0.010686735698,-0.000280315438082,2.23099466346e-06,-1.69306665353e-05,7.50914545398e-05,0.999999997035,0.0,0.0,0.0,0.0,0.0,0.0
1609055138185598373,39,1609055138185598373,-0.00196998828633,0.00711911477323,-0.000341040361827,-1.70863880509e-05,2.20901534164e-05,-3.16537595033e-05,0.999999999109,0.0,0.0,0.0,0.0,0.0,0.0
1609055138288430691,40,1609055138288430691,-0.00196998828633,0.00711911477323,-0.000341040361827,-1.70863880509e-05,2.20901534164e-05,-3.16537595033e-05,0.999999999109,0.0,0.0,0.0,0.0,0.0,0.0
1609055138391639709,41,1609055138391639709,-0.00618847690273,0.00456992430031,0.000946195883308,-2.91782128985e-05,1.81697296655e-05,5.85527477918e-05,0.999999997695,0.0,0.0,0.0,0.0,0.0,0.0
1609055138570419550,42,1609055138570419550,-0.00618847690273,0.00456992430031,0.000946195883308,-2.91782128985e-05,1.81697296655e-05,5.85527477918e-05,0.999999997695,0.0,0.0,0.0,0.0,0.0,0.0
1609055138671918392,43,1609055138671918392,-0.00677599577989,0.00559517654781,-0.00237081648873,5.14649910234e-05,-4.87064300413e-05,0.000249915195125,0.999999966261,0.0,0.0,0.0,0.0,0.0,0.0
1609055138775399446,44,1609055138775399446,-0.00677599577989,0.00559517654781,-0.00237081648873,5.14649910234e-05,-4.87064300413e-05,0.000249915195125,0.999999966261,0.0,0.0,0.0,0.0,0.0,0.0
1609055138879186630,45,1609055138879186630,-0.0016691457165,0.0091243705935,-0.00167135618504,9.61956123708e-06,-8.36620276706e-06,7.77083978621e-05,0.999999996899,0.0,0.0,0.0,0.0,0.0,0.0
1609055138981231689,46,1609055138981231689,-0.0016691457165,0.0091243705935,-0.00167135618504,9.61956123708e-06,-8.36620276706e-06,7.77083978621e-05,0.999999996899,0.0,0.0,0.0,0.0,0.0,0.0
1609055139084480762,47,1609055139084480762,-0.00396633070116,0.00544259353675,-0.000929348119302,-2.0318420831e-06,-9.06507103895e-06,8.75080488032e-05,0.999999996128,0.0,0.0,0.0,0.0,0.0,0.0
1609055139188335419,48,1609055139188335419,-0.00396633070116,0.00544259353675,-0.000929348119302,-2.0318420831e-06,-9.06507103895e-06,8.75080488032e-05,0.999999996128,0.0,0.0,0.0,0.0,0.0,0.0
1609055139289583921,49,1609055139289583921,-0.000123473515551,0.00348212894259,-0.000576663152243,-1.53678842904e-05,6.68433982584e-06,0.00023628226961,0.999999971945,0.0,0.0,0.0,0.0,0.0,0.0
1609055139392522335,50,1609055139392522335,-0.000123473515551,0.00348212894259,-0.000576663152243,-1.53678842904e-05,6.68433982584e-06,0.00023628226961,0.999999971945,0.0,0.0,0.0,0.0,0.0,0.0
1609055139496001244,51,1609055139496001244,-0.00253659560146,0.00559311312084,-0.000571937677122,-4.31676651921e-06,1.50360984524e-05,0.000201796326489,0.999999979517,0.0,0.0,0.0,0.0,0.0,0.0
1609055139669296503,52,1609055139669296503,-0.00253659560146,0.00559311312084,-0.000571937677122,-4.31676651921e-06,1.50360984524e-05,0.000201796326489,0.999999979517,0.0,0.0,0.0,0.0,0.0,0.0
1609055139771072865,53,1609055139771072865,-0.00216933471787,0.00211212048303,-0.00183521217031,3.86961327147e-05,-2.70676222672e-05,2.09595021683e-05,0.999999998665,0.0,0.0,0.0,0.0,0.0,0.0
1609055139874389648,54,1609055139874389648,-0.00216933471787,0.00211212048303,-0.00183521217031,3.86961327147e-05,-2.70676222672e-05,2.09595021683e-05,0.999999998665,0.0,0.0,0.0,0.0,0.0,0.0
1609055139977259398,55,1609055139977259398,-0.00534338321593,0.00230643709557,-0.000559890021019,-1.19817656472e-05,-6.87159503853e-06,-2.77998074825e-06,0.999999999901,0.0,0.0,0.0,0.0,0.0,0.0
1609055140080521584,56,1609055140080521584,-0.00534338321593,0.00230643709557,-0.000559890021019,-1.19817656472e-05,-6.87159503853e-06,-2.77998074825e-06,0.999999999901,0.0,0.0,0.0,0.0,0.0,0.0
1609055140183890343,57,1609055140183890343,-0.00521685860125,0.00436886679334,-0.00174233046744,1.82600216229e-05,-3.42945540275e-05,6.39993475047e-05,0.999999997197,0.0,0.0,0.0,0.0,0.0,0.0
1609055140286782503,58,1609055140286782503,-0.00521685860125,0.00436886679334,-0.00174233046744,1.82600216229e-05,-3.42945540275e-05,6.39993475047e-05,0.999999997197,0.0,0.0,0.0,0.0,0.0,0.0
1609055140389881849,59,1609055140389881849,-0.00725283940653,0.00719882123843,0.00115274325889,-2.1890728763e-05,1.83404071013e-05,0.000222078239397,0.999999974933,0.0,0.0,0.0,0.0,0.0,0.0
1609055140493188143,60,1609055140493188143,-0.00725283940653,0.00719882123843,0.00115274325889,-2.1890728763e-05,1.83404071013e-05,0.000222078239397,0.999999974933,0.0,0.0,0.0,0.0,0.0,0.0
1609055140596115112,61,1609055140596115112,-0.00375795113117,0.0113505031617,-0.00222106738777,2.94832597411e-05,-4.26874767371e-05,4.97793555883e-05,0.999999997415,0.0,0.0,0.0,0.0,0.0,0.0
1609055140700333834,62,1609055140700333834,-0.00375795113117,0.0113505031617,-0.00222106738777,2.94832597411e-05,-4.26874767371e-05,4.97793555883e-05,0.999999997415,0.0,0.0,0.0,0.0,0.0,0.0
1609055140769939899,63,1609055140769939899,-0.00368830218345,0.0080259411752,0.000417081959169,-1.16105457104e-05,1.75036949765e-05,-8.50741985061e-05,0.999999996161,0.0,0.0,0.0,0.0,0.0,0.0
1609055140871591091,64,1609055140871591091,-0.00368830218345,0.0080259411752,0.000417081959169,-1.16105457104e-05,1.75036949765e-05,-8.50741985061e-05,0.999999996161,0.0,0.0,0.0,0.0,0.0,0.0
1609055140974408627,65,1609055140974408627,0.000577078549301,-0.00250523950136,0.000324634539352,-1.99888983533e-05,2.840829076e-05,6.61189763574e-05,0.999999997211,0.0,0.0,0.0,0.0,0.0,0.0
1609055141077489376,66,1609055141077489376,0.000577078549301,-0.00250523950136,0.000324634539352,-1.99888983533e-05,2.840829076e-05,6.61189763574e-05,0.999999997211,0.0,0.0,0.0,0.0,0.0,0.0
1609055141181153059,67,1609055141181153059,-0.00521230816121,0.00949779552847,-0.00183656701964,2.80249885647e-05,-2.91019417441e-05,3.56198539863e-05,0.999999998549,0.0,0.0,0.0,0.0,0.0,0.0
1609055141283681631,68,1609055141283681631,-0.00521230816121,0.00949779552847,-0.00183656701964,2.80249885647e-05,-2.91019417441e-05,3.56198539863e-05,0.999999998549,0.0,0.0,0.0,0.0,0.0,0.0
1609055141386656284,69,1609055141386656284,0.000497450425943,-0.00327218223803,-0.000741987997445,1.7580896706e-05,-4.51530312432e-06,2.81177340311e-05,0.99999999944,0.0,0.0,0.0,0.0,0.0,0.0
1609055141489892244,70,1609055141489892244,0.000497450425943,-0.00327218223803,-0.000741987997445,1.7580896706e-05,-4.51530312432e-06,2.81177340311e-05,0.99999999944,0.0,0.0,0.0,0.0,0.0,0.0
1609055141592767477,71,1609055141592767477,-0.00301421937021,0.0073865828485,-0.000933555787146,1.86739282834e-05,-2.03422206013e-05,0.000208851415521,0.999999977809,0.0,0.0,0.0,0.0,0.0,0.0
1609055141696143627,72,1609055141696143627,-0.00301421937021,0.0073865828485,-0.000933555787146,1.86739282834e-05,-2.03422206013e-05,0.000208851415521,0.999999977809,0.0,0.0,0.0,0.0,0.0,0.0
1609055141799069166,73,1609055141799069166,-0.00120399166145,0.00606983444985,-0.00243181491833,6.82367893935e-06,-2.50194593159e-05,5.39157373355e-05,0.99999999821,0.0,0.0,0.0,0.0,0.0,0.0
1609055141869473696,74,1609055141869473696,-0.00120399166145,0.00606983444985,-0.00243181491833,6.82367893935e-06,-2.50194593159e-05,5.39157373355e-05,0.99999999821,0.0,0.0,0.0,0.0,0.0,0.0
1609055141971397400,75,1609055141971397400,-0.00226372255309,0.000425898369044,-0.0018348816196,2.82081749132e-05,-3.17496174534e-05,0.000129636851749,0.999999990695,0.0,0.0,0.0,0.0,0.0,0.0
1609055142074043036,76,1609055142074043036,-0.00226372255309,0.000425898369044,-0.0018348816196,2.82081749132e-05,-3.17496174534e-05,0.000129636851749,0.999999990695,0.0,0.0,0.0,0.0,0.0,0.0
1609055142177167416,77,1609055142177167416,-0.00470634945696,0.00464760142674,-0.00121433620302,2.47552568809e-05,-2.63935731022e-05,0.000250246422911,0.999999968034,0.0,0.0,0.0,0.0,0.0,0.0
1609055142280574322,78,1609055142280574322,-0.00470634945696,0.00464760142674,-0.00121433620302,2.47552568809e-05,-2.63935731022e-05,0.000250246422911,0.999999968034,0.0,0.0,0.0,0.0,0.0,0.0
1609055142383740664,79,1609055142383740664,-0.00295191600022,-0.00387900675816,-0.000847714169229,1.36404354714e-05,-2.47724645463e-06,-1.75927648181e-05,0.999999999749,0.0,0.0,0.0,0.0,0.0,0.0
1609055142487863302,80,1609055142487863302,-0.00295191600022,-0.00387900675816,-0.000847714169229,1.36404354714e-05,-2.47724645463e-06,-1.75927648181e-05,0.999999999749,0.0,0.0,0.0,0.0,0.0,0.0
1609055142590128183,81,1609055142590128183,-0.007188513848,0.00591958554171,0.000869016157722,-3.48892886352e-05,1.74087302887e-05,-9.06676866307e-05,0.99999999513,0.0,0.0,0.0,0.0,0.0,0.0
1609055142692801476,82,1609055142692801476,-0.007188513848,0.00591958554171,0.000869016157722,-3.48892886352e-05,1.74087302887e-05,-9.06676866307e-05,0.99999999513,0.0,0.0,0.0,0.0,0.0,0.0
1609055142795998096,83,1609055142795998096,-0.0033213623672,0.0113691549563,-0.000951097638943,-1.83099873711e-05,-1.80209166017e-06,-8.95395512754e-05,0.999999995822,0.0,0.0,0.0,0.0,0.0,0.0
1609055142898846149,84,1609055142898846149,-0.0033213623672,0.0113691549563,-0.000951097638943,-1.83099873711e-05,-1.80209166017e-06,-8.95395512754e-05,0.999999995822,0.0,0.0,0.0,0.0,0.0,0.0
1609055142969356298,85,1609055142969356298,-0.00434796867563,0.00165923693169,-0.000252728197473,-1.68566321019e-06,2.0259592554e-06,-9.41908289917e-05,0.999999995561,0.0,0.0,0.0,0.0,0.0,0.0
1609055143073289394,86,1609055143073289394,-0.00434796867563,0.00165923693169,-0.000252728197473,-1.68566321019e-06,2.0259592554e-06,-9.41908289917e-05,0.999999995561,0.0,0.0,0.0,0.0,0.0,0.0
1609055143173997879,87,1609055143173997879,-0.00832585933177,0.0120752985587,-0.00111947258708,-1.14852279235e-06,-1.89509796941e-05,0.000294831518988,0.999999956357,0.0,0.0,0.0,0.0,0.0,0.0
1609055143277559042,88,1609055143277559042,-0.00832585933177,0.0120752985587,-0.00111947258708,-1.14852279235e-06,-1.89509796941e-05,0.000294831518988,0.999999956357,0.0,0.0,0.0,0.0,0.0,0.0
1609055143381267548,89,1609055143381267548,-0.00349628086224,0.00567782261417,0.000286137273827,-6.53104342627e-06,2.31948117607e-06,-2.48697903389e-05,0.999999999667,0.0,0.0,0.0,0.0,0.0,0.0
1609055143483867884,90,1609055143483867884,-0.00349628086224,0.00567782261417,0.000286137273827,-6.53104342627e-06,2.31948117607e-06,-2.48697903389e-05,0.999999999667,0.0,0.0,0.0,0.0,0.0,0.0
1609055143586970091,91,1609055143586970091,-0.00360350599601,0.00452437836389,0.00152596033303,-1.53073303842e-05,2.91130723685e-05,0.000272575076135,0.99999996231,0.0,0.0,0.0,0.0,0.0,0.0
1609055143690078497,92,1609055143690078497,-0.00360350599601,0.00452437836389,0.00152596033303,-1.53073303842e-05,2.91130723685e-05,0.000272575076135,0.99999996231,0.0,0.0,0.0,0.0,0.0,0.0
1609055143793278456,93,1609055143793278456,-0.00416113670165,0.0032994841969,3.86854689266e-05,-2.59954307616e-05,1.98165288577e-05,0.000185561571812,0.999999982249,0.0,0.0,0.0,0.0,0.0,0.0
1609055143896554947,94,1609055143896554947,-0.00416113670165,0.0032994841969,3.86854689266e-05,-2.59954307616e-05,1.98165288577e-05,0.000185561571812,0.999999982249,0.0,0.0,0.0,0.0,0.0,0.0
1609055143999361992,95,1609055143999361992,-0.00422741621324,0.000871038249642,-0.00083546917334,2.27421143746e-05,-1.89849137085e-05,9.45153945411e-05,0.999999995095,0.0,0.0,0.0,0.0,0.0,0.0
1609055144069704533,96,1609055144069704533,-0.00422741621324,0.000871038249642,-0.00083546917334,2.27421143746e-05,-1.89849137085e-05,9.45153945411e-05,0.999999995095,0.0,0.0,0.0,0.0,0.0,0.0
1609055144171433449,97,1609055144171433449,-0.00914779977026,0.00523799489028,-0.000152442748548,2.75467933994e-06,-1.35559294297e-06,0.000217490478397,0.999999976344,0.0,0.0,0.0,0.0,0.0,0.0
1609055144274325371,98,1609055144274325371,-0.00914779977026,0.00523799489028,-0.000152442748548,2.75467933994e-06,-1.35559294297e-06,0.000217490478397,0.999999976344,0.0,0.0,0.0,0.0,0.0,0.0
1609055144377553940,99,1609055144377553940,-0.0110865939777,0.000888130101574,0.00222871760211,-2.91583573825e-05,3.86770716601e-05,0.000372622191951,0.999999929403,0.0,0.0,0.0,0.0,0.0,0.0
1609055144482353449,100,1609055144482353449,-0.0110865939777,0.000888130101574,0.00222871760211,-2.91583573825e-05,3.86770716601e-05,0.000372622191951,0.999999929403,0.0,0.0,0.0,0.0,0.0,0.0
1609055144584256411,101,1609055144584256411,-0.0101164734322,0.00476839032931,0.000332470004795,-1.83010260955e-05,1.05730311873e-05,0.00027523228002,0.9999999619,0.0,0.0,0.0,0.0,0.0,0.0
1609055144691246986,102,1609055144691246986,-0.0101164734322,0.00476839032931,0.000332470004795,-1.83010260955e-05,1.05730311873e-05,0.00027523228002,0.9999999619,0.0,0.0,0.0,0.0,0.0,0.0
1609055144794765711,103,1609055144794765711,-0.00901349247587,0.00176737978561,-0.000157126008368,3.2053176759e-05,-1.84275156257e-05,5.19965090095e-06,0.999999999303,0.0,0.0,0.0,0.0,0.0,0.0
1609055144897527456,104,1609055144897527456,-0.00901349247587,0.00176737978561,-0.000157126008368,3.2053176759e-05,-1.84275156257e-05,5.19965090095e-06,0.999999999303,0.0,0.0,0.0,0.0,0.0,0.0
1609055144969637156,105,1609055144969637156,-0.00293050458508,0.00253591124319,-0.0023026699355,2.36721881098e-05,-4.17933434956e-05,8.98517565396e-05,0.99999999481,0.0,0.0,0.0,0.0,0.0,0.0
1609055145069844961,106,1609055145069844961,-0.00293050458508,0.00253591124319,-0.0023026699355,2.36721881098e-05,-4.17933434956e-05,8.98517565396e-05,0.99999999481,0.0,0.0,0.0,0.0,0.0,0.0
1609055145172804356,107,1609055145172804356,-0.0118634744277,0.00735068292015,0.00104797201781,-1.96926715098e-05,1.89885680641e-05,0.000198162113642,0.999999979992,0.0,0.0,0.0,0.0,0.0,0.0
1609055145275603771,108,1609055145275603771,-0.0118634744277,0.00735068292015,0.00104797201781,-1.96926715098e-05,1.89885680641e-05,0.000198162113642,0.999999979992,0.0,0.0,0.0,0.0,0.0,0.0
1609055145383765221,109,1609055145383765221,-0.00255960932164,-9.58020839121e-05,-0.00122043185471,2.50693742139e-05,-2.20580853624e-05,0.000462296917466,0.999999892583,0.0,0.0,0.0,0.0,0.0,0.0
1609055145486662626,110,1609055145486662626,-0.00255960932164,-9.58020839121e-05,-0.00122043185471,2.50693742139e-05,-2.20580853624e-05,0.000462296917466,0.999999892583,0.0,0.0,0.0,0.0,0.0,0.0
1609055145589866638,111,1609055145589866638,-0.00489247469041,0.0039305410413,-0.000921194041594,-1.21099451035e-05,1.69818730237e-07,5.26598898196e-05,0.99999999854,0.0,0.0,0.0,0.0,0.0,0.0
1609055145694107294,112,1609055145694107294,-0.00489247469041,0.0039305410413,-0.000921194041594,-1.21099451035e-05,1.69818730237e-07,5.26598898196e-05,0.99999999854,0.0,0.0,0.0,0.0,0.0,0.0
1609055145795924664,113,1609055145795924664,-0.00439282081271,2.3909449851e-05,0.00101748078799,-3.6072606397e-06,2.10483931536e-05,0.000127223071621,0.999999991679,0.0,0.0,0.0,0.0,0.0,0.0
1609055145969696045,114,1609055145969696045,-0.00439282081271,2.3909449851e-05,0.00101748078799,-3.6072606397e-06,2.10483931536e-05,0.000127223071621,0.999999991679,0.0,0.0,0.0,0.0,0.0,0.0
1609055146073385477,115,1609055146073385477,-0.00822094582346,0.0047727118667,0.000257708559217,-1.02362854434e-05,1.00556271627e-05,-0.000198709607139,0.999999980154,0.0,0.0,0.0,0.0,0.0,0.0
1609055146174312830,116,1609055146174312830,-0.00822094582346,0.0047727118667,0.000257708559217,-1.02362854434e-05,1.00556271627e-05,-0.000198709607139,0.999999980154,0.0,0.0,0.0,0.0,0.0,0.0
1609055146277687550,117,1609055146277687550,-0.00359020662797,0.00353079811692,-0.000137165515842,7.2203296966e-06,2.28931783053e-06,0.000113403008962,0.999999993541,0.0,0.0,0.0,0.0,0.0,0.0
1609055146381156921,118,1609055146381156921,-0.00359020662797,0.00353079811692,-0.000137165515842,7.2203296966e-06,2.28931783053e-06,0.000113403008962,0.999999993541,0.0,0.0,0.0,0.0,0.0,0.0
1609055146483739853,119,1609055146483739853,0.000442339423094,-0.00581844998445,0.000785965710651,3.27126126368e-06,1.64757009409e-05,8.71479133632e-05,0.999999996062,0.0,0.0,0.0,0.0,0.0,0.0
1609055146587285757,120,1609055146587285757,0.000442339423094,-0.00581844998445,0.000785965710651,3.27126126368e-06,1.64757009409e-05,8.71479133632e-05,0.999999996062,0.0,0.0,0.0,0.0,0.0,0.0
1609055146690243244,121,1609055146690243244,-0.00402406175314,-0.000558770237795,-6.45841515798e-05,1.50830247893e-05,-2.62809077153e-06,0.000365280164916,0.999999933168,0.0,0.0,0.0,0.0,0.0,0.0
1609055146792874336,122,1609055146792874336,-0.00402406175314,-0.000558770237795,-6.45841515798e-05,1.50830247893e-05,-2.62809077153e-06,0.000365280164916,0.999999933168,0.0,0.0,0.0,0.0,0.0,0.0
1609055146895936966,123,1609055146895936966,-0.0104000387369,0.0160451109334,-0.00169452018343,1.73641705035e-06,-1.95180649464e-05,3.86262582292e-06,0.999999999801,0.0,0.0,0.0,0.0,0.0,0.0
1609055147069931746,124,1609055147069931746,-0.0104000387369,0.0160451109334,-0.00169452018343,1.73641705035e-06,-1.95180649464e-05,3.86262582292e-06,0.999999999801,0.0,0.0,0.0,0.0,0.0,0.0
1609055147171777487,125,1609055147171777487,-0.00139618833249,0.00174565451203,-0.00249971837936,3.12648014826e-05,-3.31547996571e-05,0.000221763556797,0.999999974372,0.0,0.0,0.0,0.0,0.0,0.0
1609055147273991585,126,1609055147273991585,-0.00139618833249,0.00174565451203,-0.00249971837936,3.12648014826e-05,-3.31547996571e-05,0.000221763556797,0.999999974372,0.0,0.0,0.0,0.0,0.0,0.0
1609055147377135992,127,1609055147377135992,-0.00748262219853,0.00290583226168,-0.000456420971552,3.2837031609e-06,-6.16279452107e-06,0.000172243003357,0.999999985142,0.0,0.0,0.0,0.0,0.0,0.0
1609055147480468273,128,1609055147480468273,-0.00748262219853,0.00290583226168,-0.000456420971552,3.2837031609e-06,-6.16279452107e-06,0.000172243003357,0.999999985142,0.0,0.0,0.0,0.0,0.0,0.0
1609055147583860397,129,1609055147583860397,-0.00748398966203,0.00639143997725,-0.00185834824111,1.25137674304e-05,-8.54231154674e-06,0.000202676845728,0.999999979346,0.0,0.0,0.0,0.0,0.0,0.0
1609055147686503887,130,1609055147686503887,-0.00748398966203,0.00639143997725,-0.00185834824111,1.25137674304e-05,-8.54231154674e-06,0.000202676845728,0.999999979346,0.0,0.0,0.0,0.0,0.0,0.0
1609055147789752007,131,1609055147789752007,-0.00587722096165,0.00450704801311,-0.000868176877487,1.18907520363e-06,-1.9142183416e-05,-7.79469201789e-05,0.999999996778,0.0,0.0,0.0,0.0,0.0,0.0
1609055147892858028,132,1609055147892858028,-0.00587722096165,0.00450704801311,-0.000868176877487,1.18907520363e-06,-1.9142183416e-05,-7.79469201789e-05,0.999999996778,0.0,0.0,0.0,0.0,0.0,0.0
1609055147997189045,133,1609055147997189045,-0.00650199354873,0.00913363966152,0.000486911195109,-2.60662932825e-05,3.0371082932e-05,0.000229899944178,0.999999972772,0.0,0.0,0.0,0.0,0.0,0.0
1609055148169565439,134,1609055148169565439,-0.00650199354873,0.00913363966152,0.000486911195109,-2.60662932825e-05,3.0371082932e-05,0.000229899944178,0.999999972772,0.0,0.0,0.0,0.0,0.0,0.0
1609055148271074057,135,1609055148271074057,-0.00532403394546,0.0026674141695,-0.00116536034244,2.25687830237e-05,-2.56225404392e-05,0.0001879038675,0.999999981763,0.0,0.0,0.0,0.0,0.0,0.0
1609055148374405384,136,1609055148374405384,-0.00532403394546,0.0026674141695,-0.00116536034244,2.25687830237e-05,-2.56225404392e-05,0.0001879038675,0.999999981763,0.0,0.0,0.0,0.0,0.0,0.0
1609055148478417635,137,1609055148478417635,-0.00817579149612,0.00702784611525,-0.00222248543772,3.37354917121e-05,-5.03565132702e-05,-9.60936531341e-06,0.999999998117,0.0,0.0,0.0,0.0,0.0,0.0
1609055148583073616,138,1609055148583073616,-0.00817579149612,0.00702784611525,-0.00222248543772,3.37354917121e-05,-5.03565132702e-05,-9.60936531341e-06,0.999999998117,0.0,0.0,0.0,0.0,0.0,0.0
1609055148683632374,139,1609055148683632374,-0.0106323778706,0.00866293019598,-0.000743859375371,2.32380476397e-05,-2.88317768216e-05,2.0549417802e-05,0.999999999103,0.0,0.0,0.0,0.0,0.0,0.0
1609055148788128853,140,1609055148788128853,-0.0106323778706,0.00866293019598,-0.000743859375371,2.32380476397e-05,-2.88317768216e-05,2.0549417802e-05,0.999999999103,0.0,0.0,0.0,0.0,0.0,0.0
1609055148889712811,141,1609055148889712811,-0.00535387059553,0.00015174418441,-0.000966401776683,2.86075155648e-05,-2.01695916321e-05,0.000164848452759,0.9999999858,0.0,0.0,0.0,0.0,0.0,0.0
1609055148993099689,142,1609055148993099689,-0.00535387059553,0.00015174418441,-0.000966401776683,2.86075155648e-05,-2.01695916321e-05,0.000164848452759,0.9999999858,0.0,0.0,0.0,0.0,0.0,0.0
1609055149096170425,143,1609055149096170425,-0.00529610563853,0.00174228823003,-0.00153198931181,1.77494648687e-05,-2.97383724174e-05,0.000115963111069,0.999999992677,0.0,0.0,0.0,0.0,0.0,0.0
1609055149269495249,144,1609055149269495249,-0.00529610563853,0.00174228823003,-0.00153198931181,1.77494648687e-05,-2.97383724174e-05,0.000115963111069,0.999999992677,0.0,0.0,0.0,0.0,0.0,0.0
1609055149371571064,145,1609055149371571064,-0.00676922837981,0.00832244495949,-0.000702244358258,-1.27717993276e-05,4.64116832348e-06,0.000107062469117,0.999999994176,0.0,0.0,0.0,0.0,0.0,0.0
1609055149474489212,146,1609055149474489212,-0.00676922837981,0.00832244495949,-0.000702244358258,-1.27717993276e-05,4.64116832348e-06,0.000107062469117,0.999999994176,0.0,0.0,0.0,0.0,0.0,0.0
1609055149578661919,147,1609055149578661919,-0.00833610416133,0.00336635482539,0.000481861975166,-1.07604564264e-05,3.77373584761e-06,1.9296084167e-05,0.999999999749,0.0,0.0,0.0,0.0,0.0,0.0
1609055149682505131,148,1609055149682505131,-0.00833610416133,0.00336635482539,0.000481861975166,-1.07604564264e-05,3.77373584761e-06,1.9296084167e-05,0.999999999749,0.0,0.0,0.0,0.0,0.0,0.0
1609055149785044193,149,1609055149785044193,-0.00445889797938,0.00985516946746,0.000819720603994,-7.4115046365e-06,2.1719784989e-05,0.000158952890265,0.999999987104,0.0,0.0,0.0,0.0,0.0,0.0
1609055149887864351,150,1609055149887864351,-0.00445889797938,0.00985516946746,0.000819720603994,-7.4115046365e-06,2.1719784989e-05,0.000158952890265,0.999999987104,0.0,0.0,0.0,0.0,0.0,0.0
1609055149991185665,151,1609055149991185665,-0.00778551745669,0.00202421536699,0.00139844226735,-2.20385782209e-05,1.52225576413e-05,5.85620143801e-05,0.999999997927,0.0,0.0,0.0,0.0,0.0,0.0
1609055150094257116,152,1609055150094257116,-0.00778551745669,0.00202421536699,0.00139844226735,-2.20385782209e-05,1.52225576413e-05,5.85620143801e-05,0.999999997927,0.0,0.0,0.0,0.0,0.0,0.0
1609055150198007345,153,1609055150198007345,-0.0035431663476,0.0100934889322,-0.000292341901258,-1.08194784619e-05,2.97539622169e-06,-6.5864427052e-05,0.999999997768,0.0,0.0,0.0,0.0,0.0,0.0
1609055150370502949,154,1609055150370502949,-0.0035431663476,0.0100934889322,-0.000292341901258,-1.08194784619e-05,2.97539622169e-06,-6.5864427052e-05,0.999999997768,0.0,0.0,0.0,0.0,0.0,0.0
1609055150473219872,155,1609055150473219872,-0.00445964092054,0.00443260408451,-0.000704480638134,-1.1164319833e-05,-1.59541196978e-06,-9.24350534272e-05,0.999999995664,0.0,0.0,0.0,0.0,0.0,0.0
1609055150575227261,156,1609055150575227261,-0.00445964092054,0.00443260408451,-0.000704480638134,-1.1164319833e-05,-1.59541196978e-06,-9.24350534272e-05,0.999999995664,0.0,0.0,0.0,0.0,0.0,0.0
1609055150678193092,157,1609055150678193092,-0.00554475971634,0.0101261525533,-0.00037590683022,-1.97539587504e-06,-1.89539716987e-06,0.000158181182141,0.999999987486,0.0,0.0,0.0,0.0,0.0,0.0
1609055150781237364,158,1609055150781237364,-0.00554475971634,0.0101261525533,-0.00037590683022,-1.97539587504e-06,-1.89539716987e-06,0.000158181182141,0.999999987486,0.0,0.0,0.0,0.0,0.0,0.0
1609055150884617329,159,1609055150884617329,-0.00628623104459,0.0129400368365,0.00125940490714,-2.98069879545e-05,2.43873697358e-05,8.14679378342e-05,0.99999999594,0.0,0.0,0.0,0.0,0.0,0.0
1609055150987571478,160,1609055150987571478,-0.00628623104459,0.0129400368365,0.00125940490714,-2.98069879545e-05,2.43873697358e-05,8.14679378342e-05,0.99999999594,0.0,0.0,0.0,0.0,0.0,0.0
1609055151090301037,161,1609055151090301037,-0.00549371973251,0.00733636342086,-0.000899399137752,1.47554293945e-05,-8.95761435651e-06,0.000229594739906,0.999999973494,0.0,0.0,0.0,0.0,0.0,0.0
1609055151193549871,162,1609055151193549871,-0.00549371973251,0.00733636342086,-0.000899399137752,1.47554293945e-05,-8.95761435651e-06,0.000229594739906,0.999999973494,0.0,0.0,0.0,0.0,0.0,0.0
1609055151297317028,163,1609055151297317028,-0.00711742276343,0.00966757351625,0.000559765385696,-1.19563723202e-05,1.42469294976e-05,4.49594150936e-05,0.999999998816,0.0,0.0,0.0,0.0,0.0,0.0
1609055151470289946,164,1609055151470289946,-0.00711742276343,0.00966757351625,0.000559765385696,-1.19563723202e-05,1.42469294976e-05,4.49594150936e-05,0.999999998816,0.0,0.0,0.0,0.0,0.0,0.0
1609055151572476864,165,1609055151572476864,-0.0140018505526,0.00948386628018,-0.00146075528404,9.71416259445e-06,-2.85370757945e-05,0.000297008849836,0.999999955439,0.0,0.0,0.0,0.0,0.0,0.0
1609055151675107718,166,1609055151675107718,-0.0140018505526,0.00948386628018,-0.00146075528404,9.71416259445e-06,-2.85370757945e-05,0.000297008849836,0.999999955439,0.0,0.0,0.0,0.0,0.0,0.0
1609055151777958632,167,1609055151777958632,-0.00794160633447,0.0152396918599,0.000486456221697,-2.37803748339e-05,2.37898505056e-05,9.94493741629e-05,0.999999994489,0.0,0.0,0.0,0.0,0.0,0.0
1609055151881113768,168,1609055151881113768,-0.00794160633447,0.0152396918599,0.000486456221697,-2.37803748339e-05,2.37898505056e-05,9.94493741629e-05,0.999999994489,0.0,0.0,0.0,0.0,0.0,0.0
1609055151984843493,169,1609055151984843493,-0.0131116264492,0.00711762951579,-0.00020916577453,1.14486632499e-05,-1.34044745568e-05,0.00035641821023,0.999999936328,0.0,0.0,0.0,0.0,0.0,0.0
1609055152087376595,170,1609055152087376595,-0.0131116264492,0.00711762951579,-0.00020916577453,1.14486632499e-05,-1.34044745568e-05,0.00035641821023,0.999999936328,0.0,0.0,0.0,0.0,0.0,0.0
1609055152190477848,171,1609055152190477848,-0.0118648439892,0.00889482113119,0.00247469938081,-4.42547519093e-05,5.86007513593e-05,0.000246431437906,0.99999996694,0.0,0.0,0.0,0.0,0.0,0.0
1609055152293439150,172,1609055152293439150,-0.0118648439892,0.00889482113119,0.00247469938081,-4.42547519093e-05,5.86007513593e-05,0.000246431437906,0.99999996694,0.0,0.0,0.0,0.0,0.0,0.0
1609055152396142006,173,1609055152396142006,-0.0113810535548,-0.00315548046422,0.000206547333553,1.94771204939e-05,-1.1437621317e-05,7.41153256437e-05,0.999999996998,0.0,0.0,0.0,0.0,0.0,0.0
1609055152569576502,174,1609055152569576502,-0.0113810535548,-0.00315548046422,0.000206547333553,1.94771204939e-05,-1.1437621317e-05,7.41153256437e-05,0.999999996998,0.0,0.0,0.0,0.0,0.0,0.0
1609055152671526194,175,1609055152671526194,-0.00914499099749,-0.00129451069943,0.00203453499048,-2.58783875744e-05,2.87129816936e-05,0.000126020745149,0.999999991312,0.0,0.0,0.0,0.0,0.0,0.0
1609055152774578571,176,1609055152774578571,-0.00914499099749,-0.00129451069943,0.00203453499048,-2.58783875744e-05,2.87129816936e-05,0.000126020745149,0.999999991312,0.0,0.0,0.0,0.0,0.0,0.0
1609055152877686739,177,1609055152877686739,-0.0146849169353,0.00798133788139,0.000470754930657,-3.46516447191e-06,5.62041712252e-06,0.000158415474089,0.99999998743,0.0,0.0,0.0,0.0,0.0,0.0
1609055152980268955,178,1609055152980268955,-0.0146849169353,0.00798133788139,0.000470754930657,-3.46516447191e-06,5.62041712252e-06,0.000158415474089,0.99999998743,0.0,0.0,0.0,0.0,0.0,0.0
1609055153083885193,179,1609055153083885193,-0.0052891706109,-1.60579129859e-05,0.0015652607864,1.38128306359e-06,2.80525407055e-05,0.000171399844111,0.999999984917,0.0,0.0,0.0,0.0,0.0,0.0
1609055153186609983,180,1609055153186609983,-0.0052891706109,-1.60579129859e-05,0.0015652607864,1.38128306359e-06,2.80525407055e-05,0.000171399844111,0.999999984917,0.0,0.0,0.0,0.0,0.0,0.0
1609055153289673090,181,1609055153289673090,-0.00998561782072,0.0110022522858,0.000366018916044,-1.78523573304e-05,1.99790396911e-05,6.58802612353e-05,0.999999997471,0.0,0.0,0.0,0.0,0.0,0.0
1609055153392790794,182,1609055153392790794,-0.00998561782072,0.0110022522858,0.000366018916044,-1.78523573304e-05,1.99790396911e-05,6.58802612353e-05,0.999999997471,0.0,0.0,0.0,0.0,0.0,0.0
1609055153496003389,183,1609055153496003389,-0.00977959308985,0.00857664732987,0.0012977474053,-1.04409713514e-05,6.39787961546e-06,0.000116206034432,0.999999993173,0.0,0.0,0.0,0.0,0.0,0.0
1609055153669197559,184,1609055153669197559,-0.00977959308985,0.00857664732987,0.0012977474053,-1.04409713514e-05,6.39787961546e-06,0.000116206034432,0.999999993173,0.0,0.0,0.0,0.0,0.0,0.0
1609055153771234274,185,1609055153771234274,-0.00724430517689,0.00598721486492,0.000636215285795,-7.4929977397e-06,8.63684969233e-06,8.42328008942e-05,0.999999996387,0.0,0.0,0.0,0.0,0.0,0.0
1609055153873862982,186,1609055153873862982,-0.00724430517689,0.00598721486492,0.000636215285795,-7.4929977397e-06,8.63684969233e-06,8.42328008942e-05,0.999999996387,0.0,0.0,0.0,0.0,0.0,0.0
1609055153976832151,187,1609055153976832151,-0.0143001983158,0.00989550044477,0.00102363996251,-1.18565884624e-06,-3.09341833588e-06,0.000215314855678,0.999999976814,0.0,0.0,0.0,0.0,0.0,0.0
1609055154079991341,188,1609055154079991341,-0.0143001983158,0.00989550044477,0.00102363996251,-1.18565884624e-06,-3.09341833588e-06,0.000215314855678,0.999999976814,0.0,0.0,0.0,0.0,0.0,0.0
1609055154183711290,189,1609055154183711290,-0.00896228216009,0.00591587203175,0.000393951888456,-2.30068672414e-06,3.00889979171e-06,0.000286805691339,0.999999958864,0.0,0.0,0.0,0.0,0.0,0.0
1609055154286588192,190,1609055154286588192,-0.00896228216009,0.00591587203175,0.000393951888456,-2.30068672414e-06,3.00889979171e-06,0.000286805691339,0.999999958864,0.0,0.0,0.0,0.0,0.0,0.0
1609055154389662981,191,1609055154389662981,-0.00117719230362,-0.000112610404825,0.00193576910666,-2.54382425231e-05,4.98268898794e-05,0.000206953892026,0.99999997702,0.0,0.0,0.0,0.0,0.0,0.0
1609055154492826223,192,1609055154492826223,-0.00117719230362,-0.000112610404825,0.00193576910666,-2.54382425231e-05,4.98268898794e-05,0.000206953892026,0.99999997702,0.0,0.0,0.0,0.0,0.0,0.0
1609055154596606731,193,1609055154596606731,-0.0103766277404,0.00356816634444,-0.00127366619714,3.11546314483e-05,-3.87752742643e-05,0.000263055578662,0.999999964164,0.0,0.0,0.0,0.0,0.0,0.0
1609055154769126177,194,1609055154769126177,-0.0103766277404,0.00356816634444,-0.00127366619714,3.11546314483e-05,-3.87752742643e-05,0.000263055578662,0.999999964164,0.0,0.0,0.0,0.0,0.0,0.0
1609055154871373653,195,1609055154871373653,-0.0117668281407,0.00611136154026,-0.00229494116793,4.41468315964e-05,-6.12247642584e-05,0.000134326558035,0.999999988129,0.0,0.0,0.0,0.0,0.0,0.0
1609055154974017859,196,1609055154974017859,-0.0117668281407,0.00611136154026,-0.00229494116793,4.41468315964e-05,-6.12247642584e-05,0.000134326558035,0.999999988129,0.0,0.0,0.0,0.0,0.0,0.0
1609055155077124357,197,1609055155077124357,-0.0094405957681,0.0122412595586,0.000864943102443,-1.7244484441e-05,1.10098799472e-05,7.40781701379e-05,0.999999997047,0.0,0.0,0.0,0.0,0.0,0.0
1609055155180445671,198,1609055155180445671,-0.0094405957681,0.0122412595586,0.000864943102443,-1.7244484441e-05,1.10098799472e-05,7.40781701379e-05,0.999999997047,0.0,0.0,0.0,0.0,0.0,0.0
1609055155283693552,199,1609055155283693552,-0.00597897285058,0.00670477751487,5.74129665676e-05,6.08831438213e-07,-3.47213414198e-06,0.000185797563061,0.999999982733,0.0,0.0,0.0,0.0,0.0,0.0
1609055155386423111,200,1609055155386423111,-0.00597897285058,0.00670477751487,5.74129665676e-05,6.08831438213e-07,-3.47213414198e-06,0.000185797563061,0.999999982733,0.0,0.0,0.0,0.0,0.0,0.0
1609055155489398003,201,1609055155489398003,-0.0124801420588,0.01496491033,0.00208837396483,-1.53313649257e-05,2.33210060151e-05,0.000166046521485,0.999999985825,0.0,0.0,0.0,0.0,0.0,0.0
1609055155592817068,202,1609055155592817068,-0.0124801420588,0.01496491033,0.00208837396483,-1.53313649257e-05,2.33210060151e-05,0.000166046521485,0.999999985825,0.0,0.0,0.0,0.0,0.0,0.0
1609055155696581841,203,1609055155696581841,-0.0116240424145,0.00778257036164,0.000426375188473,-2.18395359229e-05,1.35768563029e-05,-9.15847486583e-07,0.999999999669,0.0,0.0,0.0,0.0,0.0,0.0
1609055155869126797,204,1609055155869126797,-0.0116240424145,0.00778257036164,0.000426375188473,-2.18395359229e-05,1.35768563029e-05,-9.15847486583e-07,0.999999999669,0.0,0.0,0.0,0.0,0.0,0.0
1609055155971297264,205,1609055155971297264,-0.00696820234841,0.00565302559917,-0.000706731524673,8.35028156965e-06,-1.15724781107e-05,0.00016544481637,0.999999986212,0.0,0.0,0.0,0.0,0.0,0.0
1609055156074017525,206,1609055156074017525,-0.00696820234841,0.00565302559917,-0.000706731524673,8.35028156965e-06,-1.15724781107e-05,0.00016544481637,0.999999986212,0.0,0.0,0.0,0.0,0.0,0.0
1609055156177234411,207,1609055156177234411,-0.00828707926933,0.00760822676916,-0.000270438817799,1.21558805331e-05,2.16218574282e-06,0.000435470308311,0.999999905107,0.0,0.0,0.0,0.0,0.0,0.0
1609055156280258656,208,1609055156280258656,-0.00828707926933,0.00760822676916,-0.000270438817799,1.21558805331e-05,2.16218574282e-06,0.000435470308311,0.999999905107,0.0,0.0,0.0,0.0,0.0,0.0
1609055156383428812,209,1609055156383428812,-0.00700631144415,0.00654454972969,0.00100627272644,-1.04864936957e-05,1.32446773528e-05,0.000289147191591,0.999999958054,0.0,0.0,0.0,0.0,0.0,0.0
1609055156486276865,210,1609055156486276865,-0.00700631144415,0.00654454972969,0.00100627272644,-1.04864936957e-05,1.32446773528e-05,0.000289147191591,0.999999958054,0.0,0.0,0.0,0.0,0.0,0.0
1609055156589553356,211,1609055156589553356,-0.0061847002051,0.00561339420531,0.000444912644047,-3.67715087052e-06,4.4785845806e-06,5.17595507714e-05,0.999999998644,0.0,0.0,0.0,0.0,0.0,0.0
1609055156692684174,212,1609055156692684174,-0.0061847002051,0.00561339420531,0.000444912644047,-3.67715087052e-06,4.4785845806e-06,5.17595507714e-05,0.999999998644,0.0,0.0,0.0,0.0,0.0,0.0
1609055156796438694,213,1609055156796438694,-0.00455588589228,0.00290630558603,-0.000794058195186,1.61632326163e-05,-2.08173906288e-05,7.47227706541e-05,0.999999996861,0.0,0.0,0.0,0.0,0.0,0.0
1609055156969201326,214,1609055156969201326,-0.00455588589228,0.00290630558603,-0.000794058195186,1.61632326163e-05,-2.08173906288e-05,7.47227706541e-05,0.999999996861,0.0,0.0,0.0,0.0,0.0,0.0
1609055157071358204,215,1609055157071358204,-0.00872574204659,0.00363716828157,-1.44808928627e-05,-3.86446371795e-08,6.17627956976e-07,9.55674762776e-05,0.999999995433,0.0,0.0,0.0,0.0,0.0,0.0
1609055157173789263,216,1609055157173789263,-0.00872574204659,0.00363716828157,-1.44808928627e-05,-3.86446371795e-08,6.17627956976e-07,9.55674762776e-05,0.999999995433,0.0,0.0,0.0,0.0,0.0,0.0
1609055157276909113,217,1609055157276909113,-0.00501211610479,0.00170640245956,0.00136008579816,-1.43182339661e-05,2.42569749673e-05,0.000233402677423,0.999999972365,0.0,0.0,0.0,0.0,0.0,0.0
1609055157379994154,218,1609055157379994154,-0.00501211610479,0.00170640245956,0.00136008579816,-1.43182339661e-05,2.42569749673e-05,0.000233402677423,0.999999972365,0.0,0.0,0.0,0.0,0.0,0.0
1609055157483261347,219,1609055157483261347,-0.0050005731918,0.00401956077019,-0.000862602006388,1.26169545762e-05,-2.10116725932e-05,6.7037647039e-05,0.999999997453,0.0,0.0,0.0,0.0,0.0,0.0
1609055157586686611,220,1609055157586686611,-0.0050005731918,0.00401956077019,-0.000862602006388,1.26169545762e-05,-2.10116725932e-05,6.7037647039e-05,0.999999997453,0.0,0.0,0.0,0.0,0.0,0.0
1609055157689653158,221,1609055157689653158,-0.0102268199,0.0122072440073,-0.000726785907267,1.09522357672e-05,-2.74751159322e-05,-3.88094118238e-05,0.999999998809,0.0,0.0,0.0,0.0,0.0,0.0
1609055157792306662,222,1609055157792306662,-0.0102268199,0.0122072440073,-0.000726785907267,1.09522357672e-05,-2.74751159322e-05,-3.88094118238e-05,0.999999998809,0.0,0.0,0.0,0.0,0.0,0.0
1609055157895895958,223,1609055157895895958,-0.00908923957484,0.00689822599383,0.000840547253603,-8.84537148976e-06,7.20561214943e-07,0.000276648461902,0.999999961693,0.0,0.0,0.0,0.0,0.0,0.0
1609055158069074392,224,1609055158069074392,-0.00908923957484,0.00689822599383,0.000840547253603,-8.84537148976e-06,7.20561214943e-07,0.000276648461902,0.999999961693,0.0,0.0,0.0,0.0,0.0,0.0
1609055158170943975,225,1609055158170943975,-0.00360748767145,0.00261536074493,0.000468347658913,-1.11067392273e-05,1.30990594806e-05,0.000145826938354,0.99999998922,0.0,0.0,0.0,0.0,0.0,0.0
1609055158273988008,226,1609055158273988008,-0.00360748767145,0.00261536074493,0.000468347658913,-1.11067392273e-05,1.30990594806e-05,0.000145826938354,0.99999998922,0.0,0.0,0.0,0.0,0.0,0.0
1609055158377055407,227,1609055158377055407,-0.00361581189616,0.00477620508034,0.000418616752813,-2.38582210928e-05,2.02915158757e-05,0.000217202435227,0.999999975921,0.0,0.0,0.0,0.0,0.0,0.0
1609055158480107546,228,1609055158480107546,-0.00361581189616,0.00477620508034,0.000418616752813,-2.38582210928e-05,2.02915158757e-05,0.000217202435227,0.999999975921,0.0,0.0,0.0,0.0,0.0,0.0
1609055158583273649,229,1609055158583273649,-0.00835209781908,0.00441237594074,-0.00173082257972,4.33279732763e-05,-3.87990538985e-05,0.000259867757814,0.999999964543,0.0,0.0,0.0,0.0,0.0,0.0
1609055158686275244,230,1609055158686275244,-0.00835209781908,0.00441237594074,-0.00173082257972,4.33279732763e-05,-3.87990538985e-05,0.000259867757814,0.999999964543,0.0,0.0,0.0,0.0,0.0,0.0
1609055158789316893,231,1609055158789316893,-0.00564681889254,0.00670729355893,0.000713247527834,-1.98429414809e-05,7.03943769892e-06,6.22390653681e-05,0.999999997842,0.0,0.0,0.0,0.0,0.0,0.0
1609055158892553091,232,1609055158892553091,-0.00564681889254,0.00670729355893,0.000713247527834,-1.98429414809e-05,7.03943769892e-06,6.22390653681e-05,0.999999997842,0.0,0.0,0.0,0.0,0.0,0.0
1609055158995902538,233,1609055158995902538,-0.00584437859168,0.00225310963276,-2.11939680463e-05,-6.67228310164e-07,-4.14568148056e-06,0.000151227950652,0.999999988556,0.0,0.0,0.0,0.0,0.0,0.0
1609055159169205904,234,1609055159169205904,-0.00584437859168,0.00225310963276,-2.11939680463e-05,-6.67228310164e-07,-4.14568148056e-06,0.000151227950652,0.999999988556,0.0,0.0,0.0,0.0,0.0,0.0
1609055159270748615,235,1609055159270748615,0.00134851501204,0.00562407054586,-0.0011681198636,1.43529651858e-05,-2.08840145644e-05,-0.000101246471545,0.999999994554,0.0,0.0,0.0,0.0,0.0,0.0
1609055159373700380,236,1609055159373700380,0.00134851501204,0.00562407054586,-0.0011681198636,1.43529651858e-05,-2.08840145644e-05,-0.000101246471545,0.999999994554,0.0,0.0,0.0,0.0,0.0,0.0
1609055159476822853,237,1609055159476822853,-0.00684190657704,0.00676908191598,0.000665080916686,-2.11619343305e-05,5.15150111866e-06,0.000104495950157,0.999999994303,0.0,0.0,0.0,0.0,0.0,0.0
1609055159580052853,238,1609055159580052853,-0.00684190657704,0.00676908191598,0.000665080916686,-2.11619343305e-05,5.15150111866e-06,0.000104495950157,0.999999994303,0.0,0.0,0.0,0.0,0.0,0.0
1609055159683261871,239,1609055159683261871,-0.00130823423562,0.00212977963624,-0.000766246278663,-5.07940131168e-06,8.48775698421e-06,0.000187238272725,0.999999982422,0.0,0.0,0.0,0.0,0.0,0.0
1609055159786355972,240,1609055159786355972,-0.00130823423562,0.00212977963624,-0.000766246278663,-5.07940131168e-06,8.48775698421e-06,0.000187238272725,0.999999982422,0.0,0.0,0.0,0.0,0.0,0.0
1609055159889343023,241,1609055159889343023,-0.000879937480093,0.00420967461897,-0.000867310166815,-6.19888369331e-07,-7.75157668096e-06,-4.45308897382e-05,0.999999998978,0.0,0.0,0.0,0.0,0.0,0.0
1609055159992411137,242,1609055159992411137,-0.000879937480093,0.00420967461897,-0.000867310166815,-6.19888369331e-07,-7.75157668096e-06,-4.45308897382e-05,0.999999998978,0.0,0.0,0.0,0.0,0.0,0.0
1609055160095581532,243,1609055160095581532,-0.00700572315066,0.00402547187287,-0.0014625144966,2.63269421505e-05,-3.23961401721e-05,0.000426497441052,0.999999908179,0.0,0.0,0.0,0.0,0.0,0.0
1609055160268934727,244,1609055160268934727,-0.00700572315066,0.00402547187287,-0.0014625144966,2.63269421505e-05,-3.23961401721e-05,0.000426497441052,0.999999908179,0.0,0.0,0.0,0.0,0.0,0.0
1609055160370729685,245,1609055160370729685,-0.0033184660533,0.00109471881231,-0.000749607511643,3.61585586254e-05,-1.70692659285e-05,9.23255112392e-05,0.999999994939,0.0,0.0,0.0,0.0,0.0,0.0
1609055160473731995,246,1609055160473731995,-0.0033184660533,0.00109471881231,-0.000749607511643,3.61585586254e-05,-1.70692659285e-05,9.23255112392e-05,0.999999994939,0.0,0.0,0.0,0.0,0.0,0.0
1609055160577017784,247,1609055160577017784,-0.00379532631181,-0.00100989554253,-0.00134268957572,3.1536216657e-05,-3.07994024753e-05,0.000215264447139,0.999999975859,0.0,0.0,0.0,0.0,0.0,0.0
1609055160680291653,248,1609055160680291653,-0.00379532631181,-0.00100989554253,-0.00134268957572,3.1536216657e-05,-3.07994024753e-05,0.000215264447139,0.999999975859,0.0,0.0,0.0,0.0,0.0,0.0
1609055160783167839,249,1609055160783167839,-0.010115629726,0.00285512860242,-0.000855534989178,2.31623458358e-05,-2.3283795267e-05,0.000286430281205,0.99999995844,0.0,0.0,0.0,0.0,0.0,0.0
1609055160886071444,250,1609055160886071444,-0.010115629726,0.00285512860242,-0.000855534989178,2.31623458358e-05,-2.3283795267e-05,0.000286430281205,0.99999995844,0.0,0.0,0.0,0.0,0.0,0.0
1609055160989200354,251,1609055160989200354,-0.00456399527374,0.0038432629147,-0.000310928461144,8.80375814718e-06,-1.94096032363e-05,0.000132730759477,0.999999990964,0.0,0.0,0.0,0.0,0.0,0.0
1609055161092299223,252,1609055161092299223,-0.00456399527374,0.0038432629147,-0.000310928461144,8.80375814718e-06,-1.94096032363e-05,0.000132730759477,0.999999990964,0.0,0.0,0.0,0.0,0.0,0.0
1609055161195332050,253,1609055161195332050,-0.00911009117506,0.00578735327377,0.000330479352485,-4.54539595763e-07,-1.41617860295e-06,0.000193552057347,0.999999981268,0.0,0.0,0.0,0.0,0.0,0.0
1609055161368924141,254,1609055161368924141,-0.00911009117506,0.00578735327377,0.000330479352485,-4.54539595763e-07,-1.41617860295e-06,0.000193552057347,0.999999981268,0.0,0.0,0.0,0.0,0.0,0.0
1609055161471105576,255,1609055161471105576,-0.0089436917824,0.00324637175954,-0.0010879838981,4.48532952216e-06,-1.6232290088e-05,0.000137255951795,0.999999990439,0.0,0.0,0.0,0.0,0.0,0.0
1609055161573607683,256,1609055161573607683,-0.0089436917824,0.00324637175954,-0.0010879838981,4.48532952216e-06,-1.6232290088e-05,0.000137255951795,0.999999990439,0.0,0.0,0.0,0.0,0.0,0.0
1609055161676759005,257,1609055161676759005,-0.00355603628355,0.00876719854456,-0.00151134024219,-1.52447913217e-05,-2.24973488156e-07,-7.13571709014e-05,0.999999997338,0.0,0.0,0.0,0.0,0.0,0.0
1609055161779980659,258,1609055161779980659,-0.00355603628355,0.00876719854456,-0.00151134024219,-1.52447913217e-05,-2.24973488156e-07,-7.13571709014e-05,0.999999997338,0.0,0.0,0.0,0.0,0.0,0.0
1609055161883199692,259,1609055161883199692,-0.0131471830381,0.0130311159511,-0.00143137949012,6.27472300513e-06,-3.08856402537e-05,0.000220899103979,0.999999975105,0.0,0.0,0.0,0.0,0.0,0.0
1609055161986642838,260,1609055161986642838,-0.0131471830381,0.0130311159511,-0.00143137949012,6.27472300513e-06,-3.08856402537e-05,0.000220899103979,0.999999975105,0.0,0.0,0.0,0.0,0.0,0.0
1609055162089151621,261,1609055162089151621,-0.00337243456025,0.00357023281739,-0.000250853840266,1.54717316317e-05,-9.80384642116e-06,0.000208682842412,0.999999978058,0.0,0.0,0.0,0.0,0.0,0.0
1609055162192154884,262,1609055162192154884,-0.00337243456025,0.00357023281739,-0.000250853840266,1.54717316317e-05,-9.80384642116e-06,0.000208682842412,0.999999978058,0.0,0.0,0.0,0.0,0.0,0.0
1609055162296276093,263,1609055162296276093,0.00247249173073,0.000238701143548,-0.000810712807689,-1.40722857829e-05,1.08337315353e-05,0.000166086054519,0.99999998605,0.0,0.0,0.0,0.0,0.0,0.0
1609055162468726158,264,1609055162468726158,0.00247249173073,0.000238701143548,-0.000810712807689,-1.40722857829e-05,1.08337315353e-05,0.000166086054519,0.99999998605,0.0,0.0,0.0,0.0,0.0,0.0
1609055162571559191,265,1609055162571559191,-0.00371546739545,0.00275730960946,-8.23808861905e-07,6.71803784242e-06,-2.41242911324e-06,0.000108464315088,0.999999994092,0.0,0.0,0.0,0.0,0.0,0.0
1609055162673346281,266,1609055162673346281,-0.00371546739545,0.00275730960946,-8.23808861905e-07,6.71803784242e-06,-2.41242911324e-06,0.000108464315088,0.999999994092,0.0,0.0,0.0,0.0,0.0,0.0
1609055162776581764,267,1609055162776581764,-0.00369958309603,-0.00201110075852,0.000106521885087,-4.55419079441e-06,1.01166632008e-05,-8.16427720761e-05,0.999999996606,0.0,0.0,0.0,0.0,0.0,0.0
1609055162879585505,268,1609055162879585505,-0.00369958309603,-0.00201110075852,0.000106521885087,-4.55419079441e-06,1.01166632008e-05,-8.16427720761e-05,0.999999996606,0.0,0.0,0.0,0.0,0.0,0.0
1609055162982712030,269,1609055162982712030,-0.0147878806132,0.00671445865928,0.0011864491799,-1.5171627357e-06,1.44549600616e-05,0.000110996996335,0.999999993734,0.0,0.0,0.0,0.0,0.0,0.0
1609055163086351156,270,1609055163086351156,-0.0147878806132,0.00671445865928,0.0011864491799,-1.5171627357e-06,1.44549600616e-05,0.000110996996335,0.999999993734,0.0,0.0,0.0,0.0,0.0,0.0
1609055163189177513,271,1609055163189177513,-0.01407688535,0.00543547089079,0.00111168854728,-9.51671546941e-06,1.56195647593e-05,0.000322533489196,0.999999947819,0.0,0.0,0.0,0.0,0.0,0.0
1609055163292199373,272,1609055163292199373,-0.01407688535,0.00543547089079,0.00111168854728,-9.51671546941e-06,1.56195647593e-05,0.000322533489196,0.999999947819,0.0,0.0,0.0,0.0,0.0,0.0
1609055163395289660,273,1609055163395289660,-0.00937992653541,0.00453655024726,0.000952034706248,-2.89172305941e-05,2.49025877794e-05,-0.000150359953183,0.999999987968,0.0,0.0,0.0,0.0,0.0,0.0
1609055163568905830,274,1609055163568905830,-0.00937992653541,0.00453655024726,0.000952034706248,-2.89172305941e-05,2.49025877794e-05,-0.000150359953183,0.999999987968,0.0,0.0,0.0,0.0,0.0,0.0
1609055163670442581,275,1609055163670442581,-0.0127420487297,0.00697323425092,0.00477187805363,-7.4562960946e-05,0.000116292104692,-2.76148097998e-05,0.999999990077,0.0,0.0,0.0,0.0,0.0,0.0
1609055163773359299,276,1609055163773359299,-0.0127420487297,0.00697323425092,0.00477187805363,-7.4562960946e-05,0.000116292104692,-2.76148097998e-05,0.999999990077,0.0,0.0,0.0,0.0,0.0,0.0
1609055163876543760,277,1609055163876543760,-0.0138438715268,0.010725959473,0.0030918335216,-3.26731644929e-05,7.77635374351e-05,0.000238963342206,0.999999967891,0.0,0.0,0.0,0.0,0.0,0.0
1609055163979641914,278,1609055163979641914,-0.0138438715268,0.010725959473,0.0030918335216,-3.26731644929e-05,7.77635374351e-05,0.000238963342206,0.999999967891,0.0,0.0,0.0,0.0,0.0,0.0
1609055164082920313,279,1609055164082920313,0.00178867375766,0.00630851858631,-0.0123683115021,0.000145410166352,-0.000237803238676,-0.000312668357248,0.999999912272,0.0,0.0,0.0,0.0,0.0,0.0
1609055164186211348,280,1609055164186211348,0.00178867375766,0.00630851858631,-0.0123683115021,0.000145410166352,-0.000237803238676,-0.000312668357248,0.999999912272,0.0,0.0,0.0,0.0,0.0,0.0
1609055164289117813,281,1609055164289117813,-0.00155858022848,0.0135364923421,-0.0111049394144,0.000169199194621,-0.000279079110071,-0.000119094176538,0.999999939652,0.0,0.0,0.0,0.0,0.0,0.0
1609055164392302990,282,1609055164392302990,-0.00155858022848,0.0135364923421,-0.0111049394144,0.000169199194621,-0.000279079110071,-0.000119094176538,0.999999939652,0.0,0.0,0.0,0.0,0.0,0.0
1609055164496070862,283,1609055164496070862,0.00113045810065,0.0133164091094,-0.00930045712416,0.000129372935162,-0.000228253875465,-0.000564825388018,0.999999806068,0.0,0.0,0.0,0.0,0.0,0.0
1609055164668622971,284,1609055164668622971,0.00113045810065,0.0133164091094,-0.00930045712416,0.000129372935162,-0.000228253875465,-0.000564825388018,0.999999806068,0.0,0.0,0.0,0.0,0.0,0.0
1609055164770384073,285,1609055164770384073,-0.00391283737083,0.000382489858117,-0.00597215460959,0.00012288706701,-0.000138626349282,-0.000970672631357,0.999999511738,0.0,0.0,0.0,0.0,0.0,0.0
1609055164873408556,286,1609055164873408556,-0.00391283737083,0.000382489858117,-0.00597215460959,0.00012288706701,-0.000138626349282,-0.000970672631357,0.999999511738,0.0,0.0,0.0,0.0,0.0,0.0
1609055164976708174,287,1609055164976708174,-0.0181358570946,0.0228592295854,0.0237826668878,-4.28676287052e-05,0.000400127864441,-0.00361326588844,0.999993391163,0.0,0.0,0.0,0.0,0.0,0.0
1609055165079728127,288,1609055165079728127,-0.0181358570946,0.0228592295854,0.0237826668878,-4.28676287052e-05,0.000400127864441,-0.00361326588844,0.999993391163,0.0,0.0,0.0,0.0,0.0,0.0
1609055165183040380,289,1609055165183040380,-0.0328660119705,0.0227883712575,0.0400369525039,0.000157036970055,0.000877378947099,-0.0125032219565,0.999921434407,0.0,0.0,0.0,0.0,0.0,0.0
1609055165286463022,290,1609055165286463022,-0.0328660119705,0.0227883712575,0.0400369525039,0.000157036970055,0.000877378947099,-0.0125032219565,0.999921434407,0.0,0.0,0.0,0.0,0.0,0.0
1609055165388955116,291,1609055165388955116,-0.0579998933152,0.00533848193965,0.0556950302058,-5.42617424534e-05,0.00120269772423,-0.0262788346808,0.999653926828,0.0,0.0,0.0,0.0,0.0,0.0
1609055165491592169,292,1609055165491592169,-0.0579998933152,0.00533848193965,0.0556950302058,-5.42617424534e-05,0.00120269772423,-0.0262788346808,0.999653926828,0.0,0.0,0.0,0.0,0.0,0.0
1609055165595335245,293,1609055165595335245,-0.0270063453305,-0.0178574921049,0.00879506311056,0.000101838306677,0.00018014260099,-0.0241952257765,0.999707231257,0.0,0.0,0.0,0.0,0.0,0.0
1609055165768328667,294,1609055165768328667,-0.0270063453305,-0.0178574921049,0.00879506311056,0.000101838306677,0.00018014260099,-0.0241952257765,0.999707231257,0.0,0.0,0.0,0.0,0.0,0.0
1609055165870173693,295,1609055165870173693,-0.0284021412372,0.00913779551017,-0.000431890060683,0.000254202458012,-0.000117689040626,-0.0226561556557,0.999743277117,0.0,0.0,0.0,0.0,0.0,0.0
1609055165973328590,296,1609055165973328590,-0.0284021412372,0.00913779551017,-0.000431890060683,0.000254202458012,-0.000117689040626,-0.0226561556557,0.999743277117,0.0,0.0,0.0,0.0,0.0,0.0
1609055166076450348,297,1609055166076450348,-0.0286434883245,0.0696708040561,-0.0303987466621,0.00153792624825,-0.000742783290806,-0.0279636961143,0.999607480342,0.0,0.0,0.0,0.0,0.0,0.0
1609055166179520607,298,1609055166179520607,-0.0286434883245,0.0696708040561,-0.0303987466621,0.00153792624825,-0.000742783290806,-0.0279636961143,0.999607480342,0.0,0.0,0.0,0.0,0.0,0.0
1609055166282768011,299,1609055166282768011,-0.0667037706014,0.0519558985735,-0.0838646678707,0.0204625369799,-0.00849095372545,-0.0294429685251,0.99932091937,0.0,0.0,0.0,0.0,0.0,0.0
1609055166385848761,300,1609055166385848761,-0.0667037706014,0.0519558985735,-0.0838646678707,0.0204625369799,-0.00849095372545,-0.0294429685251,0.99932091937,0.0,0.0,0.0,0.0,0.0,0.0
1609055166488936901,301,1609055166488936901,-0.122498757294,0.067336082392,-0.101935126594,0.0199211460069,-0.0291351154153,-0.0298945542254,0.998929731572,0.0,0.0,0.0,0.0,0.0,0.0
1609055166592168093,302,1609055166592168093,-0.122498757294,0.067336082392,-0.101935126594,0.0199211460069,-0.0291351154153,-0.0298945542254,0.998929731572,0.0,0.0,0.0,0.0,0.0,0.0
1609055166695390463,303,1609055166695390463,-0.162484742622,0.0982030199063,-0.168701654014,0.0197013970228,-0.0399283121213,-0.0304068186082,0.998545447252,0.0,0.0,0.0,0.0,0.0,0.0
1609055166868891478,304,1609055166868891478,-0.162484742622,0.0982030199063,-0.168701654014,0.0197013970228,-0.0399283121213,-0.0304068186082,0.998545447252,0.0,0.0,0.0,0.0,0.0,0.0
1609055166970364332,305,1609055166970364332,-0.223001011862,0.206701985773,-0.198098647449,0.0213293430417,-0.0558928022502,-0.0296497487806,0.997768483256,0.0,0.0,0.0,0.0,0.0,0.0
1609055167073393345,306,1609055167073393345,-0.223001011862,0.206701985773,-0.198098647449,0.0213293430417,-0.0558928022502,-0.0296497487806,0.997768483256,0.0,0.0,0.0,0.0,0.0,0.0
1609055167176541567,307,1609055167176541567,-0.248633516508,0.308191475569,-0.292240665695,0.00744563503329,-0.0699001477725,-0.0302861383502,0.997066337655,0.0,0.0,0.0,0.0,0.0,0.0
1609055167279684067,308,1609055167279684067,-0.248633516508,0.308191475569,-0.292240665695,0.00744563503329,-0.0699001477725,-0.0302861383502,0.997066337655,0.0,0.0,0.0,0.0,0.0,0.0
1609055167382636547,309,1609055167382636547,-0.232052086272,0.403550604273,-0.340941383703,-0.0117643354232,-0.0746076131861,-0.0326540760949,0.996608757628,0.0,0.0,0.0,0.0,0.0,0.0
1609055167485815525,310,1609055167485815525,-0.232052086272,0.403550604273,-0.340941383703,-0.0117643354232,-0.0746076131861,-0.0326540760949,0.996608757628,0.0,0.0,0.0,0.0,0.0,0.0
1609055167589457989,311,1609055167589457989,-0.186985855996,0.484650977371,-0.400573757027,-0.0140352104291,-0.0672947813355,-0.033660900554,0.997066381465,0.0,0.0,0.0,0.0,0.0,0.0
1609055167692022800,312,1609055167692022800,-0.186985855996,0.484650977371,-0.400573757027,-0.0140352104291,-0.0672947813355,-0.033660900554,0.997066381465,0.0,0.0,0.0,0.0,0.0,0.0
1609055167795091391,313,1609055167795091391,-0.104784366957,0.550000367421,-0.511157063418,-0.0157998711009,-0.0592349777792,-0.0336359159425,0.99755210723,0.0,0.0,0.0,0.0,0.0,0.0
1609055167968556166,314,1609055167968556166,-0.104784366957,0.550000367421,-0.511157063418,-0.0157998711009,-0.0592349777792,-0.0336359159425,0.99755210723,0.0,0.0,0.0,0.0,0.0,0.0
1609055168071106195,315,1609055168071106195,0.0098850499789,0.625168387462,-0.644766715813,-0.0146193809334,-0.0618339859048,-0.0320276723786,0.997465317738,0.0,0.0,0.0,0.0,0.0,0.0
1609055168173503637,316,1609055168173503637,0.0098850499789,0.625168387462,-0.644766715813,-0.0146193809334,-0.0618339859048,-0.0320276723786,0.997465317738,0.0,0.0,0.0,0.0,0.0,0.0
1609055168276779175,317,1609055168276779175,0.145351346528,0.656834578997,-0.784578371116,-0.00899039406157,-0.0649091235464,-0.0326604972374,0.997316033369,0.0,0.0,0.0,0.0,0.0,0.0
1609055168379848719,318,1609055168379848719,0.145351346528,0.656834578997,-0.784578371116,-0.00899039406157,-0.0649091235464,-0.0326604972374,0.997316033369,0.0,0.0,0.0,0.0,0.0,0.0
1609055168482652903,319,1609055168482652903,0.251280699132,0.695250320589,-0.895505898397,-0.00227238322836,-0.0575392340085,-0.0328642820076,0.997799584983,0.0,0.0,0.0,0.0,0.0,0.0
1609055168585685730,320,1609055168585685730,0.251280699132,0.695250320589,-0.895505898397,-0.00227238322836,-0.0575392340085,-0.0328642820076,0.997799584983,0.0,0.0,0.0,0.0,0.0,0.0
1609055168689079046,321,1609055168689079046,0.355515753361,0.719032097849,-1.02614514315,0.000313420185928,-0.049179318238,-0.0304452228418,0.998325790928,0.0,0.0,0.0,0.0,0.0,0.0
1609055168792130470,322,1609055168792130470,0.379327259548,0.726016048466,-0.992666689749,-0.0032454999989,-0.0484778236829,-0.0314924217223,0.99832239017,0.0,0.0,0.0,0.0,0.0,0.0
1609055168895235777,323,1609055168895235777,0.510916205437,0.751613697321,-1.06066271899,-0.00530533343556,-0.0456242175074,-0.0311180904436,0.998459788204,0.0,0.0,0.0,0.0,0.0,0.0
1609055169068821430,324,1609055169068821430,0.510916205437,0.751613697321,-1.06066271899,-0.00530533343556,-0.0456242175074,-0.0311180904436,0.998459788204,0.0,0.0,0.0,0.0,0.0,0.0
1609055169170395613,325,1609055169170395613,0.696079755868,0.767206518244,-1.18764995715,-0.00145561291995,-0.0384701081861,-0.0300674142094,0.99880622874,0.0,0.0,0.0,0.0,0.0,0.0
1609055169273409367,326,1609055169273409367,0.696079755868,0.767206518244,-1.18764995715,-0.00145561291995,-0.0384701081861,-0.0300674142094,0.99880622874,0.0,0.0,0.0,0.0,0.0,0.0
1609055169376554251,327,1609055169376554251,0.82308575383,0.786577715166,-1.26391602007,-0.00527216431921,-0.0487690820211,-0.0312497737176,0.998307183469,0.0,0.0,0.0,0.0,0.0,0.0
1609055169479572773,328,1609055169479572773,0.82308575383,0.786577715166,-1.26391602007,-0.00527216431921,-0.0487690820211,-0.0312497737176,0.998307183469,0.0,0.0,0.0,0.0,0.0,0.0
1609055169582808971,329,1609055169582808971,0.946116664737,0.788509094767,-1.32939589037,-0.00701463393138,-0.0510345589703,-0.0322519091696,0.998151332743,0.0,0.0,0.0,0.0,0.0,0.0
1609055169685728550,330,1609055169685728550,0.946116664737,0.788509094767,-1.32939589037,-0.00701463393138,-0.0510345589703,-0.0322519091696,0.998151332743,0.0,0.0,0.0,0.0,0.0,0.0
1609055169788963795,331,1609055169788963795,1.06501762253,0.80908406404,-1.39603752374,-0.00886777352755,-0.0711221353926,-0.0328930237416,0.996885677216,0.0,0.0,0.0,0.0,0.0,0.0
1609055169891989470,332,1609055169891989470,1.06501762253,0.80908406404,-1.39603752374,-0.00886777352755,-0.0711221353926,-0.0328930237416,0.996885677216,0.0,0.0,0.0,0.0,0.0,0.0
1609055169995791435,333,1609055169995791435,1.19320399031,0.815622175504,-1.41904650211,-0.00538732432183,-0.0928036414096,-0.0334248571736,0.995108657284,0.0,0.0,0.0,0.0,0.0,0.0
1609055170168601513,334,1609055170168601513,1.19320399031,0.815622175504,-1.41904650211,-0.00538732432183,-0.0928036414096,-0.0334248571736,0.995108657284,0.0,0.0,0.0,0.0,0.0,0.0
1609055170270894051,335,1609055170270894051,1.43647002264,0.81283171771,-1.51360224148,-0.00402968955409,-0.0721266752012,-0.0330988442806,0.996837986251,0.0,0.0,0.0,0.0,0.0,0.0
1609055170373339415,336,1609055170373339415,1.43647002264,0.81283171771,-1.51360224148,-0.00402968955409,-0.0721266752012,-0.0330988442806,0.996837986251,0.0,0.0,0.0,0.0,0.0,0.0
1609055170476449013,337,1609055170476449013,1.65744781633,0.799971131366,-1.59398805308,-0.00159405310192,-0.0419731746945,-0.0327590969317,0.998580268766,0.0,0.0,0.0,0.0,0.0,0.0
1609055170579489470,338,1609055170579489470,1.65744781633,0.799971131366,-1.59398805308,-0.00159405310192,-0.0419731746945,-0.0327590969317,0.998580268766,0.0,0.0,0.0,0.0,0.0,0.0
1609055170682699442,339,1609055170682699442,1.83842517716,0.791552346945,-1.70266265597,0.0026217779524,-0.0358394137302,-0.0319207013759,0.998844197824,0.0,0.0,0.0,0.0,0.0,0.0
1609055170785727978,340,1609055170785727978,1.87178537912,0.778030335408,-1.7201453994,0.00345042822315,-0.0391369376989,-0.0326316484351,0.998694933487,0.0,0.0,0.0,0.0,0.0,0.0
1609055170888960361,341,1609055170888960361,2.07672002066,0.759276359723,-1.76221693209,0.00344950886086,-0.0537216774992,-0.0318069058025,0.998043287137,0.0,0.0,0.0,0.0,0.0,0.0
1609055170992015839,342,1609055170992015839,2.07672002066,0.759276359723,-1.76221693209,0.00344950886086,-0.0537216774992,-0.0318069058025,0.998043287137,0.0,0.0,0.0,0.0,0.0,0.0
1609055171095966339,343,1609055171095966339,2.28177880151,0.75991478596,-1.81292562318,0.00642454422072,-0.0509197653571,-0.0306322093616,0.998212187101,0.0,0.0,0.0,0.0,0.0,0.0
1609055171268906593,344,1609055171268906593,2.28177880151,0.75991478596,-1.81292562318,0.00642454422072,-0.0509197653571,-0.0306322093616,0.998212187101,0.0,0.0,0.0,0.0,0.0,0.0
1609055171371071815,345,1609055171371071815,2.58336140257,0.75252934362,-1.89549505506,0.00863717484457,-0.0418560617528,-0.0310083820534,0.998605001764,0.0,0.0,0.0,0.0,0.0,0.0
1609055171473484993,346,1609055171473484993,2.58336140257,0.75252934362,-1.89549505506,0.00863717484457,-0.0418560617528,-0.0310083820534,0.998605001764,0.0,0.0,0.0,0.0,0.0,0.0
1609055171576456547,347,1609055171576456547,2.82642058899,0.763596789819,-1.96117366276,-0.00288154331215,-0.0367059940963,-0.0316915723677,0.998819308457,0.0,0.0,0.0,0.0,0.0,0.0
1609055171679416418,348,1609055171679416418,2.82642058899,0.763596789819,-1.96117366276,-0.00288154331215,-0.0367059940963,-0.0316915723677,0.998819308457,0.0,0.0,0.0,0.0,0.0,0.0
1609055171782621861,349,1609055171782621861,3.03721788076,0.761247180624,-2.07494693064,-0.00941152848554,-0.0193564967943,-0.0305624115235,0.999301099852,0.0,0.0,0.0,0.0,0.0,0.0
1609055171885638237,350,1609055171885638237,3.03721788076,0.761247180624,-2.07494693064,-0.00941152848554,-0.0193564967943,-0.0305624115235,0.999301099852,0.0,0.0,0.0,0.0,0.0,0.0
1609055171989297867,351,1609055171989297867,3.23352535918,0.768377662253,-2.14347725477,-0.00562752655624,-0.0200851647878,-0.0283089950593,0.99938156772,0.0,0.0,0.0,0.0,0.0,0.0
1609055172092117310,352,1609055172092117310,3.23922938938,0.773555685954,-2.14081042186,-0.00614314254566,-0.0209389965722,-0.0294570022483,0.999327826712,0.0,0.0,0.0,0.0,0.0,0.0
1609055172195892811,353,1609055172195892811,3.41589822505,0.758791994884,-2.20292808725,0.00432960476382,-0.0296962385079,-0.0303097712069,0.999089938749,0.0,0.0,0.0,0.0,0.0,0.0
