%time,field.header.seq,field.header.stamp,field.pose.pose.position.x,field.pose.pose.position.y,field.pose.pose.position.z,field.pose.pose.orientation.x,field.pose.pose.orientation.y,field.pose.pose.orientation.z,field.pose.pose.orientation.w,field.twist.twist.linear.x,field.twist.twist.linear.y,field.twist.twist.linear.z,field.twist.twist.angular.x,field.twist.twist.angular.y,field.twist.twist.angular.z
1609060339365221739,44,1609060339365221739,0.00246029043697,0.00858928253244,0.000591277189072,-1.31333568763e-05,1.78724523874e-05,0.000102028556356,0.999999994549,0.0,0.0,0.0,0.0,0.0,0.0
1609060339469941139,45,1609060339469941139,-0.00109656549584,-0.00297756462061,-1.37406176901e-05,3.95361770051e-06,3.67605213843e-06,-3.90277073306e-06,0.999999999978,0.0,0.0,0.0,0.0,0.0,0.0
1609060339571170568,46,1609060339571170568,-0.00109656549584,-0.00297756462061,-1.37406176901e-05,3.95361770051e-06,3.67605213843e-06,-3.90277073306e-06,0.999999999978,0.0,0.0,0.0,0.0,0.0,0.0
1609060339674696684,47,1609060339674696684,-0.00196320919278,-0.000900485168103,-0.000916764078402,-3.50058295318e-06,-1.47073274035e-05,0.000128997642841,0.999999991566,0.0,0.0,0.0,0.0,0.0,0.0
1609060339777889967,48,1609060339777889967,-0.00196320919278,-0.000900485168103,-0.000916764078402,-3.50058295318e-06,-1.47073274035e-05,0.000128997642841,0.999999991566,0.0,0.0,0.0,0.0,0.0,0.0
1609060339849735260,49,1609060339849735260,-0.00167684687914,-0.00273323279896,-0.000337793079133,2.00276108689e-06,-1.04230569225e-05,0.000182541028211,0.999999983283,0.0,0.0,0.0,0.0,0.0,0.0
1609060339949380636,50,1609060339949380636,-0.00167684687914,-0.00273323279896,-0.000337793079133,2.00276108689e-06,-1.04230569225e-05,0.000182541028211,0.999999983283,0.0,0.0,0.0,0.0,0.0,0.0
1609060340052584410,51,1609060340052584410,-0.00183184885271,-0.00285279993273,-0.00035729583333,3.33744714804e-06,-6.04161704053e-06,5.2518768011e-05,0.999999998597,0.0,0.0,0.0,0.0,0.0,0.0
1609060340155597210,52,1609060340155597210,-0.00183184885271,-0.00285279993273,-0.00035729583333,3.33744714804e-06,-6.04161704053e-06,5.2518768011e-05,0.999999998597,0.0,0.0,0.0,0.0,0.0,0.0
1609060340258954525,53,1609060340258954525,-0.000727575961816,0.000905199792425,-0.000666069450294,-1.35540488753e-06,-1.19484902813e-05,-6.79899534559e-05,0.999999997616,0.0,0.0,0.0,0.0,0.0,0.0
1609060340361977100,54,1609060340361977100,-0.000727575961816,0.000905199792425,-0.000666069450294,-1.35540488753e-06,-1.19484902813e-05,-6.79899534559e-05,0.999999997616,0.0,0.0,0.0,0.0,0.0,0.0
1609060340464877367,55,1609060340464877367,-0.00230495768474,0.00202877324004,-0.00103911906998,-5.68676742916e-07,-2.03969695002e-05,-4.32910631986e-05,0.999999998855,0.0,0.0,0.0,0.0,0.0,0.0
1609060340567844391,56,1609060340567844391,-0.00230495768474,0.00202877324004,-0.00103911906998,-5.68676742916e-07,-2.03969695002e-05,-4.32910631986e-05,0.999999998855,0.0,0.0,0.0,0.0,0.0,0.0
1609060340671374798,57,1609060340671374798,-0.000225172355051,-0.000107476343494,-0.000522023196895,3.09278234843e-06,-6.82165364126e-06,1.54801645573e-05,0.999999999852,0.0,0.0,0.0,0.0,0.0,0.0
1609060340773963451,58,1609060340773963451,-0.000225172355051,-0.000107476343494,-0.000522023196895,3.09278234843e-06,-6.82165364126e-06,1.54801645573e-05,0.999999999852,0.0,0.0,0.0,0.0,0.0,0.0
1609060340876789331,59,1609060340876789331,-0.00241240336138,0.00374889088474,-0.000420489170974,-5.34969616623e-07,-5.8994068544e-06,2.94948305858e-05,0.999999999547,0.0,0.0,0.0,0.0,0.0,0.0
1609060340948875189,60,1609060340948875189,-0.00241240336138,0.00374889088474,-0.000420489170974,-5.34969616623e-07,-5.8994068544e-06,2.94948305858e-05,0.999999999547,0.0,0.0,0.0,0.0,0.0,0.0
1609060341048787832,61,1609060341048787832,-0.00318990461958,-0.00436238445524,-0.000703801113581,6.64763318513e-06,-1.89678192027e-05,-6.91203489805e-05,0.999999997409,0.0,0.0,0.0,0.0,0.0,0.0
1609060341152105808,62,1609060341152105808,-0.00318990461958,-0.00436238445524,-0.000703801113581,6.64763318513e-06,-1.89678192027e-05,-6.91203489805e-05,0.999999997409,0.0,0.0,0.0,0.0,0.0,0.0
1609060341255239725,63,1609060341255239725,0.00123334031339,0.00305046376851,-0.00126932307189,-9.40693639368e-06,-1.97930727503e-05,9.93192569614e-05,0.999999994828,0.0,0.0,0.0,0.0,0.0,0.0
1609060341358510017,64,1609060341358510017,0.00123334031339,0.00305046376851,-0.00126932307189,-9.40693639368e-06,-1.97930727503e-05,9.93192569614e-05,0.999999994828,0.0,0.0,0.0,0.0,0.0,0.0
1609060341461435556,65,1609060341461435556,0.00339022757059,-0.0101503966027,1.71928409063e-05,2.03804014759e-05,1.21507599988e-05,0.000113320002741,0.999999993298,0.0,0.0,0.0,0.0,0.0,0.0
1609060341564483643,66,1609060341564483643,0.00339022757059,-0.0101503966027,1.71928409063e-05,2.03804014759e-05,1.21507599988e-05,0.000113320002741,0.999999993298,0.0,0.0,0.0,0.0,0.0,0.0
1609060341667694330,67,1609060341667694330,0.00270580639976,0.00198412592754,-0.000793753237057,-3.61044277946e-06,-6.43340780926e-06,-6.61586460113e-06,0.999999999951,0.0,0.0,0.0,0.0,0.0,0.0
1609060341770805120,68,1609060341770805120,0.00270580639976,0.00198412592754,-0.000793753237057,-3.61044277946e-06,-6.43340780926e-06,-6.61586460113e-06,0.999999999951,0.0,0.0,0.0,0.0,0.0,0.0
1609060341873924732,69,1609060341873924732,-0.00115724568588,-0.00570004891843,-0.000415014126202,1.02306632408e-05,-5.68383703639e-06,0.000124508821902,0.99999999218,0.0,0.0,0.0,0.0,0.0,0.0
1609060341977236986,70,1609060341977236986,-0.00115724568588,-0.00570004891843,-0.000415014126202,1.02306632408e-05,-5.68383703639e-06,0.000124508821902,0.99999999218,0.0,0.0,0.0,0.0,0.0,0.0
1609060342049194098,71,1609060342049194098,-0.00368541722505,-0.00651838919394,0.000421415403453,1.38006363725e-05,9.77452040343e-06,9.97089987003e-05,0.999999994886,0.0,0.0,0.0,0.0,0.0,0.0
1609060342149164677,72,1609060342149164677,-0.00368541722505,-0.00651838919394,0.000421415403453,1.38006363725e-05,9.77452040343e-06,9.97089987003e-05,0.999999994886,0.0,0.0,0.0,0.0,0.0,0.0
1609060342252700806,73,1609060342252700806,-0.000294874833635,0.000910482614688,-0.000292612271138,1.12224036761e-06,4.79838640561e-06,-5.80892024506e-05,0.999999998301,0.0,0.0,0.0,0.0,0.0,0.0
1609060342355244398,74,1609060342355244398,-0.000294874833635,0.000910482614688,-0.000292612271138,1.12224036761e-06,4.79838640561e-06,-5.80892024506e-05,0.999999998301,0.0,0.0,0.0,0.0,0.0,0.0
1609060342458437681,75,1609060342458437681,-0.00359237587269,-0.00107782094587,-0.000192871409587,4.37494239329e-06,1.25725645395e-06,6.27259691513e-05,0.999999998022,0.0,0.0,0.0,0.0,0.0,0.0
1609060342561306477,76,1609060342561306477,-0.00359237587269,-0.00107782094587,-0.000192871409587,4.37494239329e-06,1.25725645395e-06,6.27259691513e-05,0.999999998022,0.0,0.0,0.0,0.0,0.0,0.0
1609060342664904356,77,1609060342664904356,-0.00366703577075,-0.00167831265684,-3.93283037062e-05,7.33118261661e-06,5.92950253203e-07,6.60147597558e-06,0.999999999951,0.0,0.0,0.0,0.0,0.0,0.0
1609060342767347574,78,1609060342767347574,-0.00366703577075,-0.00167831265684,-3.93283037062e-05,7.33118261661e-06,5.92950253203e-07,6.60147597558e-06,0.999999999951,0.0,0.0,0.0,0.0,0.0,0.0
1609060342870455980,79,1609060342870455980,-0.00195844362933,-8.82557708373e-05,-0.000222268288688,3.69925125045e-06,4.41670512288e-06,0.000119300945342,0.999999992867,0.0,0.0,0.0,0.0,0.0,0.0
1609060342973705530,80,1609060342973705530,-0.00195844362933,-8.82557708373e-05,-0.000222268288688,3.69925125045e-06,4.41670512288e-06,0.000119300945342,0.999999992867,0.0,0.0,0.0,0.0,0.0,0.0
1609060343077748299,81,1609060343077748299,-0.00263078586725,-0.00373000467518,-0.00105285245716,4.47053779871e-06,-1.32857235441e-05,7.76957091473e-05,0.999999996883,0.0,0.0,0.0,0.0,0.0,0.0
1609060343148822784,82,1609060343148822784,-0.00263078586725,-0.00373000467518,-0.00105285245716,4.47053779871e-06,-1.32857235441e-05,7.76957091473e-05,0.999999996883,0.0,0.0,0.0,0.0,0.0,0.0
1609060343248710155,83,1609060343248710155,-0.00284620438949,-0.00948826628032,-0.0009139730345,1.56136008958e-05,-1.59691972975e-05,4.83426581496e-05,0.999999998582,0.0,0.0,0.0,0.0,0.0,0.0
1609060343351909876,84,1609060343351909876,-0.00284620438949,-0.00948826628032,-0.0009139730345,1.56136008958e-05,-1.59691972975e-05,4.83426581496e-05,0.999999998582,0.0,0.0,0.0,0.0,0.0,0.0
1609060343455102205,85,1609060343455102205,-0.00296726863184,-0.00292310575907,-0.000823963770084,-1.40936948233e-06,-2.11194745803e-05,-9.26974268696e-05,0.99999999548,0.0,0.0,0.0,0.0,0.0,0.0
1609060343558024645,86,1609060343558024645,-0.00296726863184,-0.00292310575907,-0.000823963770084,-1.40936948233e-06,-2.11194745803e-05,-9.26974268696e-05,0.99999999548,0.0,0.0,0.0,0.0,0.0,0.0
1609060343662369728,87,1609060343662369728,-0.00188811487262,-0.00117539918847,-0.00066102549194,4.21603971666e-06,-7.2944457838e-06,0.000140676418521,0.99999999007,0.0,0.0,0.0,0.0,0.0,0.0
1609060343764807224,88,1609060343764807224,-0.00188811487262,-0.00117539918847,-0.00066102549194,4.21603971666e-06,-7.2944457838e-06,0.000140676418521,0.99999999007,0.0,0.0,0.0,0.0,0.0,0.0
1609060343867611647,89,1609060343867611647,-0.00621066733297,-0.00268310745358,-0.000422084723551,3.48020897967e-06,-1.16394167052e-05,5.12444550371e-05,0.999999998613,0.0,0.0,0.0,0.0,0.0,0.0
1609060343970663548,90,1609060343970663548,-0.00621066733297,-0.00268310745358,-0.000422084723551,3.48020897967e-06,-1.16394167052e-05,5.12444550371e-05,0.999999998613,0.0,0.0,0.0,0.0,0.0,0.0
1609060344073735714,91,1609060344073735714,-0.00210854776214,0.00553200264393,0.000142264628586,-5.23559362603e-06,8.25421463453e-06,8.02053604786e-05,0.999999996736,0.0,0.0,0.0,0.0,0.0,0.0
1609060344176668167,92,1609060344176668167,-0.00210854776214,0.00553200264393,0.000142264628586,-5.23559362603e-06,8.25421463453e-06,8.02053604786e-05,0.999999996736,0.0,0.0,0.0,0.0,0.0,0.0
1609060344248834610,93,1609060344248834610,0.000859019930784,0.00739567097273,-0.000869598496022,-8.62254131975e-06,-6.70144468976e-06,0.000111064315541,0.999999993773,0.0,0.0,0.0,0.0,0.0,0.0
1609060344348703623,94,1609060344348703623,0.000859019930784,0.00739567097273,-0.000869598496022,-8.62254131975e-06,-6.70144468976e-06,0.000111064315541,0.999999993773,0.0,0.0,0.0,0.0,0.0,0.0
1609060344452110291,95,1609060344452110291,0.00179293999303,0.005224721027,-7.14147844346e-05,-4.46044894948e-06,8.24501477937e-06,5.5895992555e-05,0.999999998394,0.0,0.0,0.0,0.0,0.0,0.0
1609060344555062056,96,1609060344555062056,0.00179293999303,0.005224721027,-7.14147844346e-05,-4.46044894948e-06,8.24501477937e-06,5.5895992555e-05,0.999999998394,0.0,0.0,0.0,0.0,0.0,0.0
1609060344658272982,97,1609060344658272982,0.000109896561507,0.00146124587525,-0.00100979996456,-4.14108265504e-06,-1.16639667473e-05,1.82394225032e-05,0.999999999757,0.0,0.0,0.0,0.0,0.0,0.0
1609060344761461735,98,1609060344761461735,0.000109896561507,0.00146124587525,-0.00100979996456,-4.14108265504e-06,-1.16639667473e-05,1.82394225032e-05,0.999999999757,0.0,0.0,0.0,0.0,0.0,0.0
1609060344864367723,99,1609060344864367723,-0.00126580340502,-0.00350236457739,-0.00109065824586,3.57743715611e-06,-2.03920246099e-05,4.29160778521e-05,0.999999998865,0.0,0.0,0.0,0.0,0.0,0.0
1609060344967698097,100,1609060344967698097,-0.00126580340502,-0.00350236457739,-0.00109065824586,3.57743715611e-06,-2.03920246099e-05,4.29160778521e-05,0.999999998865,0.0,0.0,0.0,0.0,0.0,0.0
1609060345070574284,101,1609060345070574284,6.65535678992e-05,-0.00222979375492,-0.000454635916355,1.40057538864e-06,-7.65070626388e-06,-7.39680744122e-05,0.999999997234,0.0,0.0,0.0,0.0,0.0,0.0
1609060345173685551,102,1609060345173685551,6.65535678992e-05,-0.00222979375492,-0.000454635916355,1.40057538864e-06,-7.65070626388e-06,-7.39680744122e-05,0.999999997234,0.0,0.0,0.0,0.0,0.0,0.0
1609060345276948452,103,1609060345276948452,-0.00534704121666,-0.00314812226561,-0.000262553087416,7.67452841151e-06,-5.33342132717e-06,8.094509636e-05,0.99999999668,0.0,0.0,0.0,0.0,0.0,0.0
1609060345348872423,104,1609060345348872423,-0.00534704121666,-0.00314812226561,-0.000262553087416,7.67452841151e-06,-5.33342132717e-06,8.094509636e-05,0.99999999668,0.0,0.0,0.0,0.0,0.0,0.0
1609060345448992968,105,1609060345448992968,-0.00109821384097,0.00113212068466,-1.22589662256e-05,2.04934583566e-06,9.83411774999e-06,1.1871484763e-05,0.999999999879,0.0,0.0,0.0,0.0,0.0,0.0
1609060345552400589,106,1609060345552400589,-0.00109821384097,0.00113212068466,-1.22589662256e-05,2.04934583566e-06,9.83411774999e-06,1.1871484763e-05,0.999999999879,0.0,0.0,0.0,0.0,0.0,0.0
1609060345655210018,107,1609060345655210018,0.00183096488199,-0.00219910452942,0.000180391516212,7.22554421031e-06,1.15876185353e-05,0.000118449988514,0.999999992892,0.0,0.0,0.0,0.0,0.0,0.0
1609060345758053541,108,1609060345758053541,0.00183096488199,-0.00219910452942,0.000180391516212,7.22554421031e-06,1.15876185353e-05,0.000118449988514,0.999999992892,0.0,0.0,0.0,0.0,0.0,0.0
1609060345861207962,109,1609060345861207962,-0.00137114257958,-0.0044619895072,-0.000821287828901,5.37072274568e-06,-9.92292372334e-06,-4.6747513345e-05,0.999999998844,0.0,0.0,0.0,0.0,0.0,0.0
1609060345964406252,110,1609060345964406252,-0.00137114257958,-0.0044619895072,-0.000821287828901,5.37072274568e-06,-9.92292372334e-06,-4.6747513345e-05,0.999999998844,0.0,0.0,0.0,0.0,0.0,0.0
1609060346067427158,111,1609060346067427158,-0.0037688022465,-0.00198284245932,-0.000768741516505,4.96341590801e-06,-1.77734847411e-05,7.55823082877e-05,0.999999996973,0.0,0.0,0.0,0.0,0.0,0.0
1609060346171197653,112,1609060346171197653,-0.0037688022465,-0.00198284245932,-0.000768741516505,4.96341590801e-06,-1.77734847411e-05,7.55823082877e-05,0.999999996973,0.0,0.0,0.0,0.0,0.0,0.0
1609060346273771524,113,1609060346273771524,0.000836833905846,-0.000220279962424,-0.000234220081065,1.30166704509e-06,-8.20434700219e-07,0.000132681166413,0.999999991197,0.0,0.0,0.0,0.0,0.0,0.0
1609060346376943350,114,1609060346376943350,0.000836833905846,-0.000220279962424,-0.000234220081065,1.30166704509e-06,-8.20434700219e-07,0.000132681166413,0.999999991197,0.0,0.0,0.0,0.0,0.0,0.0
1609060346448893309,115,1609060346448893309,-0.000280918195975,0.00345856688904,-0.000121195395548,-5.80370672812e-06,-2.82243514888e-06,-4.64496087975e-05,0.9999999989,0.0,0.0,0.0,0.0,0.0,0.0
1609060346548856258,116,1609060346548856258,-0.000280918195975,0.00345856688904,-0.000121195395548,-5.80370672812e-06,-2.82243514888e-06,-4.64496087975e-05,0.9999999989,0.0,0.0,0.0,0.0,0.0,0.0
1609060346652072191,117,1609060346652072191,-9.94753883934e-05,0.00314576910644,0.00010857192703,-1.29471936636e-07,7.29403508317e-06,0.000176744795773,0.999999984354,0.0,0.0,0.0,0.0,0.0,0.0
1609060346755150557,118,1609060346755150557,-9.94753883934e-05,0.00314576910644,0.00010857192703,-1.29471936636e-07,7.29403508317e-06,0.000176744795773,0.999999984354,0.0,0.0,0.0,0.0,0.0,0.0
1609060346858361006,119,1609060346858361006,0.000179482821091,0.000848603673005,-0.000159544417736,3.30463683636e-06,6.79161753735e-06,0.000135373499598,0.999999990808,0.0,0.0,0.0,0.0,0.0,0.0
1609060346961341619,120,1609060346961341619,0.000179482821091,0.000848603673005,-0.000159544417736,3.30463683636e-06,6.79161753735e-06,0.000135373499598,0.999999990808,0.0,0.0,0.0,0.0,0.0,0.0
1609060347064414501,121,1609060347064414501,0.00156795441743,0.00777796189675,0.000914912181441,2.08565171382e-06,2.92215526486e-05,0.000264147849637,0.999999964684,0.0,0.0,0.0,0.0,0.0,0.0
1609060347167480946,122,1609060347167480946,0.00156795441743,0.00777796189675,0.000914912181441,2.08565171382e-06,2.92215526486e-05,0.000264147849637,0.999999964684,0.0,0.0,0.0,0.0,0.0,0.0
1609060347270663261,123,1609060347270663261,0.000750322639867,0.00438169989605,0.000774345660906,1.61411480417e-06,1.65570479443e-05,6.30305285037e-05,0.999999997875,0.0,0.0,0.0,0.0,0.0,0.0
1609060347373665094,124,1609060347373665094,0.000750322639867,0.00438169989605,0.000774345660906,1.61411480417e-06,1.65570479443e-05,6.30305285037e-05,0.999999997875,0.0,0.0,0.0,0.0,0.0,0.0
1609060347476710558,125,1609060347476710558,0.00206344857322,0.00220086546487,-0.000144592073141,6.56030630514e-06,1.1383391123e-06,0.000238334410634,0.999999971576,0.0,0.0,0.0,0.0,0.0,0.0
1609060347548682928,126,1609060347548682928,0.00206344857322,0.00220086546487,-0.000144592073141,6.56030630514e-06,1.1383391123e-06,0.000238334410634,0.999999971576,0.0,0.0,0.0,0.0,0.0,0.0
1609060347648681164,127,1609060347648681164,2.45912883644e-05,0.0135433734678,-0.000256127556094,-1.60571835938e-05,-3.06050301052e-06,0.000177293454393,0.99999998415,0.0,0.0,0.0,0.0,0.0,0.0
1609060347751874447,128,1609060347751874447,2.45912883644e-05,0.0135433734678,-0.000256127556094,-1.60571835938e-05,-3.06050301052e-06,0.000177293454393,0.99999998415,0.0,0.0,0.0,0.0,0.0,0.0
1609060347860090971,129,1609060347860090971,0.00162047428445,-0.000129419172589,-0.000179019679304,3.58530193691e-06,1.12226665977e-05,7.05296049553e-05,0.999999997443,0.0,0.0,0.0,0.0,0.0,0.0
1609060347963306189,130,1609060347963306189,0.00162047428445,-0.000129419172589,-0.000179019679304,3.58530193691e-06,1.12226665977e-05,7.05296049553e-05,0.999999997443,0.0,0.0,0.0,0.0,0.0,0.0
1609060348066298485,131,1609060348066298485,0.00049222898684,-0.00765126498919,0.00132946690946,1.57933728856e-05,3.15967077459e-05,1.59276014415e-05,0.999999999249,0.0,0.0,0.0,0.0,0.0,0.0
1609060348169837475,132,1609060348169837475,0.00049222898684,-0.00765126498919,0.00132946690946,1.57933728856e-05,3.15967077459e-05,1.59276014415e-05,0.999999999249,0.0,0.0,0.0,0.0,0.0,0.0
1609060348272389650,133,1609060348272389650,-0.000515054104675,0.00282337560551,0.000327175382774,2.03054046222e-07,1.14916524138e-05,1.62182273868e-05,0.999999999802,0.0,0.0,0.0,0.0,0.0,0.0
1609060348375344515,134,1609060348375344515,-0.000515054104675,0.00282337560551,0.000327175382774,2.03054046222e-07,1.14916524138e-05,1.62182273868e-05,0.999999999802,0.0,0.0,0.0,0.0,0.0,0.0
1609060348478895903,135,1609060348478895903,-0.00130960983825,-0.000686526154925,0.000529937110398,9.24944805629e-06,1.28882080529e-05,-1.19310427284e-05,0.999999999803,0.0,0.0,0.0,0.0,0.0,0.0
1609060348548521042,136,1609060348548521042,-0.00130960983825,-0.000686526154925,0.000529937110398,9.24944805629e-06,1.28882080529e-05,-1.19310427284e-05,0.999999999803,0.0,0.0,0.0,0.0,0.0,0.0
1609060348650807858,137,1609060348650807858,0.000553786695364,0.000457882484386,-0.000379804981082,1.72795097365e-06,-1.70934295054e-06,-1.17895469893e-06,0.999999999996,0.0,0.0,0.0,0.0,0.0,0.0
1609060348753650188,138,1609060348753650188,0.000553786695364,0.000457882484386,-0.000379804981082,1.72795097365e-06,-1.70934295054e-06,-1.17895469893e-06,0.999999999996,0.0,0.0,0.0,0.0,0.0,0.0
1609060348856770515,139,1609060348856770515,0.00241551358923,-0.00528832947671,-0.000329399242317,9.75678172786e-06,-2.34072081839e-06,-9.76018806142e-06,0.999999999902,0.0,0.0,0.0,0.0,0.0,0.0
1609060348960122585,140,1609060348960122585,0.00241551358923,-0.00528832947671,-0.000329399242317,9.75678172786e-06,-2.34072081839e-06,-9.76018806142e-06,0.999999999902,0.0,0.0,0.0,0.0,0.0,0.0
1609060349062848091,141,1609060349062848091,-0.00320292787064,0.00474343044388,-0.000313572584624,-1.09630385059e-05,-1.23029500711e-05,-4.24818051222e-05,0.999999998962,0.0,0.0,0.0,0.0,0.0,0.0
1609060349165938854,142,1609060349165938854,-0.00320292787064,0.00474343044388,-0.000313572584624,-1.09630385059e-05,-1.23029500711e-05,-4.24818051222e-05,0.999999998962,0.0,0.0,0.0,0.0,0.0,0.0
1609060349269557953,143,1609060349269557953,0.00495837566033,0.000981441977291,-0.000217244828634,1.0074225179e-08,6.07306898489e-06,0.000132125691335,0.999999991253,0.0,0.0,0.0,0.0,0.0,0.0
1609060349372140408,144,1609060349372140408,0.00495837566033,0.000981441977291,-0.000217244828634,1.0074225179e-08,6.07306898489e-06,0.000132125691335,0.999999991253,0.0,0.0,0.0,0.0,0.0,0.0
1609060349475540161,145,1609060349475540161,-0.000133024507441,-0.00039492923283,-0.000952495228513,-2.62530761599e-06,-1.28403463083e-05,4.38442128662e-05,0.999999998953,0.0,0.0,0.0,0.0,0.0,0.0
1609060349578554153,146,1609060349578554153,-0.000133024507441,-0.00039492923283,-0.000952495228513,-2.62530761599e-06,-1.28403463083e-05,4.38442128662e-05,0.999999998953,0.0,0.0,0.0,0.0,0.0,0.0
1609060349648634672,147,1609060349648634672,0.000877584022659,-0.0051676473193,-5.2609553415e-05,6.53083965675e-06,1.75914392038e-06,-5.93351624084e-05,0.999999998217,0.0,0.0,0.0,0.0,0.0,0.0
1609060349750355005,148,1609060349750355005,0.000877584022659,-0.0051676473193,-5.2609553415e-05,6.53083965675e-06,1.75914392038e-06,-5.93351624084e-05,0.999999998217,0.0,0.0,0.0,0.0,0.0,0.0
1609060349853764772,149,1609060349853764772,-0.00149228449158,0.00512608676179,-0.000578047312041,-8.128405502e-06,-1.31503833017e-05,6.72932027803e-05,0.999999997616,0.0,0.0,0.0,0.0,0.0,0.0
1609060349956382990,150,1609060349956382990,-0.00149228449158,0.00512608676179,-0.000578047312041,-8.128405502e-06,-1.31503833017e-05,6.72932027803e-05,0.999999997616,0.0,0.0,0.0,0.0,0.0,0.0
1609060350059517145,151,1609060350059517145,0.00619264334081,0.00416794829789,2.15354772993e-05,-3.03352827872e-06,1.48781474239e-05,0.000102646099936,0.999999994617,0.0,0.0,0.0,0.0,0.0,0.0
1609060350162584782,152,1609060350162584782,0.00619264334081,0.00416794829789,2.15354772993e-05,-3.03352827872e-06,1.48781474239e-05,0.000102646099936,0.999999994617,0.0,0.0,0.0,0.0,0.0,0.0
1609060350265693426,153,1609060350265693426,0.00262622235153,-0.00232656258579,0.000588694361902,4.78565675408e-06,1.99303598509e-05,-7.78133210152e-05,0.999999996762,0.0,0.0,0.0,0.0,0.0,0.0
1609060350369354963,154,1609060350369354963,0.00262622235153,-0.00232656258579,0.000588694361902,4.78565675408e-06,1.99303598509e-05,-7.78133210152e-05,0.999999996762,0.0,0.0,0.0,0.0,0.0,0.0
1609060350472209215,155,1609060350472209215,-0.000673546508631,-0.00119321288581,-0.000188687435737,2.36043295374e-06,-3.19748283578e-06,9.17817491306e-05,0.99999999578,0.0,0.0,0.0,0.0,0.0,0.0
1609060350575234413,156,1609060350575234413,-0.000673546508631,-0.00119321288581,-0.000188687435737,2.36043295374e-06,-3.19748283578e-06,9.17817491306e-05,0.99999999578,0.0,0.0,0.0,0.0,0.0,0.0
1609060350678378105,157,1609060350678378105,0.0028406754,0.00749030855363,0.000953636168501,-9.38140297034e-06,2.69290817526e-05,0.000119549539582,0.999999992447,0.0,0.0,0.0,0.0,0.0,0.0
1609060350749866486,158,1609060350749866486,0.0028406754,0.00749030855363,0.000953636168501,-9.38140297034e-06,2.69290817526e-05,0.000119549539582,0.999999992447,0.0,0.0,0.0,0.0,0.0,0.0
1609060350850369453,159,1609060350850369453,0.00150813261041,-0.00209852253476,-7.91396210838e-06,2.97479297767e-06,3.82811607577e-06,3.77578010938e-05,0.999999999275,0.0,0.0,0.0,0.0,0.0,0.0
1609060350955535412,160,1609060350955535412,0.00150813261041,-0.00209852253476,-7.91396210838e-06,2.97479297767e-06,3.82811607577e-06,3.77578010938e-05,0.999999999275,0.0,0.0,0.0,0.0,0.0,0.0
1609060351056481838,161,1609060351056481838,0.00263595889778,-0.000874216939681,-0.000385680509782,7.47889311383e-07,-4.05596692566e-06,8.34971938637e-05,0.999999996506,0.0,0.0,0.0,0.0,0.0,0.0
1609060351159757376,162,1609060351159757376,0.00263595889778,-0.000874216939681,-0.000385680509782,7.47889311383e-07,-4.05596692566e-06,8.34971938637e-05,0.999999996506,0.0,0.0,0.0,0.0,0.0,0.0
1609060351262967587,163,1609060351262967587,0.000876834487612,0.001450040329,0.000596067343233,8.31529073181e-07,2.030113798e-05,-4.19403082786e-05,0.999999998914,0.0,0.0,0.0,0.0,0.0,0.0
1609060351365724325,164,1609060351365724325,0.000876834487612,0.001450040329,0.000596067343233,8.31529073181e-07,2.030113798e-05,-4.19403082786e-05,0.999999998914,0.0,0.0,0.0,0.0,0.0,0.0
1609060351468960762,165,1609060351468960762,0.00341894539885,0.00756028650788,-0.000394180483955,-1.44395917753e-05,-7.2743733877e-06,-6.58491713671e-05,0.999999997701,0.0,0.0,0.0,0.0,0.0,0.0
1609060351572281599,166,1609060351572281599,0.00341894539885,0.00756028650788,-0.000394180483955,-1.44395917753e-05,-7.2743733877e-06,-6.58491713671e-05,0.999999997701,0.0,0.0,0.0,0.0,0.0,0.0
1609060351680430174,167,1609060351680430174,0.00348191190526,-0.00474711480424,0.000332966730885,1.10165051625e-05,1.91181629353e-05,6.54053322567e-05,0.999999997618,0.0,0.0,0.0,0.0,0.0,0.0
1609060351778410196,168,1609060351778410196,0.00348191190526,-0.00474711480424,0.000332966730885,1.10165051625e-05,1.91181629353e-05,6.54053322567e-05,0.999999997618,0.0,0.0,0.0,0.0,0.0,0.0
1609060351849167109,169,1609060351849167109,-0.0037182880981,0.0028241489912,-0.000731801550733,-4.64542785991e-06,-1.90459898375e-05,8.86692408029e-05,0.999999995877,0.0,0.0,0.0,0.0,0.0,0.0
1609060351951774836,170,1609060351951774836,-0.0037182880981,0.0028241489912,-0.000731801550733,-4.64542785991e-06,-1.90459898375e-05,8.86692408029e-05,0.999999995877,0.0,0.0,0.0,0.0,0.0,0.0
1609060352053684950,171,1609060352053684950,0.0010696538086,0.00170289349311,-0.00023543358497,-2.82580529919e-06,-3.65839573299e-07,0.000103665211795,0.999999994623,0.0,0.0,0.0,0.0,0.0,0.0
1609060352156837225,172,1609060352156837225,0.0010696538086,0.00170289349311,-0.00023543358497,-2.82580529919e-06,-3.65839573299e-07,0.000103665211795,0.999999994623,0.0,0.0,0.0,0.0,0.0,0.0
1609060352260051012,173,1609060352260051012,-0.00148057019488,0.000924327147692,-0.000519683777749,4.64926050454e-06,-7.37096228047e-06,5.17468216172e-05,0.999999998623,0.0,0.0,0.0,0.0,0.0,0.0
1609060352362803698,174,1609060352362803698,-0.00148057019488,0.000924327147692,-0.000519683777749,4.64926050454e-06,-7.37096228047e-06,5.17468216172e-05,0.999999998623,0.0,0.0,0.0,0.0,0.0,0.0
1609060352465768814,175,1609060352465768814,0.00337096615177,-0.00421850143963,0.000318551052594,7.55288458986e-06,1.18120774859e-05,-0.000111447251553,0.999999993691,0.0,0.0,0.0,0.0,0.0,0.0
1609060352568870783,176,1609060352568870783,0.00337096615177,-0.00421850143963,0.000318551052594,7.55288458986e-06,1.18120774859e-05,-0.000111447251553,0.999999993691,0.0,0.0,0.0,0.0,0.0,0.0
1609060352672152281,177,1609060352672152281,0.00352381579335,0.0021619339667,0.000809509020264,4.00682490093e-06,2.88516139568e-05,0.000153617851096,0.999999987777,0.0,0.0,0.0,0.0,0.0,0.0
1609060352775721312,178,1609060352775721312,0.00352381579335,0.0021619339667,0.000809509020264,4.00682490093e-06,2.88516139568e-05,0.000153617851096,0.999999987777,0.0,0.0,0.0,0.0,0.0,0.0
1609060352849160910,179,1609060352849160910,0.00526405904635,-0.00438499615829,3.82989939683e-05,1.30255872001e-05,9.26662723655e-06,0.000133510830167,0.99999999096,0.0,0.0,0.0,0.0,0.0,0.0
1609060352950887918,180,1609060352950887918,0.00526405904635,-0.00438499615829,3.82989939683e-05,1.30255872001e-05,9.26662723655e-06,0.000133510830167,0.99999999096,0.0,0.0,0.0,0.0,0.0,0.0
1609060353053784370,181,1609060353053784370,0.00047841932835,0.00761787068619,-0.00019626568758,-1.27451305964e-05,2.21163247386e-07,0.000109446604202,0.999999993929,0.0,0.0,0.0,0.0,0.0,0.0
1609060353156775951,182,1609060353156775951,0.00047841932835,0.00761787068619,-0.00019626568758,-1.27451305964e-05,2.21163247386e-07,0.000109446604202,0.999999993929,0.0,0.0,0.0,0.0,0.0,0.0
1609060353259968281,183,1609060353259968281,0.00404771521075,0.00425468858009,0.000477101311344,4.03284355086e-07,1.42232232843e-05,0.000300644004246,0.999999954705,0.0,0.0,0.0,0.0,0.0,0.0
1609060353363960743,184,1609060353363960743,0.00404771521075,0.00425468858009,0.000477101311344,4.03284355086e-07,1.42232232843e-05,0.000300644004246,0.999999954705,0.0,0.0,0.0,0.0,0.0,0.0
1609060353466013432,185,1609060353466013432,0.00406768599522,0.00080570683602,-6.04672950247e-05,2.28591776264e-06,1.1245054061e-05,0.000238758334374,0.999999971431,0.0,0.0,0.0,0.0,0.0,0.0
1609060353568959236,186,1609060353568959236,0.00406768599522,0.00080570683602,-6.04672950247e-05,2.28591776264e-06,1.1245054061e-05,0.000238758334374,0.999999971431,0.0,0.0,0.0,0.0,0.0,0.0
1609060353672769070,187,1609060353672769070,0.00555625580488,9.3771445283e-05,9.1313755685e-05,7.59825419031e-07,1.59076205388e-05,6.91854602897e-05,0.99999999748,0.0,0.0,0.0,0.0,0.0,0.0
1609060353775416613,188,1609060353775416613,0.00555625580488,9.3771445283e-05,9.1313755685e-05,7.59825419031e-07,1.59076205388e-05,6.91854602897e-05,0.99999999748,0.0,0.0,0.0,0.0,0.0,0.0
1609060353878434420,189,1609060353878434420,0.00378708692117,-0.00353704300337,-0.000122018379033,4.85236609337e-06,5.00879989967e-06,-2.57338745368e-05,0.999999999645,0.0,0.0,0.0,0.0,0.0,0.0
1609060353950099945,190,1609060353950099945,0.00378708692117,-0.00353704300337,-0.000122018379033,4.85236609337e-06,5.00879989967e-06,-2.57338745368e-05,0.999999999645,0.0,0.0,0.0,0.0,0.0,0.0
1609060354050130129,191,1609060354050130129,0.00156230626287,0.00704360809973,0.000617856743882,-9.02983593167e-06,1.82557910479e-05,0.000163509364532,0.999999986425,0.0,0.0,0.0,0.0,0.0,0.0
1609060354154399157,192,1609060354154399157,0.00156230626287,0.00704360809973,0.000617856743882,-9.02983593167e-06,1.82557910479e-05,0.000163509364532,0.999999986425,0.0,0.0,0.0,0.0,0.0,0.0
1609060354256497860,193,1609060354256497860,0.00625201608195,0.0115864490491,0.000677040326347,-1.56806365918e-05,3.15739982135e-05,-4.39198181273e-05,0.999999998414,0.0,0.0,0.0,0.0,0.0,0.0
1609060354359743595,194,1609060354359743595,0.00625201608195,0.0115864490491,0.000677040326347,-1.56806365918e-05,3.15739982135e-05,-4.39198181273e-05,0.999999998414,0.0,0.0,0.0,0.0,0.0,0.0
1609060354462809086,195,1609060354462809086,0.000131397937517,7.74797730306e-05,-0.000351873499225,-1.14733639339e-06,-2.21110271676e-06,0.000152676860706,0.999999988342,0.0,0.0,0.0,0.0,0.0,0.0
1609060354566198111,196,1609060354566198111,0.000131397937517,7.74797730306e-05,-0.000351873499225,-1.14733639339e-06,-2.21110271676e-06,0.000152676860706,0.999999988342,0.0,0.0,0.0,0.0,0.0,0.0
1609060354668872833,197,1609060354668872833,0.00292041103785,-3.93255808205e-05,0.0002228252844,3.58559117368e-06,6.1368370669e-06,4.43134964465e-05,0.999999998993,0.0,0.0,0.0,0.0,0.0,0.0
1609060354772094727,198,1609060354772094727,0.00292041103785,-3.93255808205e-05,0.0002228252844,3.58559117368e-06,6.1368370669e-06,4.43134964465e-05,0.999999998993,0.0,0.0,0.0,0.0,0.0,0.0
1609060354875271082,199,1609060354875271082,0.00268875578733,-0.00801441378,-0.00056132804706,8.21873833797e-06,-4.11179254165e-06,2.86266482623e-05,0.999999999548,0.0,0.0,0.0,0.0,0.0,0.0
1609060354978046894,200,1609060354978046894,0.00268875578733,-0.00801441378,-0.00056132804706,8.21873833797e-06,-4.11179254165e-06,2.86266482623e-05,0.999999999548,0.0,0.0,0.0,0.0,0.0,0.0
1609060355048535824,201,1609060355048535824,-0.000137588200448,3.02281323746e-05,0.000529191788968,6.09586398469e-07,1.51436485412e-05,8.98605739577e-05,0.999999995848,0.0,0.0,0.0,0.0,0.0,0.0
1609060355150753736,202,1609060355150753736,-0.000137588200448,3.02281323746e-05,0.000529191788968,6.09586398469e-07,1.51436485412e-05,8.98605739577e-05,0.999999995848,0.0,0.0,0.0,0.0,0.0,0.0
1609060355253820658,203,1609060355253820658,0.0041490431949,0.00849180578678,-0.000191327555107,-1.1647290286e-05,5.05822506359e-06,0.000253388833778,0.999999967816,0.0,0.0,0.0,0.0,0.0,0.0
1609060355356574297,204,1609060355356574297,0.0041490431949,0.00849180578678,-0.000191327555107,-1.1647290286e-05,5.05822506359e-06,0.000253388833778,0.999999967816,0.0,0.0,0.0,0.0,0.0,0.0
1609060355459748983,205,1609060355459748983,0.00686627681921,0.00570903749032,-0.000171952642707,-8.29391215041e-06,1.0625214991e-05,0.000198876945408,0.999999980133,0.0,0.0,0.0,0.0,0.0,0.0
1609060355565509081,206,1609060355565509081,0.00686627681921,0.00570903749032,-0.000171952642707,-8.29391215041e-06,1.0625214991e-05,0.000198876945408,0.999999980133,0.0,0.0,0.0,0.0,0.0,0.0
1609060355665901661,207,1609060355665901661,-0.00105325211346,9.36644181465e-06,-0.000246377081998,2.29526525557e-07,-5.5858413159e-06,6.87695844495e-05,0.99999999762,0.0,0.0,0.0,0.0,0.0,0.0
1609060355769042015,208,1609060355769042015,-0.00105325211346,9.36644181465e-06,-0.000246377081998,2.29526525557e-07,-5.5858413159e-06,6.87695844495e-05,0.99999999762,0.0,0.0,0.0,0.0,0.0,0.0
1609060355872229338,209,1609060355872229338,-0.0028061570478,0.00284402798016,0.000278806080263,-2.59821263398e-07,-1.3417329244e-06,6.67604119194e-05,0.999999997771,0.0,0.0,0.0,0.0,0.0,0.0
1609060355975613117,210,1609060355975613117,-0.0028061570478,0.00284402798016,0.000278806080263,-2.59821263398e-07,-1.3417329244e-06,6.67604119194e-05,0.999999997771,0.0,0.0,0.0,0.0,0.0,0.0
1609060356078740358,211,1609060356078740358,0.00294137813746,0.00449617033971,-0.000587495799078,-8.73435443074e-06,-9.02915628917e-06,9.9183706666e-05,0.999999995002,0.0,0.0,0.0,0.0,0.0,0.0
1609060356148900032,212,1609060356148900032,0.00294137813746,0.00449617033971,-0.000587495799078,-8.73435443074e-06,-9.02915628917e-06,9.9183706666e-05,0.999999995002,0.0,0.0,0.0,0.0,0.0,0.0
1609060356250971794,213,1609060356250971794,-0.00278277137291,-0.00174152568446,-2.7719434364e-05,5.39241453898e-06,3.62845101525e-06,0.000131519238266,0.99999999133,0.0,0.0,0.0,0.0,0.0,0.0
1609060356353475809,214,1609060356353475809,-0.00278277137291,-0.00174152568446,-2.7719434364e-05,5.39241453898e-06,3.62845101525e-06,0.000131519238266,0.99999999133,0.0,0.0,0.0,0.0,0.0,0.0
1609060356456522942,215,1609060356456522942,-0.00115716677174,-0.0019102646932,-0.000770161015227,-2.04940378082e-07,-1.73173968667e-05,8.57218171921e-05,0.999999996176,0.0,0.0,0.0,0.0,0.0,0.0
1609060356561446905,216,1609060356561446905,-0.00115716677174,-0.0019102646932,-0.000770161015227,-2.04940378082e-07,-1.73173968667e-05,8.57218171921e-05,0.999999996176,0.0,0.0,0.0,0.0,0.0,0.0
1609060356664868832,217,1609060356664868832,0.000928746227855,0.00214819263586,0.000445351981696,-4.33601607508e-06,9.99602528919e-06,7.06197882675e-05,0.999999997447,0.0,0.0,0.0,0.0,0.0,0.0
1609060356766592026,218,1609060356766592026,0.000928746227855,0.00214819263586,0.000445351981696,-4.33601607508e-06,9.99602528919e-06,7.06197882675e-05,0.999999997447,0.0,0.0,0.0,0.0,0.0,0.0
1609060356869700670,219,1609060356869700670,0.00170727173087,0.00598845059972,0.000855005122896,-1.39955024512e-06,2.41900476052e-05,0.000214802831114,0.999999976636,0.0,0.0,0.0,0.0,0.0,0.0
1609060356972997665,220,1609060356972997665,0.00170727173087,0.00598845059972,0.000855005122896,-1.39955024512e-06,2.41900476052e-05,0.000214802831114,0.999999976636,0.0,0.0,0.0,0.0,0.0,0.0
1609060357075427771,221,1609060357075427771,-0.00159391885484,-0.00185953770921,6.06469435585e-05,1.03962207521e-06,3.74740545295e-06,2.07928902912e-05,0.999999999776,0.0,0.0,0.0,0.0,0.0,0.0
1609060357248783112,222,1609060357248783112,-0.00159391885484,-0.00185953770921,6.06469435585e-05,1.03962207521e-06,3.74740545295e-06,2.07928902912e-05,0.999999999776,0.0,0.0,0.0,0.0,0.0,0.0
1609060357350047350,223,1609060357350047350,0.000507353361315,0.00376110835815,-0.000192110738044,-5.0571292344e-06,4.27688661923e-07,0.000122617271086,0.99999999247,0.0,0.0,0.0,0.0,0.0,0.0
1609060357453486919,224,1609060357453486919,0.000507353361315,0.00376110835815,-0.000192110738044,-5.0571292344e-06,4.27688661923e-07,0.000122617271086,0.99999999247,0.0,0.0,0.0,0.0,0.0,0.0
1609060357556615591,225,1609060357556615591,0.00139102797667,0.00674720534064,0.000945219627652,-6.29896775469e-06,2.31110109659e-05,9.08492152848e-05,0.999999995586,0.0,0.0,0.0,0.0,0.0,0.0
1609060357659832239,226,1609060357659832239,0.00139102797667,0.00674720534064,0.000945219627652,-6.29896775469e-06,2.31110109659e-05,9.08492152848e-05,0.999999995586,0.0,0.0,0.0,0.0,0.0,0.0
1609060357762833118,227,1609060357762833118,4.69646071682e-05,-0.0044949703174,0.000645382339596,1.3297046665e-05,1.87070846268e-05,8.78349695832e-05,0.999999995879,0.0,0.0,0.0,0.0,0.0,0.0
1609060357865934134,228,1609060357865934134,4.69646071682e-05,-0.0044949703174,0.000645382339596,1.3297046665e-05,1.87070846268e-05,8.78349695832e-05,0.999999995879,0.0,0.0,0.0,0.0,0.0,0.0
1609060357968722343,229,1609060357968722343,-4.72262794105e-06,-0.000167812153726,0.000163109216336,3.19790454748e-07,7.43061575713e-06,0.000168834241369,0.99999998572,0.0,0.0,0.0,0.0,0.0,0.0
1609060358072232246,230,1609060358072232246,-4.72262794105e-06,-0.000167812153726,0.000163109216336,3.19790454748e-07,7.43061575713e-06,0.000168834241369,0.99999998572,0.0,0.0,0.0,0.0,0.0,0.0
1609060358175340652,231,1609060358175340652,0.00369453583864,0.00473394101504,0.00032828999386,-6.09644440742e-06,1.65426578542e-05,0.000115046787641,0.999999993227,0.0,0.0,0.0,0.0,0.0,0.0
1609060358348742962,232,1609060358348742962,0.00369453583864,0.00473394101504,0.00032828999386,-6.09644440742e-06,1.65426578542e-05,0.000115046787641,0.999999993227,0.0,0.0,0.0,0.0,0.0,0.0
1609060358450282574,233,1609060358450282574,-0.00117808106922,-0.00371053875477,-8.97047909692e-05,9.22603511871e-06,1.30153091352e-06,3.03455663029e-05,0.999999999496,0.0,0.0,0.0,0.0,0.0,0.0
1609060358553434372,234,1609060358553434372,-0.00117808106922,-0.00371053875477,-8.97047909692e-05,9.22603511871e-06,1.30153091352e-06,3.03455663029e-05,0.999999999496,0.0,0.0,0.0,0.0,0.0,0.0
1609060358656509638,235,1609060358656509638,0.000372760221421,0.000279888558914,0.000120208505989,1.54946262836e-06,7.55003400632e-06,-4.16235147527e-06,0.999999999962,0.0,0.0,0.0,0.0,0.0,0.0
1609060358759878397,236,1609060358759878397,0.000372760221421,0.000279888558914,0.000120208505989,1.54946262836e-06,7.55003400632e-06,-4.16235147527e-06,0.999999999962,0.0,0.0,0.0,0.0,0.0,0.0
1609060358862795830,237,1609060358862795830,0.00310750392682,0.00101573710598,0.000834568033772,6.67254978147e-07,2.16715525473e-05,2.84712223967e-05,0.99999999936,0.0,0.0,0.0,0.0,0.0,0.0
1609060358965811729,238,1609060358965811729,0.00310750392682,0.00101573710598,0.000834568033772,6.67254978147e-07,2.16715525473e-05,2.84712223967e-05,0.99999999936,0.0,0.0,0.0,0.0,0.0,0.0
1609060359068913221,239,1609060359068913221,0.00597233440378,-0.00103640112294,-0.000219085447715,-2.0932208888e-06,7.18208417148e-06,-4.50649915721e-06,0.999999999962,0.0,0.0,0.0,0.0,0.0,0.0
1609060359172047138,240,1609060359172047138,0.00597233440378,-0.00103640112294,-0.000219085447715,-2.0932208888e-06,7.18208417148e-06,-4.50649915721e-06,0.999999999962,0.0,0.0,0.0,0.0,0.0,0.0
1609060359275064945,241,1609060359275064945,-0.0018505115336,0.00140940590536,0.000381187454757,-8.89450702227e-07,1.44380556877e-05,8.49591544963e-05,0.999999996286,0.0,0.0,0.0,0.0,0.0,0.0
1609060359448380709,242,1609060359448380709,-0.0018505115336,0.00140940590536,0.000381187454757,-8.89450702227e-07,1.44380556877e-05,8.49591544963e-05,0.999999996286,0.0,0.0,0.0,0.0,0.0,0.0
1609060359550393581,243,1609060359550393581,-0.00075456379996,-0.00207698190347,6.66679291672e-05,3.18074565592e-06,6.38072984108e-06,7.69901030059e-05,0.999999997011,0.0,0.0,0.0,0.0,0.0,0.0
1609060359653324127,244,1609060359653324127,-0.00075456379996,-0.00207698190347,6.66679291672e-05,3.18074565592e-06,6.38072984108e-06,7.69901030059e-05,0.999999997011,0.0,0.0,0.0,0.0,0.0,0.0
1609060359756447077,245,1609060359756447077,0.00620823238263,0.00529837775886,0.00105511584597,6.23507536185e-08,4.06693826493e-05,0.000232852926036,0.999999972063,0.0,0.0,0.0,0.0,0.0,0.0
1609060359859733820,246,1609060359859733820,0.00620823238263,0.00529837775886,0.00105511584597,6.23507536185e-08,4.06693826493e-05,0.000232852926036,0.999999972063,0.0,0.0,0.0,0.0,0.0,0.0
1609060359962715626,247,1609060359962715626,-0.00176844378598,-0.00320302761115,0.000122653432817,5.91547017987e-06,5.34364235984e-06,-5.59652793785e-05,0.999999998402,0.0,0.0,0.0,0.0,0.0,0.0
1609060360065917492,248,1609060360065917492,-0.00176844378598,-0.00320302761115,0.000122653432817,5.91547017987e-06,5.34364235984e-06,-5.59652793785e-05,0.999999998402,0.0,0.0,0.0,0.0,0.0,0.0
1609060360169003725,249,1609060360169003725,0.00372132477073,0.000926117112721,0.00115675901163,3.97401519187e-06,3.30809130927e-05,8.70650747789e-05,0.999999995655,0.0,0.0,0.0,0.0,0.0,0.0
1609060360272150040,250,1609060360272150040,0.00372132477073,0.000926117112721,0.00115675901163,3.97401519187e-06,3.30809130927e-05,8.70650747789e-05,0.999999995655,0.0,0.0,0.0,0.0,0.0,0.0
1609060360375067234,251,1609060360375067234,0.00573864094063,0.00538628462923,0.000522407028684,-5.96827415469e-06,2.11996935792e-05,5.25465750993e-05,0.999999998377,0.0,0.0,0.0,0.0,0.0,0.0
1609060360548471689,252,1609060360548471689,0.00573864094063,0.00538628462923,0.000522407028684,-5.96827415469e-06,2.11996935792e-05,5.25465750993e-05,0.999999998377,0.0,0.0,0.0,0.0,0.0,0.0
1609060360650310040,253,1609060360650310040,0.00265465797023,0.00195992085078,0.000706036178255,2.95629776566e-06,2.49170815915e-05,0.000107415092648,0.999999993916,0.0,0.0,0.0,0.0,0.0,0.0
1609060360753682852,254,1609060360753682852,0.00265465797023,0.00195992085078,0.000706036178255,2.95629776566e-06,2.49170815915e-05,0.000107415092648,0.999999993916,0.0,0.0,0.0,0.0,0.0,0.0
1609060360856611252,255,1609060360856611252,0.00359975639875,-0.00411297763852,0.000393468749195,9.03932676618e-06,1.77786018308e-05,0.000203568640246,0.999999979081,0.0,0.0,0.0,0.0,0.0,0.0
1609060360959744453,256,1609060360959744453,0.00359975639875,-0.00411297763852,0.000393468749195,9.03932676618e-06,1.77786018308e-05,0.000203568640246,0.999999979081,0.0,0.0,0.0,0.0,0.0,0.0
1609060361062636852,257,1609060361062636852,0.00121890305857,0.0100402576365,0.000900970133467,-9.41582834391e-06,2.60086087358e-05,0.000140871197269,0.999999989695,0.0,0.0,0.0,0.0,0.0,0.0
1609060361166207075,258,1609060361166207075,0.00121890305857,0.0100402576365,0.000900970133467,-9.41582834391e-06,2.60086087358e-05,0.000140871197269,0.999999989695,0.0,0.0,0.0,0.0,0.0,0.0
1609060361269498348,259,1609060361269498348,0.0054319748518,0.0057777025875,0.000233991424683,-1.08823671469e-05,1.82154088174e-05,0.000153965042237,0.999999987922,0.0,0.0,0.0,0.0,0.0,0.0
1609060361372528076,260,1609060361372528076,0.0054319748518,0.0057777025875,0.000233991424683,-1.08823671469e-05,1.82154088174e-05,0.000153965042237,0.999999987922,0.0,0.0,0.0,0.0,0.0,0.0
1609060361475512743,261,1609060361475512743,0.00621506086792,0.000195518584167,0.000158820878922,1.99691123423e-06,1.70696122326e-05,0.000109919571048,0.999999993811,0.0,0.0,0.0,0.0,0.0,0.0
1609060361648321629,262,1609060361648321629,0.00621506086792,0.000195518584167,0.000158820878922,1.99691123423e-06,1.70696122326e-05,0.000109919571048,0.999999993811,0.0,0.0,0.0,0.0,0.0,0.0
1609060361750512123,263,1609060361750512123,0.00400327191006,-0.00134321654196,7.16964028291e-05,4.08075586926e-06,1.46196119679e-05,9.71262453065e-05,0.999999995168,0.0,0.0,0.0,0.0,0.0,0.0
1609060361852807999,264,1609060361852807999,0.00400327191006,-0.00134321654196,7.16964028291e-05,4.08075586926e-06,1.46196119679e-05,9.71262453065e-05,0.999999995168,0.0,0.0,0.0,0.0,0.0,0.0
1609060361955957174,265,1609060361955957174,0.00388060538123,-0.00153567198748,-0.000128228123626,6.88038109058e-06,3.01237202864e-06,0.000182253172206,0.999999983364,0.0,0.0,0.0,0.0,0.0,0.0
1609060362059494495,266,1609060362059494495,0.00388060538123,-0.00153567198748,-0.000128228123626,6.88038109058e-06,3.01237202864e-06,0.000182253172206,0.999999983364,0.0,0.0,0.0,0.0,0.0,0.0
1609060362162713528,267,1609060362162713528,0.00445242425347,0.0024508785445,-0.000262457027808,-5.32307830731e-06,-3.64685357799e-07,-2.27270550179e-05,0.999999999728,0.0,0.0,0.0,0.0,0.0,0.0
1609060362265881777,268,1609060362265881777,0.00445242425347,0.0024508785445,-0.000262457027808,-5.32307830731e-06,-3.64685357799e-07,-2.27270550179e-05,0.999999999728,0.0,0.0,0.0,0.0,0.0,0.0
1609060362369132042,269,1609060362369132042,0.000763116019781,0.00480112050913,0.000432250619534,-5.70173411414e-06,1.78688191903e-05,1.63512350077e-05,0.99999999969,0.0,0.0,0.0,0.0,0.0,0.0
1609060362472335339,270,1609060362472335339,0.000763116019781,0.00480112050913,0.000432250619534,-5.70173411414e-06,1.78688191903e-05,1.63512350077e-05,0.99999999969,0.0,0.0,0.0,0.0,0.0,0.0
1609060362575396538,271,1609060362575396538,0.00380265608177,0.00161711344789,0.000314853084038,3.32783317948e-06,2.10553602711e-05,0.000138519100401,0.999999990179,0.0,0.0,0.0,0.0,0.0,0.0
1609060362748673916,272,1609060362748673916,0.00380265608177,0.00161711344789,0.000314853084038,3.32783317948e-06,2.10553602711e-05,0.000138519100401,0.999999990179,0.0,0.0,0.0,0.0,0.0,0.0
1609060362850505829,273,1609060362850505829,0.000442443759785,0.00217252454279,0.000169527583628,-1.27790166246e-06,1.49203199912e-05,0.000211263861308,0.999999977572,0.0,0.0,0.0,0.0,0.0,0.0
1609060362953424215,274,1609060362953424215,0.000442443759785,0.00217252454279,0.000169527583628,-1.27790166246e-06,1.49203199912e-05,0.000211263861308,0.999999977572,0.0,0.0,0.0,0.0,0.0,0.0
1609060363056455612,275,1609060363056455612,0.00388899567104,0.00650900098903,3.59127351945e-05,-7.23676725231e-06,1.21899360528e-05,4.23125044712e-05,0.999999999004,0.0,0.0,0.0,0.0,0.0,0.0
1609060363159607410,276,1609060363159607410,0.00388899567104,0.00650900098903,3.59127351945e-05,-7.23676725231e-06,1.21899360528e-05,4.23125044712e-05,0.999999999004,0.0,0.0,0.0,0.0,0.0,0.0
1609060363262762547,277,1609060363262762547,-0.00110806939743,-0.00319741670498,-0.000580461143371,5.93240007052e-07,-3.05284344116e-06,7.24617421743e-05,0.99999999737,0.0,0.0,0.0,0.0,0.0,0.0
1609060363365814924,278,1609060363365814924,-0.00110806939743,-0.00319741670498,-0.000580461143371,5.93240007052e-07,-3.05284344116e-06,7.24617421743e-05,0.99999999737,0.0,0.0,0.0,0.0,0.0,0.0
1609060363469112635,279,1609060363469112635,8.41127800991e-05,0.00205735082104,0.000937008551405,2.17189627343e-06,2.4609858756e-05,-1.87077831481e-05,0.99999999952,0.0,0.0,0.0,0.0,0.0,0.0
1609060363572238445,280,1609060363572238445,8.41127800991e-05,0.00205735082104,0.000937008551405,2.17189627343e-06,2.4609858756e-05,-1.87077831481e-05,0.99999999952,0.0,0.0,0.0,0.0,0.0,0.0
1609060363675321579,281,1609060363675321579,-0.00184710173089,0.00388088401354,-2.82202204655e-05,8.29032324052e-07,-4.60613575126e-07,7.67876508821e-05,0.999999997051,0.0,0.0,0.0,0.0,0.0,0.0
1609060363848457098,282,1609060363848457098,-0.00184710173089,0.00388088401354,-2.82202204655e-05,8.29032324052e-07,-4.60613575126e-07,7.67876508821e-05,0.999999997051,0.0,0.0,0.0,0.0,0.0,0.0
1609060363950571060,283,1609060363950571060,-0.000288147992464,0.0072649920535,0.000762418704279,-6.2690609262e-06,2.01727122148e-05,9.53677692296e-05,0.999999995229,0.0,0.0,0.0,0.0,0.0,0.0
1609060364053252220,284,1609060364053252220,-0.000288147992464,0.0072649920535,0.000762418704279,-6.2690609262e-06,2.01727122148e-05,9.53677692296e-05,0.999999995229,0.0,0.0,0.0,0.0,0.0,0.0
1609060364156430006,285,1609060364156430006,-0.00317986948221,0.00186064843619,0.000433482451715,-4.45150225166e-09,4.53928552331e-06,6.95530965321e-05,0.999999997571,0.0,0.0,0.0,0.0,0.0,0.0
1609060364259648085,286,1609060364259648085,-0.00317986948221,0.00186064843619,0.000433482451715,-4.45150225166e-09,4.53928552331e-06,6.95530965321e-05,0.999999997571,0.0,0.0,0.0,0.0,0.0,0.0
1609060364362620354,287,1609060364362620354,0.00199149820523,0.00150238735142,0.000239727029372,2.20443343597e-06,4.51583387409e-06,-8.77356230939e-05,0.999999996139,0.0,0.0,0.0,0.0,0.0,0.0
1609060364465783358,288,1609060364465783358,0.00199149820523,0.00150238735142,0.000239727029372,2.20443343597e-06,4.51583387409e-06,-8.77356230939e-05,0.999999996139,0.0,0.0,0.0,0.0,0.0,0.0
1609060364568794966,289,1609060364568794966,-0.00142993971441,-0.000836158451469,0.0011336243447,1.22562600798e-05,2.86337516517e-05,0.000144483167449,0.999999989077,0.0,0.0,0.0,0.0,0.0,0.0
1609060364671866655,290,1609060364671866655,-0.00142993971441,-0.000836158451469,0.0011336243447,1.22562600798e-05,2.86337516517e-05,0.000144483167449,0.999999989077,0.0,0.0,0.0,0.0,0.0,0.0
1609060364775324106,291,1609060364775324106,-0.00022615728108,0.00820726715416,0.00162527503272,-3.73374707198e-06,3.50627167452e-05,0.000134225417102,0.99999999037,0.0,0.0,0.0,0.0,0.0,0.0
1609060364948561430,292,1609060364948561430,-0.00022615728108,0.00820726715416,0.00162527503272,-3.73374707198e-06,3.50627167452e-05,0.000134225417102,0.99999999037,0.0,0.0,0.0,0.0,0.0,0.0
1609060365050234318,293,1609060365050234318,4.67489289516e-05,-0.00313634926019,0.00107959182652,9.28841124335e-06,2.57299002755e-05,5.44042009324e-05,0.999999998146,0.0,0.0,0.0,0.0,0.0,0.0
1609060365153410673,294,1609060365153410673,4.67489289516e-05,-0.00313634926019,0.00107959182652,9.28841124335e-06,2.57299002755e-05,5.44042009324e-05,0.999999998146,0.0,0.0,0.0,0.0,0.0,0.0
1609060365256483078,295,1609060365256483078,0.00156131439715,-0.00566001068192,0.00143755120879,1.43267157378e-05,3.80612470519e-05,0.000131007533725,0.999999990592,0.0,0.0,0.0,0.0,0.0,0.0
1609060365359792948,296,1609060365359792948,0.00156131439715,-0.00566001068192,0.00143755120879,1.43267157378e-05,3.80612470519e-05,0.000131007533725,0.999999990592,0.0,0.0,0.0,0.0,0.0,0.0
1609060365462662697,297,1609060365462662697,-8.23175245188e-05,-0.00499066593995,0.000871283590372,1.43563860724e-05,2.61580829016e-05,0.000117024660385,0.999999992707,0.0,0.0,0.0,0.0,0.0,0.0
1609060365565434456,298,1609060365565434456,-8.23175245188e-05,-0.00499066593995,0.000871283590372,1.43563860724e-05,2.61580829016e-05,0.000117024660385,0.999999992707,0.0,0.0,0.0,0.0,0.0,0.0
1609060365669104576,299,1609060365669104576,0.00863169753209,0.0059881335558,0.000803464875929,-7.14819423415e-06,3.3061745984e-05,1.00830773682e-05,0.999999999377,0.0,0.0,0.0,0.0,0.0,0.0
1609060365771614790,300,1609060365771614790,0.00863169753209,0.0059881335558,0.000803464875929,-7.14819423415e-06,3.3061745984e-05,1.00830773682e-05,0.999999999377,0.0,0.0,0.0,0.0,0.0,0.0
1609060365874801397,301,1609060365874801397,0.0014986238843,0.00328129932135,0.000635745008037,-1.02378728638e-05,1.98097697293e-05,-0.000513853556328,0.999999867729,0.0,0.0,0.0,0.0,0.0,0.0
1609060366048538923,302,1609060366048538923,0.0014986238843,0.00328129932135,0.000635745008037,-1.02378728638e-05,1.98097697293e-05,-0.000513853556328,0.999999867729,0.0,0.0,0.0,0.0,0.0,0.0
1609060366150029182,303,1609060366150029182,-0.00106547471867,0.00116006290849,0.000394038158926,-2.67001839002e-06,1.12605132926e-05,-0.000214625417907,0.999999976901,0.0,0.0,0.0,0.0,0.0,0.0
1609060366253244400,304,1609060366253244400,-0.00106547471867,0.00116006290849,0.000394038158926,-2.67001839002e-06,1.12605132926e-05,-0.000214625417907,0.999999976901,0.0,0.0,0.0,0.0,0.0,0.0
1609060366356507778,305,1609060366356507778,-0.001852206399,0.00920505417196,0.000886732422361,-6.24808838553e-06,1.13104377721e-05,0.000221492955389,0.999999975387,0.0,0.0,0.0,0.0,0.0,0.0
1609060366459547997,306,1609060366459547997,-0.001852206399,0.00920505417196,0.000886732422361,-6.24808838553e-06,1.13104377721e-05,0.000221492955389,0.999999975387,0.0,0.0,0.0,0.0,0.0,0.0
1609060366562590599,307,1609060366562590599,0.00854813605083,0.000981630791297,-9.32348084541e-05,-3.05163976789e-06,9.26412164454e-06,0.000341345813342,0.999999941694,0.0,0.0,0.0,0.0,0.0,0.0
1609060366665657997,308,1609060366665657997,0.00854813605083,0.000981630791297,-9.32348084541e-05,-3.05163976789e-06,9.26412164454e-06,0.000341345813342,0.999999941694,0.0,0.0,0.0,0.0,0.0,0.0
1609060366769158363,309,1609060366769158363,0.00289769584023,-0.00509939138491,0.00141239778728,8.94790609643e-06,3.70413391377e-05,-0.000188095976212,0.999999981584,0.0,0.0,0.0,0.0,0.0,0.0
1609060366872115135,310,1609060366872115135,0.00289769584023,-0.00509939138491,0.00141239778728,8.94790609643e-06,3.70413391377e-05,-0.000188095976212,0.999999981584,0.0,0.0,0.0,0.0,0.0,0.0
1609060366974959135,311,1609060366974959135,0.0106314234128,-0.00421073285465,0.000284536192714,1.20318103363e-05,1.14223383526e-05,9.10767992547e-05,0.999999995715,0.0,0.0,0.0,0.0,0.0,0.0
1609060367148311377,312,1609060367148311377,0.0106314234128,-0.00421073285465,0.000284536192714,1.20318103363e-05,1.14223383526e-05,9.10767992547e-05,0.999999995715,0.0,0.0,0.0,0.0,0.0,0.0
1609060367250182152,313,1609060367250182152,-0.00960314056613,0.00172637748586,0.000476531701713,-7.35900612951e-06,3.34772905264e-06,2.29364335862e-06,0.999999999965,0.0,0.0,0.0,0.0,0.0,0.0
1609060367353706121,314,1609060367353706121,-0.00960314056613,0.00172637748586,0.000476531701713,-7.35900612951e-06,3.34772905264e-06,2.29364335862e-06,0.999999999965,0.0,0.0,0.0,0.0,0.0,0.0
1609060367456403732,315,1609060367456403732,0.00490020948791,0.00309466891403,0.000742478179134,-4.21318369996e-06,1.86731214333e-05,4.08640618377e-05,0.999999998982,0.0,0.0,0.0,0.0,0.0,0.0
1609060367559820890,316,1609060367559820890,0.00490020948791,0.00309466891403,0.000742478179134,-4.21318369996e-06,1.86731214333e-05,4.08640618377e-05,0.999999998982,0.0,0.0,0.0,0.0,0.0,0.0
1609060367662819862,317,1609060367662819862,-0.00723576963587,0.00588247560074,0.00118600600463,-5.86618617207e-06,2.38153954866e-05,-0.000337484947639,0.999999942751,0.0,0.0,0.0,0.0,0.0,0.0
1609060367765856028,318,1609060367765856028,-0.00723576963587,0.00588247560074,0.00118600600463,-5.86618617207e-06,2.38153954866e-05,-0.000337484947639,0.999999942751,0.0,0.0,0.0,0.0,0.0,0.0
1609060367868984699,319,1609060367868984699,-0.0100272593081,0.000499001146637,-0.000137590604641,-4.25815190816e-06,-5.29054983357e-06,-0.000176547885971,0.999999984392,0.0,0.0,0.0,0.0,0.0,0.0
1609060367972021103,320,1609060367972021103,-0.0100272593081,0.000499001146637,-0.000137590604641,-4.25815190816e-06,-5.29054983357e-06,-0.000176547885971,0.999999984392,0.0,0.0,0.0,0.0,0.0,0.0
1609060368075006485,321,1609060368075006485,0.00220646437214,-0.000230256036095,0.000213758295689,2.18047979651e-06,5.47805506844e-06,-0.000227126377357,0.999999974189,0.0,0.0,0.0,0.0,0.0,0.0
1609060368248478413,322,1609060368248478413,0.00220646437214,-0.000230256036095,0.000213758295689,2.18047979651e-06,5.47805506844e-06,-0.000227126377357,0.999999974189,0.0,0.0,0.0,0.0,0.0,0.0
1609060368350262165,323,1609060368350262165,0.00996444132501,0.00194396861527,-0.00673847010388,-3.66822914938e-05,-0.000186059126686,-0.00107789281852,0.999999401092,0.0,0.0,0.0,0.0,0.0,0.0
1609060368453233242,324,1609060368453233242,0.00996444132501,0.00194396861527,-0.00673847010388,-3.66822914938e-05,-0.000186059126686,-0.00107789281852,0.999999401092,0.0,0.0,0.0,0.0,0.0,0.0
1609060368556213856,325,1609060368556213856,0.0282397855584,0.00636149916216,-0.00634859488387,-3.80709823774e-05,-0.000166190083801,-0.000889848328093,0.999999589551,0.0,0.0,0.0,0.0,0.0,0.0
1609060368659443140,326,1609060368659443140,0.0282397855584,0.00636149916216,-0.00634859488387,-3.80709823774e-05,-0.000166190083801,-0.000889848328093,0.999999589551,0.0,0.0,0.0,0.0,0.0,0.0
1609060368762521744,327,1609060368762521744,0.00124941979331,-0.000838041258956,-0.0100279215699,-4.12343698882e-05,-0.00025301688004,-0.00116528340697,0.999999288198,0.0,0.0,0.0,0.0,0.0,0.0
1609060368865485668,328,1609060368865485668,0.00124941979331,-0.000838041258956,-0.0100279215699,-4.12343698882e-05,-0.00025301688004,-0.00116528340697,0.999999288198,0.0,0.0,0.0,0.0,0.0,0.0
1609060368968556881,329,1609060368968556881,0.0532532277305,0.0195061459249,-0.033090483012,-0.000148677245947,-0.000808789466888,-0.00201222649907,0.999997637347,0.0,0.0,0.0,0.0,0.0,0.0
1609060369071669817,330,1609060369071669817,0.0532532277305,0.0195061459249,-0.033090483012,-0.000148677245947,-0.000808789466888,-0.00201222649907,0.999997637347,0.0,0.0,0.0,0.0,0.0,0.0
1609060369174860954,331,1609060369174860954,0.0194231673196,0.0266371737918,-0.0883973753015,-0.000450754801679,-0.00191785410908,-0.00155352206208,0.999996852608,0.0,0.0,0.0,0.0,0.0,0.0
1609060369348282337,332,1609060369348282337,0.0194231673196,0.0266371737918,-0.0883973753015,-0.000450754801679,-0.00191785410908,-0.00155352206208,0.999996852608,0.0,0.0,0.0,0.0,0.0,0.0
1609060369449961424,333,1609060369449961424,0.0252685853445,0.0782007742749,-0.515063605855,-0.00143529791541,-0.0100421183556,-0.00109601328366,0.999947945912,0.0,0.0,0.0,0.0,0.0,0.0
1609060369553020477,334,1609060369553020477,0.0252685853445,0.0782007742749,-0.515063605855,-0.00143529791541,-0.0100421183556,-0.00109601328366,0.999947945912,0.0,0.0,0.0,0.0,0.0,0.0
1609060369656153917,335,1609060369656153917,0.0184862037684,0.0669077000288,-0.79502982115,-0.00249489569096,-0.0152838034984,-0.00109225601381,0.99987948665,0.0,0.0,0.0,0.0,0.0,0.0
1609060369759435415,336,1609060369759435415,0.0184862037684,0.0669077000288,-0.79502982115,-0.00249489569096,-0.0152838034984,-0.00109225601381,0.99987948665,0.0,0.0,0.0,0.0,0.0,0.0
1609060369862546206,337,1609060369862546206,0.0595167513578,0.109861973777,-1.1100466309,-0.0283431874542,-0.0193776982403,-0.00236387922524,0.999407614845,0.0,0.0,0.0,0.0,0.0,0.0
1609060369965663671,338,1609060369965663671,0.0595167513578,0.109861973777,-1.1100466309,-0.0283431874542,-0.0193776982403,-0.00236387922524,0.999407614845,0.0,0.0,0.0,0.0,0.0,0.0
1609060370068766832,339,1609060370068766832,0.0958126956369,0.0908853175148,-1.44600265363,-0.0599814227606,-0.022464127565,-0.00286815304712,0.99794256628,0.0,0.0,0.0,0.0,0.0,0.0
1609060370171928167,340,1609060370171928167,0.088747190778,0.112766123006,-1.42061884495,-0.0563730754168,-0.0232092561781,-0.00324687843614,0.998134692602,0.0,0.0,0.0,0.0,0.0,0.0
1609060370275095940,341,1609060370275095940,0.146007907204,0.0595602367078,-1.70763422139,-0.0582188350835,-0.02798135298,-0.00324011660036,0.997906364731,0.0,0.0,0.0,0.0,0.0,0.0
1609060370448285580,342,1609060370448285580,0.146007907204,0.0595602367078,-1.70763422139,-0.0582188350835,-0.02798135298,-0.00324011660036,0.997906364731,0.0,0.0,0.0,0.0,0.0,0.0
1609060370549949884,343,1609060370549949884,0.226714148389,-0.0439621659185,-2.06973756141,-0.00466851121147,-0.0165738864636,-0.00180487135311,0.999850115632,0.0,0.0,0.0,0.0,0.0,0.0
1609060370652942657,344,1609060370652942657,0.226714148389,-0.0439621659185,-2.06973756141,-0.00466851121147,-0.0165738864636,-0.00180487135311,0.999850115632,0.0,0.0,0.0,0.0,0.0,0.0
1609060370756180763,345,1609060370756180763,0.29742519971,-0.107833759198,-2.3155871618,0.00910877480997,-0.00908641267604,-0.0021444350792,0.999914930744,0.0,0.0,0.0,0.0,0.0,0.0
1609060370859647036,346,1609060370859647036,0.29742519971,-0.107833759198,-2.3155871618,0.00910877480997,-0.00908641267604,-0.0021444350792,0.999914930744,0.0,0.0,0.0,0.0,0.0,0.0
1609060370962866783,347,1609060370962866783,0.36719624873,-0.171997795201,-2.51279020092,0.00634588208757,-0.00863885858431,-0.00323715095775,0.999937308413,0.0,0.0,0.0,0.0,0.0,0.0
1609060371066040516,348,1609060371066040516,0.36719624873,-0.171997795201,-2.51279020092,0.00634588208757,-0.00863885858431,-0.00323715095775,0.999937308413,0.0,0.0,0.0,0.0,0.0,0.0
1609060371169297218,349,1609060371169297218,0.411982593759,-0.253726867469,-2.75869205031,-0.00325405254552,-0.00237586918465,-0.0153751860222,0.999873677042,0.0,0.0,0.0,0.0,0.0,0.0
1609060371272195101,350,1609060371272195101,0.411982593759,-0.253726867469,-2.75869205031,-0.00325405254552,-0.00237586918465,-0.0153751860222,0.999873677042,0.0,0.0,0.0,0.0,0.0,0.0
1609060371375003576,351,1609060371375003576,0.465173213194,-0.306872198517,-2.88181440791,-0.00535567919916,-0.00295957555233,-0.0338115446888,0.999409494181,0.0,0.0,0.0,0.0,0.0,0.0
1609060371547983646,352,1609060371547983646,0.465173213194,-0.306872198517,-2.88181440791,-0.00535567919916,-0.00295957555233,-0.0338115446888,0.999409494181,0.0,0.0,0.0,0.0,0.0,0.0
1609060371649642229,353,1609060371649642229,0.540816592118,-0.361723452352,-3.03886424133,-0.00504452650317,-0.00424388723563,-0.0508925652971,0.99868237642,0.0,0.0,0.0,0.0,0.0,0.0
1609060371752567768,354,1609060371752567768,0.540816592118,-0.361723452352,-3.03886424133,-0.00504452650317,-0.00424388723563,-0.0508925652971,0.99868237642,0.0,0.0,0.0,0.0,0.0,0.0
1609060371855727673,355,1609060371855727673,0.585679654162,-0.401281070429,-3.14695799598,-0.00536742017944,-0.00728579022143,-0.0529922551705,0.998553918901,0.0,0.0,0.0,0.0,0.0,0.0
1609060371958683491,356,1609060371958683491,0.585679654162,-0.401281070429,-3.14695799598,-0.00536742017944,-0.00728579022143,-0.0529922551705,0.998553918901,0.0,0.0,0.0,0.0,0.0,0.0
