%time,field.header.seq,field.header.stamp,field.pose.pose.position.x,field.pose.pose.position.y,field.pose.pose.position.z,field.pose.pose.orientation.x,field.pose.pose.orientation.y,field.pose.pose.orientation.z,field.pose.pose.orientation.w,field.twist.twist.linear.x,field.twist.twist.linear.y,field.twist.twist.linear.z,field.twist.twist.angular.x,field.twist.twist.angular.y,field.twist.twist.angular.z
1609055986048628569,39,1609055986048628569,-0.00221605551592,-0.000898055135886,0.00356836820123,2.56936943631e-05,-7.44934074442e-06,0.000107031071895,0.999999993914,0.0,0.0,0.0,0.0,0.0,0.0
1609055986142448664,40,1609055986142448664,-0.00221605551592,-0.000898055135886,0.00356836820123,2.56936943631e-05,-7.44934074442e-06,0.000107031071895,0.999999993914,0.0,0.0,0.0,0.0,0.0,0.0
1609055986254988432,41,1609055986254988432,0.00317808718052,-0.00614224247331,0.00289473770001,2.50698023787e-05,2.23760911185e-05,9.47982060772e-06,0.99999999939,0.0,0.0,0.0,0.0,0.0,0.0
1609055986348767996,42,1609055986348767996,0.00317808718052,-0.00614224247331,0.00289473770001,2.50698023787e-05,2.23760911185e-05,9.47982060772e-06,0.99999999939,0.0,0.0,0.0,0.0,0.0,0.0
1609055986442525625,43,1609055986442525625,0.00189496116844,-0.00345165804814,0.00198231127086,2.18488081073e-05,7.77877778012e-06,0.000278816356362,0.999999960862,0.0,0.0,0.0,0.0,0.0,0.0
1609055986554770708,44,1609055986554770708,0.00189496116844,-0.00345165804814,0.00198231127086,2.18488081073e-05,7.77877778012e-06,0.000278816356362,0.999999960862,0.0,0.0,0.0,0.0,0.0,0.0
1609055986648843050,45,1609055986648843050,0.00243650287163,-0.00035230662298,0.00294886914257,1.5408043001e-05,-1.03200957914e-05,0.000196792652364,0.999999980464,0.0,0.0,0.0,0.0,0.0,0.0
1609055986742660522,46,1609055986742660522,0.00243650287163,-0.00035230662298,0.00294886914257,1.5408043001e-05,-1.03200957914e-05,0.000196792652364,0.999999980464,0.0,0.0,0.0,0.0,0.0,0.0
1609055986854727507,47,1609055986854727507,0.00225336903791,-0.00618855376194,0.00247778151038,3.54657103807e-05,-1.86920488952e-05,5.79179495316e-05,0.999999997519,0.0,0.0,0.0,0.0,0.0,0.0
1609055986948480844,48,1609055986948480844,0.00225336903791,-0.00618855376194,0.00247778151038,3.54657103807e-05,-1.86920488952e-05,5.79179495316e-05,0.999999997519,0.0,0.0,0.0,0.0,0.0,0.0
1609055987043408871,49,1609055987043408871,0.00192278262154,-0.00321128904845,0.002056139673,3.17657265432e-05,-6.37678022638e-06,7.63955759395e-05,0.999999996557,0.0,0.0,0.0,0.0,0.0,0.0
1609055987155035973,50,1609055987155035973,0.00192278262154,-0.00321128904845,0.002056139673,3.17657265432e-05,-6.37678022638e-06,7.63955759395e-05,0.999999996557,0.0,0.0,0.0,0.0,0.0,0.0
1609055987248759985,51,1609055987248759985,0.00222709505393,-0.00640968866028,0.00158284019823,1.98387321779e-05,2.63964618765e-05,-4.6905827023e-05,0.999999998355,0.0,0.0,0.0,0.0,0.0,0.0
1609055987343108177,52,1609055987343108177,0.00222709505393,-0.00640968866028,0.00158284019823,1.98387321779e-05,2.63964618765e-05,-4.6905827023e-05,0.999999998355,0.0,0.0,0.0,0.0,0.0,0.0
1609055987454953909,53,1609055987454953909,-0.000992161955665,-0.000792020635545,0.00254423725526,1.27848313082e-05,2.65644108312e-05,5.03658038667e-05,0.999999998297,0.0,0.0,0.0,0.0,0.0,0.0
1609055987548728943,54,1609055987548728943,-0.000992161955665,-0.000792020635545,0.00254423725526,1.27848313082e-05,2.65644108312e-05,5.03658038667e-05,0.999999998297,0.0,0.0,0.0,0.0,0.0,0.0
1609055987643239737,55,1609055987643239737,-0.000554741379013,-0.00178164117122,0.00253066586712,1.60782708619e-05,2.56172836945e-05,-3.19399697772e-05,0.999999999033,0.0,0.0,0.0,0.0,0.0,0.0
1609055987755050421,56,1609055987755050421,-0.000554741379013,-0.00178164117122,0.00253066586712,1.60782708619e-05,2.56172836945e-05,-3.19399697772e-05,0.999999999033,0.0,0.0,0.0,0.0,0.0,0.0
1609055987848634481,57,1609055987848634481,0.00513529147421,0.00423851271663,0.00140361094576,-1.73221401205e-05,3.76243175676e-05,-2.73208603423e-05,0.999999998769,0.0,0.0,0.0,0.0,0.0,0.0
1609055987944043875,58,1609055987944043875,0.00513529147421,0.00423851271663,0.00140361094576,-1.73221401205e-05,3.76243175676e-05,-2.73208603423e-05,0.999999998769,0.0,0.0,0.0,0.0,0.0,0.0
1609055988054831743,59,1609055988054831743,-0.00189290962881,-0.00598256661091,0.00285313762705,3.91663371399e-05,-2.18118125883e-05,0.000169368256956,0.999999984652,0.0,0.0,0.0,0.0,0.0,0.0
1609055988148486614,60,1609055988148486614,-0.00189290962881,-0.00598256661091,0.00285313762705,3.91663371399e-05,-2.18118125883e-05,0.000169368256956,0.999999984652,0.0,0.0,0.0,0.0,0.0,0.0
1609055988242024422,61,1609055988242024422,-0.00147468238382,0.00753684705113,0.00235027379124,2.09046701694e-05,-2.07155766585e-05,-2.36166659583e-05,0.999999999288,0.0,0.0,0.0,0.0,0.0,0.0
1609055988354472876,62,1609055988354472876,-0.00147468238382,0.00753684705113,0.00235027379124,2.09046701694e-05,-2.07155766585e-05,-2.36166659583e-05,0.999999999288,0.0,0.0,0.0,0.0,0.0,0.0
1609055988448095560,63,1609055988448095560,0.000980615176084,0.00959658712902,0.002893672693,2.37078949701e-06,1.43022659327e-05,-8.46259514663e-05,0.999999996314,0.0,0.0,0.0,0.0,0.0,0.0
1609055988542609215,64,1609055988542609215,0.000980615176084,0.00959658712902,0.002893672693,2.37078949701e-06,1.43022659327e-05,-8.46259514663e-05,0.999999996314,0.0,0.0,0.0,0.0,0.0,0.0
1609055988654456377,65,1609055988654456377,-0.0014763239695,0.00374110385593,0.00348385235838,1.90584754401e-05,1.52495611661e-05,1.83116194836e-05,0.999999999534,0.0,0.0,0.0,0.0,0.0,0.0
1609055988748525381,66,1609055988748525381,-0.0014763239695,0.00374110385593,0.00348385235838,1.90584754401e-05,1.52495611661e-05,1.83116194836e-05,0.999999999534,0.0,0.0,0.0,0.0,0.0,0.0
1609055988842123270,67,1609055988842123270,0.000313298378656,0.00271659434555,0.000854039727858,7.26371964683e-06,-6.92073989809e-06,3.35351350126e-05,0.999999999387,0.0,0.0,0.0,0.0,0.0,0.0
1609055988954743385,68,1609055988954743385,0.000313298378656,0.00271659434555,0.000854039727858,7.26371964683e-06,-6.92073989809e-06,3.35351350126e-05,0.999999999387,0.0,0.0,0.0,0.0,0.0,0.0
1609055989049339056,69,1609055989049339056,-0.000920233738032,0.0075238758309,0.00212771940533,3.16857688026e-06,-6.4475559457e-06,5.05505951487e-05,0.999999998697,0.0,0.0,0.0,0.0,0.0,0.0
1609055989142338276,70,1609055989142338276,-0.000920233738032,0.0075238758309,0.00212771940533,3.16857688026e-06,-6.4475559457e-06,5.05505951487e-05,0.999999998697,0.0,0.0,0.0,0.0,0.0,0.0
1609055989254841805,71,1609055989254841805,0.00149125007193,0.0030757018197,0.00199343299142,1.01286804081e-05,1.35865310261e-05,-1.4892155246e-05,0.999999999746,0.0,0.0,0.0,0.0,0.0,0.0
1609055989348921061,72,1609055989348921061,0.00149125007193,0.0030757018197,0.00199343299142,1.01286804081e-05,1.35865310261e-05,-1.4892155246e-05,0.999999999746,0.0,0.0,0.0,0.0,0.0,0.0
1609055989442510366,73,1609055989442510366,0.00432066783863,0.000962985243358,0.0027068024629,4.24243293592e-06,3.33981993881e-05,-0.000157149214676,0.999999987085,0.0,0.0,0.0,0.0,0.0,0.0
1609055989554576159,74,1609055989554576159,0.00432066783863,0.000962985243358,0.0027068024629,4.24243293592e-06,3.33981993881e-05,-0.000157149214676,0.999999987085,0.0,0.0,0.0,0.0,0.0,0.0
1609055989649075508,75,1609055989649075508,0.00463330412719,-0.010337262213,0.00028079312039,1.76101988222e-05,7.3672015376e-06,5.59856816324e-05,0.999999998251,0.0,0.0,0.0,0.0,0.0,0.0
1609055989742198944,76,1609055989742198944,0.00463330412719,-0.010337262213,0.00028079312039,1.76101988222e-05,7.3672015376e-06,5.59856816324e-05,0.999999998251,0.0,0.0,0.0,0.0,0.0,0.0
1609055989854645014,77,1609055989854645014,0.00312533751887,-0.00331691033267,0.00287919261705,2.52176571444e-05,1.19490409812e-05,-2.52094118418e-06,0.999999999607,0.0,0.0,0.0,0.0,0.0,0.0
1609055989949838161,78,1609055989949838161,0.00312533751887,-0.00331691033267,0.00287919261705,2.52176571444e-05,1.19490409812e-05,-2.52094118418e-06,0.999999999607,0.0,0.0,0.0,0.0,0.0,0.0
1609055990042352915,79,1609055990042352915,0.00546832368841,-0.00697310197748,0.00121276351608,1.03181147732e-05,4.38569581677e-05,6.55069347434e-05,0.999999996839,0.0,0.0,0.0,0.0,0.0,0.0
1609055990155371189,80,1609055990155371189,0.00546832368841,-0.00697310197748,0.00121276351608,1.03181147732e-05,4.38569581677e-05,6.55069347434e-05,0.999999996839,0.0,0.0,0.0,0.0,0.0,0.0
1609055990248407125,81,1609055990248407125,0.00413469601835,-0.00630842673491,0.00158803819315,3.76815076315e-05,-2.37691060169e-05,-0.000112796844626,0.999999992646,0.0,0.0,0.0,0.0,0.0,0.0
1609055990342290401,82,1609055990342290401,0.00413469601835,-0.00630842673491,0.00158803819315,3.76815076315e-05,-2.37691060169e-05,-0.000112796844626,0.999999992646,0.0,0.0,0.0,0.0,0.0,0.0
1609055990454520941,83,1609055990454520941,0.00452374693906,-0.00728732299171,0.00251696335899,3.3151052323e-05,-1.14589360009e-05,0.000125127873599,0.999999991556,0.0,0.0,0.0,0.0,0.0,0.0
1609055990548463821,84,1609055990548463821,0.00452374693906,-0.00728732299171,0.00251696335899,3.3151052323e-05,-1.14589360009e-05,0.000125127873599,0.999999991556,0.0,0.0,0.0,0.0,0.0,0.0
1609055990642499447,85,1609055990642499447,-0.00273284748124,-0.00412273004004,0.00330678662489,2.97928217142e-05,-2.02728364523e-06,0.000123978850392,0.999999991869,0.0,0.0,0.0,0.0,0.0,0.0
1609055990754375935,86,1609055990754375935,-0.00273284748124,-0.00412273004004,0.00330678662489,2.97928217142e-05,-2.02728364523e-06,0.000123978850392,0.999999991869,0.0,0.0,0.0,0.0,0.0,0.0
1609055990848350048,87,1609055990848350048,0.00562436067361,-0.00225951235948,0.00115299747122,1.16513096841e-05,1.3299291754e-05,7.97791148891e-05,0.999999996661,0.0,0.0,0.0,0.0,0.0,0.0
1609055990942098141,88,1609055990942098141,0.00562436067361,-0.00225951235948,0.00115299747122,1.16513096841e-05,1.3299291754e-05,7.97791148891e-05,0.999999996661,0.0,0.0,0.0,0.0,0.0,0.0
1609055991054707289,89,1609055991054707289,0.00391674632977,-0.00152283708558,0.00116722204441,1.08162395714e-05,2.7008389328e-06,1.65841691577e-05,0.9999999998,0.0,0.0,0.0,0.0,0.0,0.0
1609055991148312330,90,1609055991148312330,0.00391674632977,-0.00152283708558,0.00116722204441,1.08162395714e-05,2.7008389328e-06,1.65841691577e-05,0.9999999998,0.0,0.0,0.0,0.0,0.0,0.0
1609055991244228840,91,1609055991244228840,0.00190912970959,-0.00372055582901,0.00171023910834,2.98113214094e-05,-1.6954435888e-05,-7.49891086864e-06,0.999999999384,0.0,0.0,0.0,0.0,0.0,0.0
1609055991354644775,92,1609055991354644775,0.00190912970959,-0.00372055582901,0.00171023910834,2.98113214094e-05,-1.6954435888e-05,-7.49891086864e-06,0.999999999384,0.0,0.0,0.0,0.0,0.0,0.0
1609055991453095913,93,1609055991453095913,0.00351967963931,-0.00306391034306,0.000913295762255,1.34513963624e-05,-1.86503639624e-07,-6.71947498636e-05,0.999999997652,0.0,0.0,0.0,0.0,0.0,0.0
1609055991546940565,94,1609055991546940565,0.00351967963931,-0.00306391034306,0.000913295762255,1.34513963624e-05,-1.86503639624e-07,-6.71947498636e-05,0.999999997652,0.0,0.0,0.0,0.0,0.0,0.0
1609055991642104149,95,1609055991642104149,0.00195772194523,0.00446071171943,0.00303161584995,4.69759588543e-06,2.30808128478e-05,2.89755438051e-06,0.999999999718,0.0,0.0,0.0,0.0,0.0,0.0
1609055991753189087,96,1609055991753189087,0.00195772194523,0.00446071171943,0.00303161584995,4.69759588543e-06,2.30808128478e-05,2.89755438051e-06,0.999999999718,0.0,0.0,0.0,0.0,0.0,0.0
1609055991846676350,97,1609055991846676350,0.000523041519385,0.00593875028272,0.00183240380793,1.96568798748e-05,-5.40164598567e-06,0.000130687193538,0.999999991253,0.0,0.0,0.0,0.0,0.0,0.0
1609055991943787813,98,1609055991943787813,0.000523041519385,0.00593875028272,0.00183240380793,1.96568798748e-05,-5.40164598567e-06,0.000130687193538,0.999999991253,0.0,0.0,0.0,0.0,0.0,0.0
1609055992052787542,99,1609055992052787542,0.0034399433327,-0.00474801383612,0.0016631658682,6.022394438e-06,4.51955163307e-05,8.57735950513e-05,0.999999995282,0.0,0.0,0.0,0.0,0.0,0.0
1609055992146739244,100,1609055992146739244,0.0034399433327,-0.00474801383612,0.0016631658682,6.022394438e-06,4.51955163307e-05,8.57735950513e-05,0.999999995282,0.0,0.0,0.0,0.0,0.0,0.0
1609055992243468523,101,1609055992243468523,0.00280198491502,-0.00458179999044,0.0018078974298,3.68392367885e-05,-3.58343041673e-05,0.000123390633679,0.999999991067,0.0,0.0,0.0,0.0,0.0,0.0
1609055992352989674,102,1609055992352989674,0.00280198491502,-0.00458179999044,0.0018078974298,3.68392367885e-05,-3.58343041673e-05,0.000123390633679,0.999999991067,0.0,0.0,0.0,0.0,0.0,0.0
1609055992447055340,103,1609055992447055340,0.00123071900986,0.00599754604387,0.00201300251561,-2.80002035568e-06,2.34448788763e-05,9.51529871405e-05,0.999999995194,0.0,0.0,0.0,0.0,0.0,0.0
1609055992541869164,104,1609055992541869164,0.00123071900986,0.00599754604387,0.00201300251561,-2.80002035568e-06,2.34448788763e-05,9.51529871405e-05,0.999999995194,0.0,0.0,0.0,0.0,0.0,0.0
1609055992654246807,105,1609055992654246807,0.00223569044147,-0.00496964091124,0.00220265921758,4.16928649741e-05,-2.37337886072e-05,0.00011934706796,0.999999991727,0.0,0.0,0.0,0.0,0.0,0.0
1609055992746981621,106,1609055992746981621,0.00223569044147,-0.00496964091124,0.00220265921758,4.16928649741e-05,-2.37337886072e-05,0.00011934706796,0.999999991727,0.0,0.0,0.0,0.0,0.0,0.0
1609055992842277765,107,1609055992842277765,-0.00206969088818,0.00528525617022,0.00229515346135,1.16800689402e-05,-1.42444403392e-06,0.000187549174191,0.999999982343,0.0,0.0,0.0,0.0,0.0,0.0
1609055992952941179,108,1609055992952941179,-0.00206969088818,0.00528525617022,0.00229515346135,1.16800689402e-05,-1.42444403392e-06,0.000187549174191,0.999999982343,0.0,0.0,0.0,0.0,0.0,0.0
1609055993047142267,109,1609055993047142267,0.00336978803632,-0.00585094398781,0.00106397159031,3.09235790348e-05,-1.936380935e-05,-5.78397534503e-05,0.999999997662,0.0,0.0,0.0,0.0,0.0,0.0
1609055993142177105,110,1609055993142177105,0.00336978803632,-0.00585094398781,0.00106397159031,3.09235790348e-05,-1.936380935e-05,-5.78397534503e-05,0.999999997662,0.0,0.0,0.0,0.0,0.0,0.0
1609055993253173351,111,1609055993253173351,0.00651372040702,0.00347922059596,0.00161976439461,-5.08845342542e-06,5.27825650238e-05,-0.000163813697351,0.999999985177,0.0,0.0,0.0,0.0,0.0,0.0
1609055993346942902,112,1609055993346942902,0.00651372040702,0.00347922059596,0.00161976439461,-5.08845342542e-06,5.27825650238e-05,-0.000163813697351,0.999999985177,0.0,0.0,0.0,0.0,0.0,0.0
1609055993442277193,113,1609055993442277193,0.00157324206573,-0.00450770478515,0.00166165131676,2.04020544983e-05,1.50411502955e-05,1.9775374678e-05,0.999999999483,0.0,0.0,0.0,0.0,0.0,0.0
1609055993553157330,114,1609055993553157330,0.00157324206573,-0.00450770478515,0.00166165131676,2.04020544983e-05,1.50411502955e-05,1.9775374678e-05,0.999999999483,0.0,0.0,0.0,0.0,0.0,0.0
1609055993647142649,115,1609055993647142649,0.00153750701503,0.00203171798374,-8.13213062018e-05,1.38150457789e-05,-9.45795692142e-06,-2.42535459417e-06,0.999999999857,0.0,0.0,0.0,0.0,0.0,0.0
1609055993743474007,116,1609055993743474007,0.00153750701503,0.00203171798374,-8.13213062018e-05,1.38150457789e-05,-9.45795692142e-06,-2.42535459417e-06,0.999999999857,0.0,0.0,0.0,0.0,0.0,0.0
1609055993853214264,117,1609055993853214264,0.00703672229635,-0.00899093177923,0.00228894981805,4.13388796116e-05,-3.56580900548e-06,-1.74901302482e-05,0.999999998986,0.0,0.0,0.0,0.0,0.0,0.0
1609055993946878195,118,1609055993946878195,0.00703672229635,-0.00899093177923,0.00228894981805,4.13388796116e-05,-3.56580900548e-06,-1.74901302482e-05,0.999999998986,0.0,0.0,0.0,0.0,0.0,0.0
1609055994043884754,119,1609055994043884754,0.00852343366742,-0.00192380753616,0.000993653640737,1.6681216118e-05,6.26559736445e-07,-1.8474888313e-05,0.99999999969,0.0,0.0,0.0,0.0,0.0,0.0
1609055994153218985,120,1609055994153218985,0.00852343366742,-0.00192380753616,0.000993653640737,1.6681216118e-05,6.26559736445e-07,-1.8474888313e-05,0.99999999969,0.0,0.0,0.0,0.0,0.0,0.0
1609055994246809483,121,1609055994246809483,0.0056438568156,-0.00534049373967,0.00128040477606,2.62453020253e-05,-1.99536326554e-05,-2.87917182632e-05,0.999999999042,0.0,0.0,0.0,0.0,0.0,0.0
1609055994342040777,122,1609055994342040777,0.0056438568156,-0.00534049373967,0.00128040477606,2.62453020253e-05,-1.99536326554e-05,-2.87917182632e-05,0.999999999042,0.0,0.0,0.0,0.0,0.0,0.0
1609055994453434229,123,1609055994453434229,0.00280733171556,0.0018544977584,0.00188511348662,2.26130784631e-05,2.16866245344e-06,3.35006559218e-05,0.999999999181,0.0,0.0,0.0,0.0,0.0,0.0
1609055994546814919,124,1609055994546814919,0.00280733171556,0.0018544977584,0.00188511348662,2.26130784631e-05,2.16866245344e-06,3.35006559218e-05,0.999999999181,0.0,0.0,0.0,0.0,0.0,0.0
1609055994642157555,125,1609055994642157555,0.0029084671931,-0.00129293157216,0.000748201943548,1.80828609151e-05,5.72303441711e-06,-0.000137295948187,0.999999990395,0.0,0.0,0.0,0.0,0.0,0.0
1609055994752910376,126,1609055994752910376,0.0029084671931,-0.00129293157216,0.000748201943548,1.80828609151e-05,5.72303441711e-06,-0.000137295948187,0.999999990395,0.0,0.0,0.0,0.0,0.0,0.0
1609055994846797228,127,1609055994846797228,0.000597320644077,-0.00197079234302,0.00179119329886,1.29190924368e-05,2.09251202433e-05,6.26854028984e-05,0.999999997733,0.0,0.0,0.0,0.0,0.0,0.0
1609055994943265915,128,1609055994943265915,0.000597320644077,-0.00197079234302,0.00179119329886,1.29190924368e-05,2.09251202433e-05,6.26854028984e-05,0.999999997733,0.0,0.0,0.0,0.0,0.0,0.0
1609055995053593874,129,1609055995053593874,0.00485013756784,0.0026194328888,0.00173409822719,-7.73506228052e-06,3.66233866564e-05,-4.3507885739e-05,0.999999998353,0.0,0.0,0.0,0.0,0.0,0.0
1609055995146581888,130,1609055995146581888,0.00485013756784,0.0026194328888,0.00173409822719,-7.73506228052e-06,3.66233866564e-05,-4.3507885739e-05,0.999999998353,0.0,0.0,0.0,0.0,0.0,0.0
1609055995243135452,131,1609055995243135452,0.00757812846262,-0.00692133208767,0.00327471909066,1.90136126351e-05,4.3628633425e-05,3.74548563487e-05,0.999999998166,0.0,0.0,0.0,0.0,0.0,0.0
1609055995353129864,132,1609055995353129864,0.00757812846262,-0.00692133208767,0.00327471909066,1.90136126351e-05,4.3628633425e-05,3.74548563487e-05,0.999999998166,0.0,0.0,0.0,0.0,0.0,0.0
1609055995447021484,133,1609055995447021484,0.0067501913095,-0.00382174628317,0.0015902405183,2.59963395663e-05,-1.31169816855e-05,4.39323858195e-05,0.999999998611,0.0,0.0,0.0,0.0,0.0,0.0
1609055995542001486,134,1609055995542001486,0.0067501913095,-0.00382174628317,0.0015902405183,2.59963395663e-05,-1.31169816855e-05,4.39323858195e-05,0.999999998611,0.0,0.0,0.0,0.0,0.0,0.0
1609055995653618813,135,1609055995653618813,0.00567396075629,0.00103151370091,0.00132058199197,1.3598364934e-05,8.60783678444e-06,-0.000187001018328,0.999999982386,0.0,0.0,0.0,0.0,0.0,0.0
1609055995746975899,136,1609055995746975899,0.00567396075629,0.00103151370091,0.00132058199197,1.3598364934e-05,8.60783678444e-06,-0.000187001018328,0.999999982386,0.0,0.0,0.0,0.0,0.0,0.0
1609055995842116594,137,1609055995842116594,0.00337281990362,-0.00748339106758,0.00110622210457,2.26771577988e-05,3.01193241753e-06,6.63242278251e-06,0.999999999716,0.0,0.0,0.0,0.0,0.0,0.0
1609055995952973127,138,1609055995952973127,0.00337281990362,-0.00748339106758,0.00110622210457,2.26771577988e-05,3.01193241753e-06,6.63242278251e-06,0.999999999716,0.0,0.0,0.0,0.0,0.0,0.0
1609055996046935797,139,1609055996046935797,0.00842697887488,-0.00779574356754,0.00128329851611,2.85343825182e-05,8.65502985404e-06,-0.000118939857079,0.999999992482,0.0,0.0,0.0,0.0,0.0,0.0
1609055996142228127,140,1609055996142228127,0.00842697887488,-0.00779574356754,0.00128329851611,2.85343825182e-05,8.65502985404e-06,-0.000118939857079,0.999999992482,0.0,0.0,0.0,0.0,0.0,0.0
1609055996252979517,141,1609055996252979517,0.00591571396507,-0.000405167859397,0.00169590982544,1.44075096641e-05,1.40512941459e-05,0.000104100156184,0.999999994379,0.0,0.0,0.0,0.0,0.0,0.0
1609055996348141193,142,1609055996348141193,0.00591571396507,-0.000405167859397,0.00169590982544,1.44075096641e-05,1.40512941459e-05,0.000104100156184,0.999999994379,0.0,0.0,0.0,0.0,0.0,0.0
1609055996442091465,143,1609055996442091465,0.000992401096673,0.000691326750081,0.00102580031732,2.1794558025e-05,-2.46308573665e-05,0.000125318148773,0.999999991607,0.0,0.0,0.0,0.0,0.0,0.0
1609055996553064585,144,1609055996553064585,0.000992401096673,0.000691326750081,0.00102580031732,2.1794558025e-05,-2.46308573665e-05,0.000125318148773,0.999999991607,0.0,0.0,0.0,0.0,0.0,0.0
1609055996647095203,145,1609055996647095203,0.00740858604745,-0.00311380873374,0.000785840192988,3.26651857613e-06,2.99891689992e-05,0.00010608150362,0.999999993918,0.0,0.0,0.0,0.0,0.0,0.0
1609055996742244005,146,1609055996742244005,0.00740858604745,-0.00311380873374,0.000785840192988,3.26651857613e-06,2.99891689992e-05,0.00010608150362,0.999999993918,0.0,0.0,0.0,0.0,0.0,0.0
1609055996842350960,147,1609055996842350960,0.00160882423835,0.00455730538769,0.00307736555062,1.33625351312e-05,1.65330866513e-05,5.98910329984e-05,0.999999997981,0.0,0.0,0.0,0.0,0.0,0.0
1609055996951497316,148,1609055996951497316,0.00160882423835,0.00455730538769,0.00307736555062,1.33625351312e-05,1.65330866513e-05,5.98910329984e-05,0.999999997981,0.0,0.0,0.0,0.0,0.0,0.0
1609055997046060324,149,1609055997046060324,0.00512319627936,0.0012113122387,0.00179109808724,1.51427058374e-05,7.73828925464e-06,-0.000151653995506,0.999999988356,0.0,0.0,0.0,0.0,0.0,0.0
1609055997142051458,150,1609055997142051458,0.00512319627936,0.0012113122387,0.00179109808724,1.51427058374e-05,7.73828925464e-06,-0.000151653995506,0.999999988356,0.0,0.0,0.0,0.0,0.0,0.0
1609055997253302336,151,1609055997253302336,0.0116023175185,-0.00727597335841,0.00244992604548,2.48525679126e-05,4.76689045342e-05,-3.57986029514e-05,0.999999997914,0.0,0.0,0.0,0.0,0.0,0.0
1609055997347134829,152,1609055997347134829,0.0116023175185,-0.00727597335841,0.00244992604548,2.48525679126e-05,4.76689045342e-05,-3.57986029514e-05,0.999999997914,0.0,0.0,0.0,0.0,0.0,0.0
1609055997442186117,153,1609055997442186117,0.00270680946034,-0.00713803151009,0.00222542430001,3.14337437358e-05,1.6729883314e-05,4.73357320381e-05,0.999999998246,0.0,0.0,0.0,0.0,0.0,0.0
1609055997553153276,154,1609055997553153276,0.00270680946034,-0.00713803151009,0.00222542430001,3.14337437358e-05,1.6729883314e-05,4.73357320381e-05,0.999999998246,0.0,0.0,0.0,0.0,0.0,0.0
1609055997647198200,155,1609055997647198200,0.0088972327694,-0.00680215824903,0.00173119626741,2.90329399988e-05,1.8737205203e-05,-5.70854716166e-05,0.999999997774,0.0,0.0,0.0,0.0,0.0,0.0
1609055997742726326,156,1609055997742726326,0.0088972327694,-0.00680215824903,0.00173119626741,2.90329399988e-05,1.8737205203e-05,-5.70854716166e-05,0.999999997774,0.0,0.0,0.0,0.0,0.0,0.0
1609055997852991581,157,1609055997852991581,0.00764831326929,-0.00483622580839,0.00144116454596,2.99855897e-05,-7.4976314482e-06,-0.000131188542779,0.999999990917,0.0,0.0,0.0,0.0,0.0,0.0
1609055997946794271,158,1609055997946794271,0.00764831326929,-0.00483622580839,0.00144116454596,2.99855897e-05,-7.4976314482e-06,-0.000131188542779,0.999999990917,0.0,0.0,0.0,0.0,0.0,0.0
1609055998042378187,159,1609055998042378187,0.00689885159457,-0.00642676382726,0.000304346945309,1.8414327579e-05,2.24292684062e-07,0.00010661983429,0.999999994147,0.0,0.0,0.0,0.0,0.0,0.0
1609055998153190136,160,1609055998153190136,0.00689885159457,-0.00642676382726,0.000304346945309,1.8414327579e-05,2.24292684062e-07,0.00010661983429,0.999999994147,0.0,0.0,0.0,0.0,0.0,0.0
1609055998247286797,161,1609055998247286797,0.00804233731071,-0.00636068080543,0.000861000647128,1.48518872684e-05,3.31227887363e-05,5.08934724303e-05,0.999999998046,0.0,0.0,0.0,0.0,0.0,0.0
1609055998342132807,162,1609055998342132807,0.00804233731071,-0.00636068080543,0.000861000647128,1.48518872684e-05,3.31227887363e-05,5.08934724303e-05,0.999999998046,0.0,0.0,0.0,0.0,0.0,0.0
1609055998443231583,163,1609055998443231583,0.00359553554364,0.00657389044829,0.000805226082769,1.2764956986e-05,-2.28745579284e-05,2.92026009843e-05,0.999999999231,0.0,0.0,0.0,0.0,0.0,0.0
1609055998553320646,164,1609055998553320646,0.00359553554364,0.00657389044829,0.000805226082769,1.2764956986e-05,-2.28745579284e-05,2.92026009843e-05,0.999999999231,0.0,0.0,0.0,0.0,0.0,0.0
1609055998645436287,165,1609055998645436287,0.00922318497802,-0.00462212642963,0.00106513765944,1.57976010218e-05,4.125239678e-06,-0.000225030775899,0.999999974547,0.0,0.0,0.0,0.0,0.0,0.0
1609055998742155075,166,1609055998742155075,0.00922318497802,-0.00462212642963,0.00106513765944,1.57976010218e-05,4.125239678e-06,-0.000225030775899,0.999999974547,0.0,0.0,0.0,0.0,0.0,0.0
1609055998851514816,167,1609055998851514816,0.0053213683293,7.07342395946e-05,0.000996720609435,2.06302799798e-05,-8.10988269803e-06,-7.96576564754e-05,0.999999996582,0.0,0.0,0.0,0.0,0.0,0.0
1609055998945259333,168,1609055998945259333,0.0053213683293,7.07342395946e-05,0.000996720609435,2.06302799798e-05,-8.10988269803e-06,-7.96576564754e-05,0.999999996582,0.0,0.0,0.0,0.0,0.0,0.0
1609055999042351961,169,1609055999042351961,0.00242968320186,0.00235161548638,0.00126011617178,7.43906250701e-06,-2.86762091633e-06,-0.000100261638938,0.999999994942,0.0,0.0,0.0,0.0,0.0,0.0
1609055999152014494,170,1609055999152014494,0.00242968320186,0.00235161548638,0.00126011617178,7.43906250701e-06,-2.86762091633e-06,-0.000100261638938,0.999999994942,0.0,0.0,0.0,0.0,0.0,0.0
1609055999245440960,171,1609055999245440960,0.0020217714592,-0.00106417420051,0.000819064538262,7.68744343163e-06,4.04172592926e-07,-1.68866249497e-05,0.999999999828,0.0,0.0,0.0,0.0,0.0,0.0
1609055999342576265,172,1609055999342576265,0.0020217714592,-0.00106417420051,0.000819064538262,7.68744343163e-06,4.04172592926e-07,-1.68866249497e-05,0.999999999828,0.0,0.0,0.0,0.0,0.0,0.0
1609055999451529741,173,1609055999451529741,0.00678037354484,0.0107364029913,0.000846920490619,-1.34780537765e-05,2.33187579778e-05,2.58233151145e-05,0.999999999304,0.0,0.0,0.0,0.0,0.0,0.0
1609055999545406103,174,1609055999545406103,0.00678037354484,0.0107364029913,0.000846920490619,-1.34780537765e-05,2.33187579778e-05,2.58233151145e-05,0.999999999304,0.0,0.0,0.0,0.0,0.0,0.0
1609055999643129826,175,1609055999643129826,0.00478787301323,0.00225986976488,8.16834569898e-05,3.57274355281e-06,-9.15258855674e-06,0.000121082508959,0.999999992621,0.0,0.0,0.0,0.0,0.0,0.0
1609055999751463652,176,1609055999751463652,0.00478787301323,0.00225986976488,8.16834569898e-05,3.57274355281e-06,-9.15258855674e-06,0.000121082508959,0.999999992621,0.0,0.0,0.0,0.0,0.0,0.0
1609055999845542669,177,1609055999845542669,0.00472173797894,0.00139867315083,-0.00044958461504,3.28620396915e-07,-1.61051135282e-06,1.84351522428e-05,0.999999999829,0.0,0.0,0.0,0.0,0.0,0.0
1609055999942207575,178,1609055999942207575,0.00472173797894,0.00139867315083,-0.00044958461504,3.28620396915e-07,-1.61051135282e-06,1.84351522428e-05,0.999999999829,0.0,0.0,0.0,0.0,0.0,0.0
1609056000051607132,179,1609056000051607132,0.00420513538942,0.00508685453922,0.000843137230839,-9.43333941316e-06,3.34972091605e-05,-0.000197993260258,0.999999979794,0.0,0.0,0.0,0.0,0.0,0.0
1609056000145653963,180,1609056000145653963,0.00420513538942,0.00508685453922,0.000843137230839,-9.43333941316e-06,3.34972091605e-05,-0.000197993260258,0.999999979794,0.0,0.0,0.0,0.0,0.0,0.0
1609056000244156837,181,1609056000244156837,0.00542272131307,0.0112762367689,0.000516233212886,-1.08400017699e-05,1.19344554927e-05,-6.39423690054e-05,0.999999997826,0.0,0.0,0.0,0.0,0.0,0.0
1609056000351586342,182,1609056000351586342,0.00542272131307,0.0112762367689,0.000516233212886,-1.08400017699e-05,1.19344554927e-05,-6.39423690054e-05,0.999999997826,0.0,0.0,0.0,0.0,0.0,0.0
1609056000445257664,183,1609056000445257664,0.00192421670653,0.0134569623989,0.0012071813538,-2.68423366825e-06,-1.54698259542e-05,3.59263625298e-05,0.999999999231,0.0,0.0,0.0,0.0,0.0,0.0
1609056000542326927,184,1609056000542326927,0.00192421670653,0.0134569623989,0.0012071813538,-2.68423366825e-06,-1.54698259542e-05,3.59263625298e-05,0.999999999231,0.0,0.0,0.0,0.0,0.0,0.0
1609056000652031660,185,1609056000652031660,0.0125871692425,-0.00820538119404,0.000288789780485,2.21939194734e-05,-4.81502944633e-06,-0.000193456685809,0.999999981029,0.0,0.0,0.0,0.0,0.0,0.0
1609056000745265245,186,1609056000745265245,0.0125871692425,-0.00820538119404,0.000288789780485,2.21939194734e-05,-4.81502944633e-06,-0.000193456685809,0.999999981029,0.0,0.0,0.0,0.0,0.0,0.0
1609056000843383789,187,1609056000843383789,0.00778484214731,0.0040803124922,-0.000287415016709,-2.55666992987e-06,6.75010517077e-06,-7.84270214131e-05,0.999999996899,0.0,0.0,0.0,0.0,0.0,0.0
1609056000951564550,188,1609056000951564550,0.00778484214731,0.0040803124922,-0.000287415016709,-2.55666992987e-06,6.75010517077e-06,-7.84270214131e-05,0.999999996899,0.0,0.0,0.0,0.0,0.0,0.0
1609056001045497417,189,1609056001045497417,0.00522733128212,0.00846268486616,0.000422976584459,-1.46855281259e-05,3.22202101139e-05,-0.000176461753755,0.999999983804,0.0,0.0,0.0,0.0,0.0,0.0
1609056001142189741,190,1609056001142189741,0.00522733128212,0.00846268486616,0.000422976584459,-1.46855281259e-05,3.22202101139e-05,-0.000176461753755,0.999999983804,0.0,0.0,0.0,0.0,0.0,0.0
1609056001251592636,191,1609056001251592636,0.0047862152098,-0.000354221954201,0.00102418117541,1.65779832149e-05,-2.19411743201e-05,-3.47502324727e-05,0.999999999018,0.0,0.0,0.0,0.0,0.0,0.0
1609056001345245600,192,1609056001345245600,0.0047862152098,-0.000354221954201,0.00102418117541,1.65779832149e-05,-2.19411743201e-05,-3.47502324727e-05,0.999999999018,0.0,0.0,0.0,0.0,0.0,0.0
1609056001441905499,193,1609056001441905499,0.0100136865815,-0.00222402559722,-0.000999868735137,-1.69354792237e-05,4.29223530161e-05,-0.000132772498281,0.999999990121,0.0,0.0,0.0,0.0,0.0,0.0
1609056001551408291,194,1609056001551408291,0.0100136865815,-0.00222402559722,-0.000999868735137,-1.69354792237e-05,4.29223530161e-05,-0.000132772498281,0.999999990121,0.0,0.0,0.0,0.0,0.0,0.0
1609056001645374298,195,1609056001645374298,0.00436428971317,0.00110399436954,0.00158646148854,4.91808086778e-07,2.9273294031e-05,-0.000177619202794,0.999999983797,0.0,0.0,0.0,0.0,0.0,0.0
1609056001745228052,196,1609056001745228052,0.00436428971317,0.00110399436954,0.00158646148854,4.91808086778e-07,2.9273294031e-05,-0.000177619202794,0.999999983797,0.0,0.0,0.0,0.0,0.0,0.0
1609056001842144489,197,1609056001842144489,0.00668786482207,0.0019080357722,0.00123669627508,9.6387840655e-06,-4.56119078635e-06,-0.000222037824209,0.999999975293,0.0,0.0,0.0,0.0,0.0,0.0
1609056001951433182,198,1609056001951433182,0.00668786482207,0.0019080357722,0.00123669627508,9.6387840655e-06,-4.56119078635e-06,-0.000222037824209,0.999999975293,0.0,0.0,0.0,0.0,0.0,0.0
1609056002045352221,199,1609056002045352221,0.0143255820985,-0.0128562977262,0.000488500206455,1.60720523255e-05,2.70142755577e-05,-0.000258935922306,0.999999965982,0.0,0.0,0.0,0.0,0.0,0.0
1609056002141948462,200,1609056002141948462,0.0143255820985,-0.0128562977262,0.000488500206455,1.60720523255e-05,2.70142755577e-05,-0.000258935922306,0.999999965982,0.0,0.0,0.0,0.0,0.0,0.0
1609056002251665115,201,1609056002251665115,0.0079455917287,-0.00277800177127,0.000663996424363,1.50602462762e-05,2.50768361704e-06,-9.14131053152e-05,0.999999995705,0.0,0.0,0.0,0.0,0.0,0.0
1609056002345260859,202,1609056002345260859,0.0079455917287,-0.00277800177127,0.000663996424363,1.50602462762e-05,2.50768361704e-06,-9.14131053152e-05,0.999999995705,0.0,0.0,0.0,0.0,0.0,0.0
1609056002442515135,203,1609056002442515135,0.00698330450787,0.00394769527346,0.000795911357121,5.1646787684e-07,8.83448620122e-06,-0.000133224621893,0.999999991086,0.0,0.0,0.0,0.0,0.0,0.0
1609056002551279306,204,1609056002551279306,0.00698330450787,0.00394769527346,0.000795911357121,5.1646787684e-07,8.83448620122e-06,-0.000133224621893,0.999999991086,0.0,0.0,0.0,0.0,0.0,0.0
1609056002645958424,205,1609056002645958424,0.0074882949968,-0.0028353280136,0.000777633128818,1.9361716865e-05,1.27359306213e-06,-0.000136946841389,0.999999990435,0.0,0.0,0.0,0.0,0.0,0.0
1609056002742298603,206,1609056002742298603,0.0074882949968,-0.0028353280136,0.000777633128818,1.9361716865e-05,1.27359306213e-06,-0.000136946841389,0.999999990435,0.0,0.0,0.0,0.0,0.0,0.0
1609056002851812601,207,1609056002851812601,0.0084643258619,0.00124023330449,0.000501591752696,9.67656619109e-06,-3.93296053527e-07,-0.000181932137422,0.999999983403,0.0,0.0,0.0,0.0,0.0,0.0
1609056002946768761,208,1609056002946768761,0.0084643258619,0.00124023330449,0.000501591752696,9.67656619109e-06,-3.93296053527e-07,-0.000181932137422,0.999999983403,0.0,0.0,0.0,0.0,0.0,0.0
1609056003041858196,209,1609056003041858196,0.00510772044107,0.00407728546119,0.000829749602864,-1.25590693512e-05,6.41663134554e-05,-0.000344452853445,0.999999938539,0.0,0.0,0.0,0.0,0.0,0.0
1609056003151423216,210,1609056003151423216,0.00510772044107,0.00407728546119,0.000829749602864,-1.25590693512e-05,6.41663134554e-05,-0.000344452853445,0.999999938539,0.0,0.0,0.0,0.0,0.0,0.0
1609056003245030880,211,1609056003245030880,0.00704126978177,-0.000726345715221,0.00149649217829,1.63588112228e-05,2.39758953288e-06,3.14088326897e-05,0.99999999937,0.0,0.0,0.0,0.0,0.0,0.0
1609056003342184782,212,1609056003342184782,0.00704126978177,-0.000726345715221,0.00149649217829,1.63588112228e-05,2.39758953288e-06,3.14088326897e-05,0.99999999937,0.0,0.0,0.0,0.0,0.0,0.0
1609056003451509476,213,1609056003451509476,0.00580740043017,0.0011482035705,0.000975038325499,8.50990461811e-06,3.6393202417e-06,-6.54456945822e-07,0.999999999957,0.0,0.0,0.0,0.0,0.0,0.0
1609056003545015097,214,1609056003545015097,0.00580740043017,0.0011482035705,0.000975038325499,8.50990461811e-06,3.6393202417e-06,-6.54456945822e-07,0.999999999957,0.0,0.0,0.0,0.0,0.0,0.0
1609056003641527891,215,1609056003641527891,0.00613649218007,0.00149722310875,0.000893921143193,9.09400245179e-06,1.12572699635e-05,-0.000169422669028,0.999999985543,0.0,0.0,0.0,0.0,0.0,0.0
1609056003751260996,216,1609056003751260996,0.00613649218007,0.00149722310875,0.000893921143193,9.09400245179e-06,1.12572699635e-05,-0.000169422669028,0.999999985543,0.0,0.0,0.0,0.0,0.0,0.0
1609056003845069885,217,1609056003845069885,0.00820620457947,0.00498226577015,0.00107636186533,1.38794779918e-07,2.89690374781e-05,-0.000196654597751,0.999999980244,0.0,0.0,0.0,0.0,0.0,0.0
1609056003941593885,218,1609056003941593885,0.00820620457947,0.00498226577015,0.00107636186533,1.38794779918e-07,2.89690374781e-05,-0.000196654597751,0.999999980244,0.0,0.0,0.0,0.0,0.0,0.0
1609056004051305771,219,1609056004051305771,-0.00071576746483,0.00274721206892,0.00213528020585,6.20823420577e-06,1.82472464474e-05,2.63747694589e-05,0.999999999466,0.0,0.0,0.0,0.0,0.0,0.0
1609056004145229101,220,1609056004145229101,-0.00071576746483,0.00274721206892,0.00213528020585,6.20823420577e-06,1.82472464474e-05,2.63747694589e-05,0.999999999466,0.0,0.0,0.0,0.0,0.0,0.0
1609056004242073059,221,1609056004242073059,0.00593803830282,0.00108884198978,0.00136586664148,6.38296330341e-06,1.53747969312e-05,-0.000153166989933,0.999999988131,0.0,0.0,0.0,0.0,0.0,0.0
1609056004351456165,222,1609056004351456165,0.00593803830282,0.00108884198978,0.00136586664148,6.38296330341e-06,1.53747969312e-05,-0.000153166989933,0.999999988131,0.0,0.0,0.0,0.0,0.0,0.0
1609056004445245504,223,1609056004445245504,0.00448457756182,0.002621742685,0.00098083601975,-1.82859177293e-06,1.44651113407e-05,-0.000288887542068,0.999999958166,0.0,0.0,0.0,0.0,0.0,0.0
1609056004541931629,224,1609056004541931629,0.00448457756182,0.002621742685,0.00098083601975,-1.82859177293e-06,1.44651113407e-05,-0.000288887542068,0.999999958166,0.0,0.0,0.0,0.0,0.0,0.0
1609056004651268721,225,1609056004651268721,0.00590172430773,0.00408033121597,0.000892744607078,-5.63145355634e-06,3.57649726967e-05,-0.000247694113941,0.999999968668,0.0,0.0,0.0,0.0,0.0,0.0
1609056004744932175,226,1609056004744932175,0.00590172430773,0.00408033121597,0.000892744607078,-5.63145355634e-06,3.57649726967e-05,-0.000247694113941,0.999999968668,0.0,0.0,0.0,0.0,0.0,0.0
1609056004841744184,227,1609056004841744184,0.00681623780006,0.00720731296235,0.00112431824621,-2.89732678413e-05,7.36962707904e-05,-0.000200297775849,0.999999976805,0.0,0.0,0.0,0.0,0.0,0.0
1609056004951519251,228,1609056004951519251,0.00681623780006,0.00720731296235,0.00112431824621,-2.89732678413e-05,7.36962707904e-05,-0.000200297775849,0.999999976805,0.0,0.0,0.0,0.0,0.0,0.0
1609056005044833183,229,1609056005044833183,0.00299898678163,0.00402152630335,0.00185842834526,1.96212132079e-06,1.11730539572e-05,-0.000122685305544,0.99999999241,0.0,0.0,0.0,0.0,0.0,0.0
1609056005141534805,230,1609056005141534805,0.00299898678163,0.00402152630335,0.00185842834526,1.96212132079e-06,1.11730539572e-05,-0.000122685305544,0.99999999241,0.0,0.0,0.0,0.0,0.0,0.0
1609056005251033068,231,1609056005251033068,0.00267536297916,0.00601675866291,0.00104088893609,1.1564923237e-05,-4.57224216515e-06,-0.000188169344434,0.999999982219,0.0,0.0,0.0,0.0,0.0,0.0
1609056005344730616,232,1609056005344730616,0.00267536297916,0.00601675866291,0.00104088893609,1.1564923237e-05,-4.57224216515e-06,-0.000188169344434,0.999999982219,0.0,0.0,0.0,0.0,0.0,0.0
1609056005441528320,233,1609056005441528320,0.00449878029336,0.00835841321505,0.00159131169778,-7.80709468461e-06,4.27574682177e-05,-1.21959043793e-06,0.999999999055,0.0,0.0,0.0,0.0,0.0,0.0
1609056005550956488,234,1609056005550956488,0.00449878029336,0.00835841321505,0.00159131169778,-7.80709468461e-06,4.27574682177e-05,-1.21959043793e-06,0.999999999055,0.0,0.0,0.0,0.0,0.0,0.0
1609056005644596815,235,1609056005644596815,0.00519710190523,-0.000348566526017,0.000742179991266,-7.63047919097e-06,2.31120688652e-05,1.57056321349e-06,0.999999999703,0.0,0.0,0.0,0.0,0.0,0.0
1609056005741646051,236,1609056005741646051,0.00519710190523,-0.000348566526017,0.000742179991266,-7.63047919097e-06,2.31120688652e-05,1.57056321349e-06,0.999999999703,0.0,0.0,0.0,0.0,0.0,0.0
1609056005851104259,237,1609056005851104259,0.00824585503031,-0.000543781426574,0.000457609566132,-8.32058241508e-06,4.0326384995e-05,-0.000204837420109,0.999999978173,0.0,0.0,0.0,0.0,0.0,0.0
1609056005944968939,238,1609056005944968939,0.00824585503031,-0.000543781426574,0.000457609566132,-8.32058241508e-06,4.0326384995e-05,-0.000204837420109,0.999999978173,0.0,0.0,0.0,0.0,0.0,0.0
1609056006042444706,239,1609056006042444706,0.00751918288332,-0.00266158892566,0.000748197476685,1.21637746675e-05,2.72708539589e-05,-0.000177259846889,0.999999983844,0.0,0.0,0.0,0.0,0.0,0.0
1609056006150946856,240,1609056006150946856,0.00751918288332,-0.00266158892566,0.000748197476685,1.21637746675e-05,2.72708539589e-05,-0.000177259846889,0.999999983844,0.0,0.0,0.0,0.0,0.0,0.0
1609056006245132446,241,1609056006245132446,0.000861522276786,0.0130940205531,0.000998930513175,-8.57519426381e-06,2.53954849873e-05,-1.44287648373e-05,0.999999999537,0.0,0.0,0.0,0.0,0.0,0.0
1609056006341852665,242,1609056006341852665,0.000861522276786,0.0130940205531,0.000998930513175,-8.57519426381e-06,2.53954849873e-05,-1.44287648373e-05,0.999999999537,0.0,0.0,0.0,0.0,0.0,0.0
1609056006451374769,243,1609056006451374769,0.00882968384506,0.003313653336,0.000795679404239,-2.12273163858e-06,4.43129936138e-05,-0.000124851004939,0.999999991222,0.0,0.0,0.0,0.0,0.0,0.0
1609056006544910908,244,1609056006544910908,0.00882968384506,0.003313653336,0.000795679404239,-2.12273163858e-06,4.43129936138e-05,-0.000124851004939,0.999999991222,0.0,0.0,0.0,0.0,0.0,0.0
1609056006642136097,245,1609056006642136097,0.00820602106484,0.0104283239306,-0.00036992867307,-1.78698286093e-05,2.84241072606e-05,-0.000275394430682,0.999999961515,0.0,0.0,0.0,0.0,0.0,0.0
1609056006751482487,246,1609056006751482487,0.00820602106484,0.0104283239306,-0.00036992867307,-1.78698286093e-05,2.84241072606e-05,-0.000275394430682,0.999999961515,0.0,0.0,0.0,0.0,0.0,0.0
1609056006844543457,247,1609056006844543457,0.0139055593244,-0.00701550733304,0.00165039890801,1.117812451e-05,3.98434418848e-05,4.92498710378e-05,0.999999997931,0.0,0.0,0.0,0.0,0.0,0.0
1609056006942154646,248,1609056006942154646,0.0139055593244,-0.00701550733304,0.00165039890801,1.117812451e-05,3.98434418848e-05,4.92498710378e-05,0.999999997931,0.0,0.0,0.0,0.0,0.0,0.0
1609056007051353455,249,1609056007051353455,0.00629826515997,-0.00125572288629,0.00152204162686,8.43161840169e-06,2.40107082613e-05,0.000128514966643,0.999999991418,0.0,0.0,0.0,0.0,0.0,0.0
1609056007144597054,250,1609056007144597054,0.00629826515997,-0.00125572288629,0.00152204162686,8.43161840169e-06,2.40107082613e-05,0.000128514966643,0.999999991418,0.0,0.0,0.0,0.0,0.0,0.0
1609056007242010832,251,1609056007242010832,0.0112811327634,0.00145868010039,0.000564072817816,-2.41634420702e-08,1.90471086083e-05,-2.17798306143e-05,0.999999999581,0.0,0.0,0.0,0.0,0.0,0.0
1609056007350898981,252,1609056007350898981,0.0112811327634,0.00145868010039,0.000564072817816,-2.41634420702e-08,1.90471086083e-05,-2.17798306143e-05,0.999999999581,0.0,0.0,0.0,0.0,0.0,0.0
1609056007444784880,253,1609056007444784880,0.0101590961129,0.00192617724855,0.00120795922055,1.69863648538e-06,4.1960488534e-06,-0.00010770952156,0.999999994189,0.0,0.0,0.0,0.0,0.0,0.0
1609056007541299820,254,1609056007541299820,0.0101590961129,0.00192617724855,0.00120795922055,1.69863648538e-06,4.1960488534e-06,-0.00010770952156,0.999999994189,0.0,0.0,0.0,0.0,0.0,0.0
1609056007650983095,255,1609056007650983095,0.00798167184985,0.00404468846113,0.00102035521925,-3.99541782148e-06,7.94252936261e-06,-0.000112002003229,0.999999993688,0.0,0.0,0.0,0.0,0.0,0.0
1609056007744776964,256,1609056007744776964,0.00798167184985,0.00404468846113,0.00102035521925,-3.99541782148e-06,7.94252936261e-06,-0.000112002003229,0.999999993688,0.0,0.0,0.0,0.0,0.0,0.0
1609056007841504812,257,1609056007841504812,0.00451607573156,0.00422663444182,0.000349660825493,-9.02218192043e-06,2.43441631235e-05,-0.000109803799847,0.999999993635,0.0,0.0,0.0,0.0,0.0,0.0
1609056007950859547,258,1609056007950859547,0.00451607573156,0.00422663444182,0.000349660825493,-9.02218192043e-06,2.43441631235e-05,-0.000109803799847,0.999999993635,0.0,0.0,0.0,0.0,0.0,0.0
1609056008044640541,259,1609056008044640541,0.00696687740131,0.00649192388887,-0.000168990961195,-2.47647625249e-05,4.77831329357e-05,-0.000169186755853,0.99999998424,0.0,0.0,0.0,0.0,0.0,0.0
1609056008141311169,260,1609056008141311169,0.00696687740131,0.00649192388887,-0.000168990961195,-2.47647625249e-05,4.77831329357e-05,-0.000169186755853,0.99999998424,0.0,0.0,0.0,0.0,0.0,0.0
1609056008250856638,261,1609056008250856638,0.00686165663532,0.00988951625677,0.00146569121713,-7.56347694554e-06,3.28349643111e-05,-0.000212173020194,0.999999976924,0.0,0.0,0.0,0.0,0.0,0.0
1609056008344799995,262,1609056008344799995,0.00686165663532,0.00988951625677,0.00146569121713,-7.56347694554e-06,3.28349643111e-05,-0.000212173020194,0.999999976924,0.0,0.0,0.0,0.0,0.0,0.0
1609056008441592216,263,1609056008441592216,0.0108778033093,-0.00502825905587,5.54093896329e-05,1.20817496093e-05,2.13259440122e-05,-0.000153315988736,0.999999987947,0.0,0.0,0.0,0.0,0.0,0.0
1609056008551826715,264,1609056008551826715,0.0108778033093,-0.00502825905587,5.54093896329e-05,1.20817496093e-05,2.13259440122e-05,-0.000153315988736,0.999999987947,0.0,0.0,0.0,0.0,0.0,0.0
1609056008644798040,265,1609056008644798040,0.00830898988426,-0.00214109745114,0.000989721758703,7.41178297133e-06,2.66832645722e-05,-0.00023699524265,0.999999971533,0.0,0.0,0.0,0.0,0.0,0.0
1609056008742173910,266,1609056008742173910,0.00830898988426,-0.00214109745114,0.000989721758703,7.41178297133e-06,2.66832645722e-05,-0.00023699524265,0.999999971533,0.0,0.0,0.0,0.0,0.0,0.0
1609056008850844145,267,1609056008850844145,0.00548326526839,0.00833126266863,0.00151779150027,7.84493748573e-06,9.4947939498e-07,-8.53303049131e-05,0.999999996328,0.0,0.0,0.0,0.0,0.0,0.0
1609056008944663048,268,1609056008944663048,0.00548326526839,0.00833126266863,0.00151779150027,7.84493748573e-06,9.4947939498e-07,-8.53303049131e-05,0.999999996328,0.0,0.0,0.0,0.0,0.0,0.0
1609056009041992426,269,1609056009041992426,0.0109297872037,-0.00121405205162,0.00106060854247,1.49981202408e-05,1.63424141097e-05,-0.000297407692573,0.999999955528,0.0,0.0,0.0,0.0,0.0,0.0
1609056009150979280,270,1609056009150979280,0.0109297872037,-0.00121405205162,0.00106060854247,1.49981202408e-05,1.63424141097e-05,-0.000297407692573,0.999999955528,0.0,0.0,0.0,0.0,0.0,0.0
1609056009244320393,271,1609056009244320393,0.0123793030368,-0.00305260591876,0.000740392682616,7.19039250868e-06,1.9761512048e-05,-3.93913470428e-05,0.999999999003,0.0,0.0,0.0,0.0,0.0,0.0
1609056009342231989,272,1609056009342231989,0.0123793030368,-0.00305260591876,0.000740392682616,7.19039250868e-06,1.9761512048e-05,-3.93913470428e-05,0.999999999003,0.0,0.0,0.0,0.0,0.0,0.0
1609056009450739145,273,1609056009450739145,0.00853601136422,0.00186047337541,0.000777110713908,9.05081135498e-06,9.87140473607e-06,-0.000201601386957,0.999999979589,0.0,0.0,0.0,0.0,0.0,0.0
1609056009544654846,274,1609056009544654846,0.00853601136422,0.00186047337541,0.000777110713908,9.05081135498e-06,9.87140473607e-06,-0.000201601386957,0.999999979589,0.0,0.0,0.0,0.0,0.0,0.0
1609056009641469955,275,1609056009641469955,0.00224291949384,0.00279036389724,0.000352578555953,1.7003598442e-05,-2.131278858e-05,-9.03961226588e-05,0.999999995543,0.0,0.0,0.0,0.0,0.0,0.0
1609056009751409769,276,1609056009751409769,0.00224291949384,0.00279036389724,0.000352578555953,1.7003598442e-05,-2.131278858e-05,-9.03961226588e-05,0.999999995543,0.0,0.0,0.0,0.0,0.0,0.0
1609056009844766378,277,1609056009844766378,0.00646660620819,0.000502837267262,0.0021038825478,1.10571880266e-05,8.42127824672e-06,-7.06820458508e-05,0.999999997405,0.0,0.0,0.0,0.0,0.0,0.0
1609056009941464186,278,1609056009941464186,0.00646660620819,0.000502837267262,0.0021038825478,1.10571880266e-05,8.42127824672e-06,-7.06820458508e-05,0.999999997405,0.0,0.0,0.0,0.0,0.0,0.0
1609056010051091433,279,1609056010051091433,0.00837197937296,-0.00373818544079,0.000789022533436,2.07034026177e-06,3.95373705316e-05,9.630345298e-05,0.999999994579,0.0,0.0,0.0,0.0,0.0,0.0
1609056010144757509,280,1609056010144757509,0.00837197937296,-0.00373818544079,0.000789022533436,2.07034026177e-06,3.95373705316e-05,9.630345298e-05,0.999999994579,0.0,0.0,0.0,0.0,0.0,0.0
1609056010241465092,281,1609056010241465092,0.0066457931216,-0.00840376824892,0.00132133792519,1.29152675011e-05,3.81954042732e-05,-0.000247587039966,0.999999968537,0.0,0.0,0.0,0.0,0.0,0.0
1609056010350798368,282,1609056010350798368,0.0066457931216,-0.00840376824892,0.00132133792519,1.29152675011e-05,3.81954042732e-05,-0.000247587039966,0.999999968537,0.0,0.0,0.0,0.0,0.0,0.0
1609056010444632769,283,1609056010444632769,0.00447148574645,0.00197701191314,0.00201626386417,-3.66001944372e-07,4.76033003295e-05,-0.000115566566889,0.999999992189,0.0,0.0,0.0,0.0,0.0,0.0
1609056010541484356,284,1609056010541484356,0.00447148574645,0.00197701191314,0.00201626386417,-3.66001944372e-07,4.76033003295e-05,-0.000115566566889,0.999999992189,0.0,0.0,0.0,0.0,0.0,0.0
1609056010651660681,285,1609056010651660681,0.00794219428399,-0.00101355252425,0.000406940361502,-6.59118781925e-06,5.24132730352e-05,-0.000109509068919,0.999999992609,0.0,0.0,0.0,0.0,0.0,0.0
1609056010744691372,286,1609056010744691372,0.00794219428399,-0.00101355252425,0.000406940361502,-6.59118781925e-06,5.24132730352e-05,-0.000109509068919,0.999999992609,0.0,0.0,0.0,0.0,0.0,0.0
1609056010841531754,287,1609056010841531754,0.00710621265683,-0.00243924946436,0.00131722296443,2.48003374458e-07,3.63724044244e-05,-0.000190175160816,0.999999981255,0.0,0.0,0.0,0.0,0.0,0.0
1609056010951144218,288,1609056010951144218,0.00710621265683,-0.00243924946436,0.00131722296443,2.48003374458e-07,3.63724044244e-05,-0.000190175160816,0.999999981255,0.0,0.0,0.0,0.0,0.0,0.0
1609056011044315338,289,1609056011044315338,0.00708922127814,-0.00542089439202,0.00126078537531,3.27670633269e-06,3.77893302887e-05,1.55403549795e-06,0.999999999279,0.0,0.0,0.0,0.0,0.0,0.0
1609056011141441345,290,1609056011141441345,0.00708922127814,-0.00542089439202,0.00126078537531,3.27670633269e-06,3.77893302887e-05,1.55403549795e-06,0.999999999279,0.0,0.0,0.0,0.0,0.0,0.0
1609056011250901461,291,1609056011250901461,0.00949304720769,0.000394138079909,0.00178849264527,-7.39228292933e-06,4.85710324003e-05,-0.000160766067359,0.99999998587,0.0,0.0,0.0,0.0,0.0,0.0
1609056011344425917,292,1609056011344425917,0.00949304720769,0.000394138079909,0.00178849264527,-7.39228292933e-06,4.85710324003e-05,-0.000160766067359,0.99999998587,0.0,0.0,0.0,0.0,0.0,0.0
1609056011442056894,293,1609056011442056894,0.0122284208358,-0.00564846443426,0.00114123931989,4.94710256849e-06,3.76931262766e-05,-9.97903623533e-05,0.999999994298,0.0,0.0,0.0,0.0,0.0,0.0
1609056011550900221,294,1609056011550900221,0.0122284208358,-0.00564846443426,0.00114123931989,4.94710256849e-06,3.76931262766e-05,-9.97903623533e-05,0.999999994298,0.0,0.0,0.0,0.0,0.0,0.0
1609056011644686460,295,1609056011644686460,0.00255408066992,0.00568779802259,0.000815924460734,-2.52497094014e-08,1.42566942081e-05,-0.000101242805729,0.999999994773,0.0,0.0,0.0,0.0,0.0,0.0
1609056011741434336,296,1609056011741434336,0.00255408066992,0.00568779802259,0.000815924460734,-2.52497094014e-08,1.42566942081e-05,-0.000101242805729,0.999999994773,0.0,0.0,0.0,0.0,0.0,0.0
1609056011850573778,297,1609056011850573778,0.0123735545099,-0.000895643124903,0.000486789635591,-5.97318272291e-06,4.35843926358e-05,-0.000181826753416,0.999999982502,0.0,0.0,0.0,0.0,0.0,0.0
1609056011945144176,298,1609056011945144176,0.0123735545099,-0.000895643124903,0.000486789635591,-5.97318272291e-06,4.35843926358e-05,-0.000181826753416,0.999999982502,0.0,0.0,0.0,0.0,0.0,0.0
1609056012041865587,299,1609056012041865587,0.00438409030042,0.000519992257222,0.00012980682446,-1.9550274104e-05,5.85539601655e-05,-0.000135119746892,0.999999988966,0.0,0.0,0.0,0.0,0.0,0.0
1609056012151570320,300,1609056012151570320,0.00438409030042,0.000519992257222,0.00012980682446,-1.9550274104e-05,5.85539601655e-05,-0.000135119746892,0.999999988966,0.0,0.0,0.0,0.0,0.0,0.0
1609056012245564461,301,1609056012245564461,0.00979962131999,-0.00353781626994,0.000818357200939,1.60316499129e-05,4.25190133086e-06,-0.000327110688477,0.999999946362,0.0,0.0,0.0,0.0,0.0,0.0
1609056012342035294,302,1609056012342035294,0.00979962131999,-0.00353781626994,0.000818357200939,1.60316499129e-05,4.25190133086e-06,-0.000327110688477,0.999999946362,0.0,0.0,0.0,0.0,0.0,0.0
1609056012451623917,303,1609056012451623917,0.00723611524314,0.00835839211767,0.000561098574486,-2.72242473605e-05,6.83440209764e-05,-1.77839044296e-05,0.999999997136,0.0,0.0,0.0,0.0,0.0,0.0
1609056012544895411,304,1609056012544895411,0.00723611524314,0.00835839211767,0.000561098574486,-2.72242473605e-05,6.83440209764e-05,-1.77839044296e-05,0.999999997136,0.0,0.0,0.0,0.0,0.0,0.0
1609056012641577005,305,1609056012641577005,0.00779221597789,0.00294037855787,0.00143134605728,-1.98103774143e-05,5.96768313707e-05,-8.17182175586e-05,0.999999994684,0.0,0.0,0.0,0.0,0.0,0.0
1609056012751698256,306,1609056012751698256,0.00779221597789,0.00294037855787,0.00143134605728,-1.98103774143e-05,5.96768313707e-05,-8.17182175586e-05,0.999999994684,0.0,0.0,0.0,0.0,0.0,0.0
1609056012844780922,307,1609056012844780922,0.00855729220868,-0.00400490711976,0.00123837963217,1.18878218382e-05,2.02725590142e-05,-0.000103083116389,0.999999994411,0.0,0.0,0.0,0.0,0.0,0.0
1609056012942808628,308,1609056012942808628,0.00855729220868,-0.00400490711976,0.00123837963217,1.18878218382e-05,2.02725590142e-05,-0.000103083116389,0.999999994411,0.0,0.0,0.0,0.0,0.0,0.0
1609056013051370859,309,1609056013051370859,0.00775528499679,-0.00434528646288,-0.000387066513579,-1.26105534623e-05,3.25185606019e-05,-0.000248326883632,0.999999968559,0.0,0.0,0.0,0.0,0.0,0.0
1609056013144576311,310,1609056013144576311,0.00775528499679,-0.00434528646288,-0.000387066513579,-1.26105534623e-05,3.25185606019e-05,-0.000248326883632,0.999999968559,0.0,0.0,0.0,0.0,0.0,0.0
1609056013241235256,311,1609056013241235256,0.00686390288337,-0.00448929059479,0.00141190149577,1.82411686688e-05,1.10539352765e-05,8.49742796681e-05,0.999999996162,0.0,0.0,0.0,0.0,0.0,0.0
1609056013351263523,312,1609056013351263523,0.00686390288337,-0.00448929059479,0.00141190149577,1.82411686688e-05,1.10539352765e-05,8.49742796681e-05,0.999999996162,0.0,0.0,0.0,0.0,0.0,0.0
1609056013444447994,313,1609056013444447994,0.0124454883847,-0.00404356603776,-0.000463009505991,-1.22733362359e-05,7.22103839966e-05,-0.000112135627667,0.99999999103,0.0,0.0,0.0,0.0,0.0,0.0
1609056013541677237,314,1609056013541677237,0.0124454883847,-0.00404356603776,-0.000463009505991,-1.22733362359e-05,7.22103839966e-05,-0.000112135627667,0.99999999103,0.0,0.0,0.0,0.0,0.0,0.0
1609056013650660038,315,1609056013650660038,0.00452040035309,-0.00369752363531,0.0011298322592,1.52095163505e-05,1.41078307918e-05,0.000161777289106,0.999999986699,0.0,0.0,0.0,0.0,0.0,0.0
1609056013744572163,316,1609056013744572163,0.00452040035309,-0.00369752363531,0.0011298322592,1.52095163505e-05,1.41078307918e-05,0.000161777289106,0.999999986699,0.0,0.0,0.0,0.0,0.0,0.0
1609056013841505051,317,1609056013841505051,0.00765874706694,-0.0058807128865,0.00198891235283,1.28880879743e-05,2.99351642169e-05,-2.77022014801e-05,0.999999999085,0.0,0.0,0.0,0.0,0.0,0.0
1609056013950938463,318,1609056013950938463,0.00765874706694,-0.0058807128865,0.00198891235283,1.28880879743e-05,2.99351642169e-05,-2.77022014801e-05,0.999999999085,0.0,0.0,0.0,0.0,0.0,0.0
1609056014044605970,319,1609056014044605970,0.00864487928349,-0.00656806707071,0.00165165415793,1.42368820923e-05,1.01327275765e-05,-5.13903183545e-06,0.999999999834,0.0,0.0,0.0,0.0,0.0,0.0
1609056014141125917,320,1609056014141125917,0.00864487928349,-0.00656806707071,0.00165165415793,1.42368820923e-05,1.01327275765e-05,-5.13903183545e-06,0.999999999834,0.0,0.0,0.0,0.0,0.0,0.0
1609056014250652313,321,1609056014250652313,0.00459931076386,-0.000738706533484,0.00165791012341,6.02369335911e-06,1.51260147724e-05,-5.15490756603e-05,0.999999998539,0.0,0.0,0.0,0.0,0.0,0.0
1609056014344855309,322,1609056014344855309,0.00459931076386,-0.000738706533484,0.00165791012341,6.02369335911e-06,1.51260147724e-05,-5.15490756603e-05,0.999999998539,0.0,0.0,0.0,0.0,0.0,0.0
1609056014441550970,323,1609056014441550970,0.00492317005964,0.000899812439106,0.000683547310394,-7.5406639651e-07,2.95565102909e-05,9.1131692041e-05,0.99999999541,0.0,0.0,0.0,0.0,0.0,0.0
1609056014551293850,324,1609056014551293850,0.00492317005964,0.000899812439106,0.000683547310394,-7.5406639651e-07,2.95565102909e-05,9.1131692041e-05,0.99999999541,0.0,0.0,0.0,0.0,0.0,0.0
1609056014644738913,325,1609056014644738913,0.0073663426877,-0.00438697697937,0.000901670876359,9.36467753845e-06,4.04398251326e-05,-3.62025928747e-05,0.999999998483,0.0,0.0,0.0,0.0,0.0,0.0
1609056014741393089,326,1609056014741393089,0.0073663426877,-0.00438697697937,0.000901670876359,9.36467753845e-06,4.04398251326e-05,-3.62025928747e-05,0.999999998483,0.0,0.0,0.0,0.0,0.0,0.0
1609056014851256371,327,1609056014851256371,0.00407918680803,0.00145984638874,0.00108492942158,-3.60753288573e-06,2.22188097289e-05,2.84362732535e-05,0.999999999342,0.0,0.0,0.0,0.0,0.0,0.0
1609056014944341898,328,1609056014944341898,0.00407918680803,0.00145984638874,0.00108492942158,-3.60753288573e-06,2.22188097289e-05,2.84362732535e-05,0.999999999342,0.0,0.0,0.0,0.0,0.0,0.0
1609056015041097879,329,1609056015041097879,0.00550483036054,0.00134308672503,0.000553411887877,-8.39842676923e-06,1.72465708596e-05,-0.000160856967675,0.999999986879,0.0,0.0,0.0,0.0,0.0,0.0
1609056015151135206,330,1609056015151135206,0.00550483036054,0.00134308672503,0.000553411887877,-8.39842676923e-06,1.72465708596e-05,-0.000160856967675,0.999999986879,0.0,0.0,0.0,0.0,0.0,0.0
1609056015244224310,331,1609056015244224310,-1.14455648623e-05,0.00489676794751,0.000571965445113,1.06977296274e-05,-2.33090998881e-05,3.31929425801e-05,0.99999999912,0.0,0.0,0.0,0.0,0.0,0.0
1609056015341521502,332,1609056015341521502,-1.14455648623e-05,0.00489676794751,0.000571965445113,1.06977296274e-05,-2.33090998881e-05,3.31929425801e-05,0.99999999912,0.0,0.0,0.0,0.0,0.0,0.0
1609056015450983524,333,1609056015450983524,0.0048389251036,-0.000817226755809,-0.000105279128116,-3.42750072711e-06,1.16813339077e-05,0.000102454817933,0.999999994677,0.0,0.0,0.0,0.0,0.0,0.0
1609056015544438839,334,1609056015544438839,0.0048389251036,-0.000817226755809,-0.000105279128116,-3.42750072711e-06,1.16813339077e-05,0.000102454817933,0.999999994677,0.0,0.0,0.0,0.0,0.0,0.0
1609056015641401052,335,1609056015641401052,0.00923970033396,-0.00448417064274,0.00234608294103,2.72172167953e-05,-2.75997726794e-07,-0.000141406769755,0.999999989632,0.0,0.0,0.0,0.0,0.0,0.0
1609056015750290155,336,1609056015750290155,0.00923970033396,-0.00448417064274,0.00234608294103,2.72172167953e-05,-2.75997726794e-07,-0.000141406769755,0.999999989632,0.0,0.0,0.0,0.0,0.0,0.0
1609056015844399214,337,1609056015844399214,0.0041579488971,-0.00152280016001,0.00187633110472,9.55892653556e-06,2.87148459627e-05,-4.16776427523e-05,0.999999998674,0.0,0.0,0.0,0.0,0.0,0.0
1609056015941080332,338,1609056015941080332,0.0041579488971,-0.00152280016001,0.00187633110472,9.55892653556e-06,2.87148459627e-05,-4.16776427523e-05,0.999999998674,0.0,0.0,0.0,0.0,0.0,0.0
1609056016050620317,339,1609056016050620317,0.00250042405322,-0.0060189679495,0.00210027607967,2.98575730573e-05,-3.00328836661e-06,-2.45373591949e-05,0.999999999249,0.0,0.0,0.0,0.0,0.0,0.0
1609056016144357204,340,1609056016144357204,0.00250042405322,-0.0060189679495,0.00210027607967,2.98575730573e-05,-3.00328836661e-06,-2.45373591949e-05,0.999999999249,0.0,0.0,0.0,0.0,0.0,0.0
1609056016241121292,341,1609056016241121292,0.00305120384987,0.00245683824423,0.00231519097057,1.7149127873e-05,2.59213166477e-05,-0.000155985406855,0.999999987351,0.0,0.0,0.0,0.0,0.0,0.0
1609056016350661039,342,1609056016350661039,0.00305120384987,0.00245683824423,0.00231519097057,1.7149127873e-05,2.59213166477e-05,-0.000155985406855,0.999999987351,0.0,0.0,0.0,0.0,0.0,0.0
1609056016444407463,343,1609056016444407463,-0.00293090520847,0.0028504315668,0.00346245077342,1.61078795007e-05,1.72132651484e-05,8.79253868561e-06,0.999999999683,0.0,0.0,0.0,0.0,0.0,0.0
1609056016541186333,344,1609056016541186333,-0.00293090520847,0.0028504315668,0.00346245077342,1.61078795007e-05,1.72132651484e-05,8.79253868561e-06,0.999999999683,0.0,0.0,0.0,0.0,0.0,0.0
1609056016650833845,345,1609056016650833845,-0.00836298111484,0.0117285358734,0.00187283827373,-2.45132586439e-05,4.89666260288e-05,0.000207368544305,0.999999977,0.0,0.0,0.0,0.0,0.0,0.0
1609056016744533777,346,1609056016744533777,-0.00836298111484,0.0117285358734,0.00187283827373,-2.45132586439e-05,4.89666260288e-05,0.000207368544305,0.999999977,0.0,0.0,0.0,0.0,0.0,0.0
1609056016841274977,347,1609056016841274977,-0.0019283234869,0.00976959990932,0.0026893536409,-3.99528315288e-05,0.000117083802852,0.000213788532644,0.999999969495,0.0,0.0,0.0,0.0,0.0,0.0
1609056016951237202,348,1609056016951237202,-0.0019283234869,0.00976959990932,0.0026893536409,-3.99528315288e-05,0.000117083802852,0.000213788532644,0.999999969495,0.0,0.0,0.0,0.0,0.0,0.0
1609056017044466019,349,1609056017044466019,0.00589262335608,-0.000871059015242,-0.0052373452051,0.000121463744503,-0.000435112067853,-0.000206839069407,0.999999876571,0.0,0.0,0.0,0.0,0.0,0.0
1609056017141134739,350,1609056017141134739,0.00589262335608,-0.000871059015242,-0.0052373452051,0.000121463744503,-0.000435112067853,-0.000206839069407,0.999999876571,0.0,0.0,0.0,0.0,0.0,0.0
1609056017250735283,351,1609056017250735283,0.0158655768312,0.00485649652824,-0.0151816990888,0.000102865251071,-0.00074098487867,-0.000721240486171,0.999999460086,0.0,0.0,0.0,0.0,0.0,0.0
1609056017344448566,352,1609056017344448566,0.0158655768312,0.00485649652824,-0.0151816990888,0.000102865251071,-0.00074098487867,-0.000721240486171,0.999999460086,0.0,0.0,0.0,0.0,0.0,0.0
