%time,field.header.seq,field.header.stamp,field.pose.pose.position.x,field.pose.pose.position.y,field.pose.pose.position.z,field.pose.pose.orientation.x,field.pose.pose.orientation.y,field.pose.pose.orientation.z,field.pose.pose.orientation.w,field.twist.twist.linear.x,field.twist.twist.linear.y,field.twist.twist.linear.z,field.twist.twist.angular.x,field.twist.twist.angular.y,field.twist.twist.angular.z
1609054402767964602,40,1609054402767964602,0.00326875273957,-0.00331315609615,0.000598619251608,7.94057962979e-07,1.86830767153e-06,-0.000229503496854,0.999999973662,0.0,0.0,0.0,0.0,0.0,0.0
1609054402861785173,41,1609054402861785173,0.00607199765803,-0.0107600620693,0.000171351074245,9.58637137747e-06,-2.73364068924e-05,6.87743876146e-07,0.99999999958,0.0,0.0,0.0,0.0,0.0,0.0
1609054402973661423,42,1609054402973661423,0.00607199765803,-0.0107600620693,0.000171351074245,9.58637137747e-06,-2.73364068924e-05,6.87743876146e-07,0.99999999958,0.0,0.0,0.0,0.0,0.0,0.0
1609054403068194389,43,1609054403068194389,0.00920442529322,-0.0184389999192,-0.000622640924394,2.86078491136e-05,2.75225483033e-05,-5.11699570866e-05,0.999999997903,0.0,0.0,0.0,0.0,0.0,0.0
1609054403161856890,44,1609054403161856890,0.00920442529322,-0.0184389999192,-0.000622640924394,2.86078491136e-05,2.75225483033e-05,-5.11699570866e-05,0.999999997903,0.0,0.0,0.0,0.0,0.0,0.0
1609054403274002790,45,1609054403274002790,0.00443628101194,-0.00406416413567,-0.0001780082857,7.16449018366e-06,2.36340693637e-05,-3.69833350616e-05,0.999999999011,0.0,0.0,0.0,0.0,0.0,0.0
1609054403367282152,46,1609054403367282152,0.00443628101194,-0.00406416413567,-0.0001780082857,7.16449018366e-06,2.36340693637e-05,-3.69833350616e-05,0.999999999011,0.0,0.0,0.0,0.0,0.0,0.0
1609054403461115360,47,1609054403461115360,0.00603795451171,-0.00172331882847,-0.000629633716856,-4.2845714262e-06,-3.19056701005e-05,3.67878591313e-05,0.999999998805,0.0,0.0,0.0,0.0,0.0,0.0
1609054403573681593,48,1609054403573681593,0.00603795451171,-0.00172331882847,-0.000629633716856,-4.2845714262e-06,-3.19056701005e-05,3.67878591313e-05,0.999999998805,0.0,0.0,0.0,0.0,0.0,0.0
1609054403667495728,49,1609054403667495728,0.0052031967712,-0.0163706544143,-0.000443326464766,1.89723823122e-05,3.44714336736e-05,-4.92965095015e-05,0.999999998011,0.0,0.0,0.0,0.0,0.0,0.0
1609054403761391163,50,1609054403761391163,0.0052031967712,-0.0163706544143,-0.000443326464766,1.89723823122e-05,3.44714336736e-05,-4.92965095015e-05,0.999999998011,0.0,0.0,0.0,0.0,0.0,0.0
1609054403873744249,51,1609054403873744249,0.00721798169487,-0.00968334096619,-0.000175916524584,7.18933877951e-06,6.59030413522e-06,-0.000146208798001,0.999999989264,0.0,0.0,0.0,0.0,0.0,0.0
1609054403967506409,52,1609054403967506409,0.00721798169487,-0.00968334096619,-0.000175916524584,7.18933877951e-06,6.59030413522e-06,-0.000146208798001,0.999999989264,0.0,0.0,0.0,0.0,0.0,0.0
1609054404061492682,53,1609054404061492682,0.00576973107857,-0.00301178165677,0.000576008784561,-4.84806457642e-06,-8.13210733286e-05,8.91463552228e-05,0.999999992708,0.0,0.0,0.0,0.0,0.0,0.0
1609054404173678637,54,1609054404173678637,0.00576973107857,-0.00301178165677,0.000576008784561,-4.84806457642e-06,-8.13210733286e-05,8.91463552228e-05,0.999999992708,0.0,0.0,0.0,0.0,0.0,0.0
1609054404267392397,55,1609054404267392397,0.00844413201566,0.00240061774197,0.00177846977018,-5.37183543279e-07,8.64132878003e-06,-6.50997622368e-05,0.999999997844,0.0,0.0,0.0,0.0,0.0,0.0
1609054404361479521,56,1609054404361479521,0.00844413201566,0.00240061774197,0.00177846977018,-5.37183543279e-07,8.64132878003e-06,-6.50997622368e-05,0.999999997844,0.0,0.0,0.0,0.0,0.0,0.0
1609054404473576784,57,1609054404473576784,0.0039651310776,-0.0082458223917,0.000143446756193,-1.82559646904e-06,-5.23180603026e-05,7.21711880311e-05,0.999999996025,0.0,0.0,0.0,0.0,0.0,0.0
1609054404567915678,58,1609054404567915678,0.0039651310776,-0.0082458223917,0.000143446756193,-1.82559646904e-06,-5.23180603026e-05,7.21711880311e-05,0.999999996025,0.0,0.0,0.0,0.0,0.0,0.0
1609054404661333084,59,1609054404661333084,0.00658923197498,0.00334428242861,-0.000112099044162,-7.35545287932e-06,-5.0320950356e-06,3.37547922908e-05,0.999999999391,0.0,0.0,0.0,0.0,0.0,0.0
1609054404773445129,60,1609054404773445129,0.00658923197498,0.00334428242861,-0.000112099044162,-7.35545287932e-06,-5.0320950356e-06,3.37547922908e-05,0.999999999391,0.0,0.0,0.0,0.0,0.0,0.0
1609054404867273808,61,1609054404867273808,0.00410793528303,0.0080669463882,-0.00139241684678,-1.50193602594e-05,-7.85169397884e-05,5.49497388483e-05,0.999999995295,0.0,0.0,0.0,0.0,0.0,0.0
1609054404961496830,62,1609054404961496830,0.00410793528303,0.0080669463882,-0.00139241684678,-1.50193602594e-05,-7.85169397884e-05,5.49497388483e-05,0.999999995295,0.0,0.0,0.0,0.0,0.0,0.0
1609054405073533297,63,1609054405073533297,0.00366002193388,-0.00487994443893,-0.000479257536256,-1.33932516203e-06,-3.47971545288e-05,-2.37067160071e-05,0.999999999113,0.0,0.0,0.0,0.0,0.0,0.0
1609054405167301416,64,1609054405167301416,0.00366002193388,-0.00487994443893,-0.000479257536256,-1.33932516203e-06,-3.47971545288e-05,-2.37067160071e-05,0.999999999113,0.0,0.0,0.0,0.0,0.0,0.0
1609054405261336088,65,1609054405261336088,0.00288987984179,0.00717076006153,-0.000495843386018,-2.37840439349e-05,-1.68741783433e-05,8.84117284048e-05,0.999999995666,0.0,0.0,0.0,0.0,0.0,0.0
1609054405374491930,66,1609054405374491930,0.00288987984179,0.00717076006153,-0.000495843386018,-2.37840439349e-05,-1.68741783433e-05,8.84117284048e-05,0.999999995666,0.0,0.0,0.0,0.0,0.0,0.0
1609054405467295170,67,1609054405467295170,0.00325980043739,-0.00658563252803,0.000454381808504,-6.58239663299e-07,-2.99075348136e-05,3.66652396536e-05,0.99999999888,0.0,0.0,0.0,0.0,0.0,0.0
1609054405561595678,68,1609054405561595678,0.00325980043739,-0.00658563252803,0.000454381808504,-6.58239663299e-07,-2.99075348136e-05,3.66652396536e-05,0.99999999888,0.0,0.0,0.0,0.0,0.0,0.0
1609054405674577475,69,1609054405674577475,0.00446150685938,-0.00778412906295,-0.000237569032885,-5.41914877659e-06,-4.09261182783e-05,0.000102793305749,0.999999993865,0.0,0.0,0.0,0.0,0.0,0.0
1609054405767358780,70,1609054405767358780,0.00446150685938,-0.00778412906295,-0.000237569032885,-5.41914877659e-06,-4.09261182783e-05,0.000102793305749,0.999999993865,0.0,0.0,0.0,0.0,0.0,0.0
1609054405862248659,71,1609054405862248659,0.00477027616765,-0.00568850864934,0.000474189283128,6.70197351564e-06,4.60458921895e-05,9.04303130677e-05,0.999999994829,0.0,0.0,0.0,0.0,0.0,0.0
1609054405973615646,72,1609054405973615646,0.00477027616765,-0.00568850864934,0.000474189283128,6.70197351564e-06,4.60458921895e-05,9.04303130677e-05,0.999999994829,0.0,0.0,0.0,0.0,0.0,0.0
1609054406067150831,73,1609054406067150831,0.000298521358645,-0.00667717679457,0.000614440643202,-3.21513352895e-07,8.50422498207e-07,-1.64129261054e-05,0.999999999865,0.0,0.0,0.0,0.0,0.0,0.0
1609054406161258936,74,1609054406161258936,0.000298521358645,-0.00667717679457,0.000614440643202,-3.21513352895e-07,8.50422498207e-07,-1.64129261054e-05,0.999999999865,0.0,0.0,0.0,0.0,0.0,0.0
1609054406274150848,75,1609054406274150848,0.00596005361998,-0.00650731487908,4.67117547337e-05,1.77201063037e-05,4.43036547867e-05,5.21752725272e-05,0.9999999975,0.0,0.0,0.0,0.0,0.0,0.0
1609054406367122889,76,1609054406367122889,0.00596005361998,-0.00650731487908,4.67117547337e-05,1.77201063037e-05,4.43036547867e-05,5.21752725272e-05,0.9999999975,0.0,0.0,0.0,0.0,0.0,0.0
1609054406463082075,77,1609054406463082075,0.00538173678327,-0.0127908854897,-0.00151171431026,3.84397649069e-06,-2.89637680878e-05,0.000140104625349,0.999999989759,0.0,0.0,0.0,0.0,0.0,0.0
1609054406559400082,78,1609054406559400082,0.00538173678327,-0.0127908854897,-0.00151171431026,3.84397649069e-06,-2.89637680878e-05,0.000140104625349,0.999999989759,0.0,0.0,0.0,0.0,0.0,0.0
1609054406668809175,79,1609054406668809175,0.00415804696496,-0.000868298661291,-0.000699115770561,-6.180482755e-07,-2.02819057642e-05,0.000184863182544,0.999999982707,0.0,0.0,0.0,0.0,0.0,0.0
1609054406762711525,80,1609054406762711525,0.00415804696496,-0.000868298661291,-0.000699115770561,-6.180482755e-07,-2.02819057642e-05,0.000184863182544,0.999999982707,0.0,0.0,0.0,0.0,0.0,0.0
1609054406859551668,81,1609054406859551668,0.00456234397176,-0.0132740676846,0.000763622514351,2.39297000926e-05,2.72401822535e-05,0.000252891367181,0.999999967366,0.0,0.0,0.0,0.0,0.0,0.0
1609054406968643427,82,1609054406968643427,0.00456234397176,-0.0132740676846,0.000763622514351,2.39297000926e-05,2.72401822535e-05,0.000252891367181,0.999999967366,0.0,0.0,0.0,0.0,0.0,0.0
1609054407062545300,83,1609054407062545300,0.00519259214615,-0.00906014174409,-0.00112185675815,7.30023554627e-06,-3.12863193137e-05,7.3126488246e-05,0.99999999681,0.0,0.0,0.0,0.0,0.0,0.0
1609054407159109831,84,1609054407159109831,0.00519259214615,-0.00906014174409,-0.00112185675815,7.30023554627e-06,-3.12863193137e-05,7.3126488246e-05,0.99999999681,0.0,0.0,0.0,0.0,0.0,0.0
1609054407269333124,85,1609054407269333124,0.00265356481578,-0.00549358132071,0.000451971002245,1.26901955279e-05,1.26554327345e-05,-5.4031752916e-05,0.99999999838,0.0,0.0,0.0,0.0,0.0,0.0
1609054407363734007,86,1609054407363734007,0.00265356481578,-0.00549358132071,0.000451971002245,1.26901955279e-05,1.26554327345e-05,-5.4031752916e-05,0.99999999838,0.0,0.0,0.0,0.0,0.0,0.0
1609054407459258795,87,1609054407459258795,0.00170625440483,0.000153591425578,-0.000762779059739,-1.32768962667e-05,-4.23087138416e-05,-0.000100665991757,0.99999999395,0.0,0.0,0.0,0.0,0.0,0.0
1609054407568443298,88,1609054407568443298,0.00170625440483,0.000153591425578,-0.000762779059739,-1.32768962667e-05,-4.23087138416e-05,-0.000100665991757,0.99999999395,0.0,0.0,0.0,0.0,0.0,0.0
1609054407662591219,89,1609054407662591219,0.00405117713395,-0.000958411502692,-0.000137357187893,1.52317997847e-06,1.66766033281e-05,7.70003068367e-06,0.99999999983,0.0,0.0,0.0,0.0,0.0,0.0
1609054407759235382,90,1609054407759235382,0.00405117713395,-0.000958411502692,-0.000137357187893,1.52317997847e-06,1.66766033281e-05,7.70003068367e-06,0.99999999983,0.0,0.0,0.0,0.0,0.0,0.0
1609054407868831873,91,1609054407868831873,0.00803420741577,-3.78426746319e-05,-0.000899420718536,-1.72150634938e-06,-3.63141768051e-05,6.48071237502e-05,0.999999997239,0.0,0.0,0.0,0.0,0.0,0.0
1609054407962866545,92,1609054407962866545,0.00803420741577,-3.78426746319e-05,-0.000899420718536,-1.72150634938e-06,-3.63141768051e-05,6.48071237502e-05,0.999999997239,0.0,0.0,0.0,0.0,0.0,0.0
1609054408059130907,93,1609054408059130907,0.00390981366876,-0.0120715565506,0.000384921320709,1.14124672129e-05,1.0841545052e-05,-9.05927249862e-05,0.999999995773,0.0,0.0,0.0,0.0,0.0,0.0
1609054408168604136,94,1609054408168604136,0.00390981366876,-0.0120715565506,0.000384921320709,1.14124672129e-05,1.0841545052e-05,-9.05927249862e-05,0.999999995773,0.0,0.0,0.0,0.0,0.0,0.0
1609054408262886286,95,1609054408262886286,0.00332273647567,-0.00128098059539,0.000364303830158,7.06723520395e-06,-7.15448111097e-06,0.000119996285949,0.99999999275,0.0,0.0,0.0,0.0,0.0,0.0
1609054408359160185,96,1609054408359160185,0.00332273647567,-0.00128098059539,0.000364303830158,7.06723520395e-06,-7.15448111097e-06,0.000119996285949,0.99999999275,0.0,0.0,0.0,0.0,0.0,0.0
1609054408468926907,97,1609054408468926907,0.00683028649982,-0.00247419675654,-0.000790841046292,-5.57526635544e-06,-3.11986766168e-05,9.13920192848e-05,0.999999995322,0.0,0.0,0.0,0.0,0.0,0.0
1609054408562790871,98,1609054408562790871,0.00683028649982,-0.00247419675654,-0.000790841046292,-5.57526635544e-06,-3.11986766168e-05,9.13920192848e-05,0.999999995322,0.0,0.0,0.0,0.0,0.0,0.0
1609054408659123421,99,1609054408659123421,0.00425118671135,-0.00166519216681,-3.5680142872e-05,7.18086824062e-06,6.68306911267e-06,9.13826431759e-05,0.999999995776,0.0,0.0,0.0,0.0,0.0,0.0
1609054408768761396,100,1609054408768761396,0.00425118671135,-0.00166519216681,-3.5680142872e-05,7.18086824062e-06,6.68306911267e-06,9.13826431759e-05,0.999999995776,0.0,0.0,0.0,0.0,0.0,0.0
1609054408862689972,101,1609054408862689972,0.00663077214829,0.00148951744811,0.000816925529759,-2.41683832442e-06,2.21016637443e-05,-3.34012352396e-05,0.999999999195,0.0,0.0,0.0,0.0,0.0,0.0
1609054408958965540,102,1609054408958965540,0.00663077214829,0.00148951744811,0.000816925529759,-2.41683832442e-06,2.21016637443e-05,-3.34012352396e-05,0.999999999195,0.0,0.0,0.0,0.0,0.0,0.0
1609054409068454504,103,1609054409068454504,0.00940195714252,0.000670132515427,0.000316781257692,-5.94665042359e-06,6.02368241698e-06,0.000105099515734,0.999999994441,0.0,0.0,0.0,0.0,0.0,0.0
1609054409162940025,104,1609054409162940025,0.00940195714252,0.000670132515427,0.000316781257692,-5.94665042359e-06,6.02368241698e-06,0.000105099515734,0.999999994441,0.0,0.0,0.0,0.0,0.0,0.0
1609054409259214640,105,1609054409259214640,0.00505612745566,-0.00607306095835,-9.033697092e-05,5.2231180038e-06,-7.01075465918e-06,0.00010283436725,0.999999994674,0.0,0.0,0.0,0.0,0.0,0.0
1609054409368637562,106,1609054409368637562,0.00505612745566,-0.00607306095835,-9.033697092e-05,5.2231180038e-06,-7.01075465918e-06,0.00010283436725,0.999999994674,0.0,0.0,0.0,0.0,0.0,0.0
1609054409462863445,107,1609054409462863445,0.00329395415119,-0.00481966482096,-0.00134818795932,-1.7027479155e-06,-3.39444314735e-05,9.03413582698e-05,0.999999995342,0.0,0.0,0.0,0.0,0.0,0.0
1609054409559236765,108,1609054409559236765,0.00329395415119,-0.00481966482096,-0.00134818795932,-1.7027479155e-06,-3.39444314735e-05,9.03413582698e-05,0.999999995342,0.0,0.0,0.0,0.0,0.0,0.0
1609054409669027567,109,1609054409669027567,0.00756421176796,-0.0088270613124,-0.000737505536614,9.97510917381e-06,-2.81092021006e-06,0.000155024558978,0.99999998793,0.0,0.0,0.0,0.0,0.0,0.0
1609054409763786554,110,1609054409763786554,0.00756421176796,-0.0088270613124,-0.000737505536614,9.97510917381e-06,-2.81092021006e-06,0.000155024558978,0.99999998793,0.0,0.0,0.0,0.0,0.0,0.0
1609054409859276295,111,1609054409859276295,0.00700403509138,-0.00592766432604,-0.00141155260879,5.76488405577e-06,-6.49599279506e-06,-2.69395805281e-05,0.999999999599,0.0,0.0,0.0,0.0,0.0,0.0
1609054409968606710,112,1609054409968606710,0.00700403509138,-0.00592766432604,-0.00141155260879,5.76488405577e-06,-6.49599279506e-06,-2.69395805281e-05,0.999999999599,0.0,0.0,0.0,0.0,0.0,0.0
1609054410064834356,113,1609054410064834356,0.00483126481899,-0.018760479032,-2.59537593557e-05,1.45998096485e-05,-2.23437667154e-05,-5.41360227156e-05,0.999999998178,0.0,0.0,0.0,0.0,0.0,0.0
1609054410158784389,114,1609054410158784389,0.00483126481899,-0.018760479032,-2.59537593557e-05,1.45998096485e-05,-2.23437667154e-05,-5.41360227156e-05,0.999999998178,0.0,0.0,0.0,0.0,0.0,0.0
1609054410268425226,115,1609054410268425226,0.00529805571557,0.00081060586465,-0.000689257848724,-6.03923616723e-06,-1.41060003892e-05,7.88256914098e-06,0.999999999851,0.0,0.0,0.0,0.0,0.0,0.0
1609054410362285852,116,1609054410362285852,0.00529805571557,0.00081060586465,-0.000689257848724,-6.03923616723e-06,-1.41060003892e-05,7.88256914098e-06,0.999999999851,0.0,0.0,0.0,0.0,0.0,0.0
1609054410458904743,117,1609054410458904743,0.00776155009551,0.0125767937112,0.000649669953005,-1.9369334654e-05,1.67918846853e-06,3.99250187285e-05,0.999999999014,0.0,0.0,0.0,0.0,0.0,0.0
1609054410568568230,118,1609054410568568230,0.00776155009551,0.0125767937112,0.000649669953005,-1.9369334654e-05,1.67918846853e-06,3.99250187285e-05,0.999999999014,0.0,0.0,0.0,0.0,0.0,0.0
1609054410662791491,119,1609054410662791491,0.00689903833417,0.00588412860544,-0.000354302980555,-2.30223260151e-05,-6.96692645744e-05,-0.000118415869499,0.999999990297,0.0,0.0,0.0,0.0,0.0,0.0
1609054410758918762,120,1609054410758918762,0.00689903833417,0.00588412860544,-0.000354302980555,-2.30223260151e-05,-6.96692645744e-05,-0.000118415869499,0.999999990297,0.0,0.0,0.0,0.0,0.0,0.0
1609054410868296385,121,1609054410868296385,0.00192491543109,-0.00409035454313,0.000363956904877,9.45442067292e-06,-3.33064276535e-05,7.22333293076e-05,0.999999996792,0.0,0.0,0.0,0.0,0.0,0.0
1609054410962547302,122,1609054410962547302,0.00192491543109,-0.00409035454313,0.000363956904877,9.45442067292e-06,-3.33064276535e-05,7.22333293076e-05,0.999999996792,0.0,0.0,0.0,0.0,0.0,0.0
1609054411059254408,123,1609054411059254408,0.00510531081981,-0.0105514654506,-0.000262450066954,1.4825049808e-05,-1.51688121272e-05,7.17238772315e-05,0.999999997203,0.0,0.0,0.0,0.0,0.0,0.0
1609054411169037104,124,1609054411169037104,0.00510531081981,-0.0105514654506,-0.000262450066954,1.4825049808e-05,-1.51688121272e-05,7.17238772315e-05,0.999999997203,0.0,0.0,0.0,0.0,0.0,0.0
1609054411263201714,125,1609054411263201714,0.00478860712278,-0.00434787643784,-0.000137862431757,-7.87227727024e-06,-6.9901516328e-05,9.489233353e-05,0.999999993024,0.0,0.0,0.0,0.0,0.0,0.0
1609054411359087229,126,1609054411359087229,0.00478860712278,-0.00434787643784,-0.000137862431757,-7.87227727024e-06,-6.9901516328e-05,9.489233353e-05,0.999999993024,0.0,0.0,0.0,0.0,0.0,0.0
1609054411468455315,127,1609054411468455315,0.00696098704095,-0.0020791504863,-0.000900618648126,1.43754081831e-08,1.2313453549e-06,-9.19073996226e-05,0.999999995776,0.0,0.0,0.0,0.0,0.0,0.0
1609054411562402725,128,1609054411562402725,0.00696098704095,-0.0020791504863,-0.000900618648126,1.43754081831e-08,1.2313453549e-06,-9.19073996226e-05,0.999999995776,0.0,0.0,0.0,0.0,0.0,0.0
1609054411659335136,129,1609054411659335136,0.00779238105244,0.00245683680753,0.000921607591839,-2.3543935004e-06,-2.65815185529e-05,0.000105315540078,0.999999994098,0.0,0.0,0.0,0.0,0.0,0.0
1609054411768463373,130,1609054411768463373,0.00779238105244,0.00245683680753,0.000921607591839,-2.3543935004e-06,-2.65815185529e-05,0.000105315540078,0.999999994098,0.0,0.0,0.0,0.0,0.0,0.0
1609054411862406015,131,1609054411862406015,0.00280605704217,-0.00403153450871,-0.00150014161467,-1.69790411402e-05,-7.80128132712e-05,7.36606445454e-05,0.9999999941,0.0,0.0,0.0,0.0,0.0,0.0
1609054411959164381,132,1609054411959164381,0.00280605704217,-0.00403153450871,-0.00150014161467,-1.69790411402e-05,-7.80128132712e-05,7.36606445454e-05,0.9999999941,0.0,0.0,0.0,0.0,0.0,0.0
1609054412069110632,133,1609054412069110632,0.00653387383457,-0.0258669313325,-0.000170073539472,3.02281606233e-05,-8.52094499797e-07,1.91385656756e-06,0.999999999541,0.0,0.0,0.0,0.0,0.0,0.0
1609054412165400028,134,1609054412165400028,0.00653387383457,-0.0258669313325,-0.000170073539472,3.02281606233e-05,-8.52094499797e-07,1.91385656756e-06,0.999999999541,0.0,0.0,0.0,0.0,0.0,0.0
1609054412260230780,135,1609054412260230780,0.00544172851273,-0.0083273364332,-0.000727740078073,-1.78983333381e-06,-7.2453734065e-05,0.000148319443178,0.999999986374,0.0,0.0,0.0,0.0,0.0,0.0
1609054412370381355,136,1609054412370381355,0.00544172851273,-0.0083273364332,-0.000727740078073,-1.78983333381e-06,-7.2453734065e-05,0.000148319443178,0.999999986374,0.0,0.0,0.0,0.0,0.0,0.0
1609054412464720011,137,1609054412464720011,0.00345613920272,-0.000968882485511,-0.000521902735106,-3.19237058666e-06,-4.58686434862e-05,-2.85598186702e-05,0.999999998535,0.0,0.0,0.0,0.0,0.0,0.0
1609054412559495926,138,1609054412559495926,0.00345613920272,-0.000968882485511,-0.000521902735106,-3.19237058666e-06,-4.58686434862e-05,-2.85598186702e-05,0.999999998535,0.0,0.0,0.0,0.0,0.0,0.0
1609054412671982288,139,1609054412671982288,0.00657014838244,-0.00725007055217,-9.97072072352e-05,7.9797236934e-06,-3.39903279104e-05,0.000149637118579,0.999999988195,0.0,0.0,0.0,0.0,0.0,0.0
1609054412772087336,140,1609054412772087336,0.00657014838244,-0.00725007055217,-9.97072072352e-05,7.9797236934e-06,-3.39903279104e-05,0.000149637118579,0.999999988195,0.0,0.0,0.0,0.0,0.0,0.0
1609054412867722988,141,1609054412867722988,0.00903404476442,-0.00499100781435,-0.000102165735825,-4.21667363112e-07,-6.4800624847e-05,0.000196025318142,0.999999978687,0.0,0.0,0.0,0.0,0.0,0.0
1609054412959221125,142,1609054412959221125,0.00903404476442,-0.00499100781435,-0.000102165735825,-4.21667363112e-07,-6.4800624847e-05,0.000196025318142,0.999999978687,0.0,0.0,0.0,0.0,0.0,0.0
1609054413071641922,143,1609054413071641922,0.0113627634307,0.00389001546762,-0.00113734367729,-1.84061071616e-05,-3.89746786671e-05,2.26923702981e-05,0.999999998814,0.0,0.0,0.0,0.0,0.0,0.0
1609054413168034792,144,1609054413168034792,0.0113627634307,0.00389001546762,-0.00113734367729,-1.84061071616e-05,-3.89746786671e-05,2.26923702981e-05,0.999999998814,0.0,0.0,0.0,0.0,0.0,0.0
1609054413259433985,145,1609054413259433985,0.00707067745661,-0.0034725456419,-0.000614420791314,-1.00361623482e-06,-5.36495759217e-05,-6.95327695613e-05,0.999999996143,0.0,0.0,0.0,0.0,0.0,0.0
1609054413371543646,146,1609054413371543646,0.00707067745661,-0.0034725456419,-0.000614420791314,-1.00361623482e-06,-5.36495759217e-05,-6.95327695613e-05,0.999999996143,0.0,0.0,0.0,0.0,0.0,0.0
1609054413465514183,147,1609054413465514183,0.00190889626521,-0.0113300363015,-0.000191547108964,5.88873722589e-06,-6.68755418164e-05,0.000211677082626,0.999999975343,0.0,0.0,0.0,0.0,0.0,0.0
1609054413558970213,148,1609054413558970213,0.00190889626521,-0.0113300363015,-0.000191547108964,5.88873722589e-06,-6.68755418164e-05,0.000211677082626,0.999999975343,0.0,0.0,0.0,0.0,0.0,0.0
1609054413672212124,149,1609054413672212124,0.00923515299437,0.00286117005469,-0.000291258363508,-2.07566703697e-06,5.07797505819e-06,-2.06648567425e-05,0.999999999771,0.0,0.0,0.0,0.0,0.0,0.0
1609054413765676737,150,1609054413765676737,0.00923515299437,0.00286117005469,-0.000291258363508,-2.07566703697e-06,5.07797505819e-06,-2.06648567425e-05,0.999999999771,0.0,0.0,0.0,0.0,0.0,0.0
1609054413859589815,151,1609054413859589815,0.00983669484615,-0.00697498005515,0.000165122236855,-7.34207749535e-06,-1.23245358123e-05,8.85122288691e-05,0.99999999598,0.0,0.0,0.0,0.0,0.0,0.0
1609054413971652746,152,1609054413971652746,0.00983669484615,-0.00697498005515,0.000165122236855,-7.34207749535e-06,-1.23245358123e-05,8.85122288691e-05,0.99999999598,0.0,0.0,0.0,0.0,0.0,0.0
1609054414067266941,153,1609054414067266941,0.00417572039301,-0.00857451583705,-0.000547668178991,6.68227252677e-06,-2.50287588588e-05,0.000101981014074,0.999999994464,0.0,0.0,0.0,0.0,0.0,0.0
1609054414159121752,154,1609054414159121752,0.00417572039301,-0.00857451583705,-0.000547668178991,6.68227252677e-06,-2.50287588588e-05,0.000101981014074,0.999999994464,0.0,0.0,0.0,0.0,0.0,0.0
1609054414271600962,155,1609054414271600962,0.00570575314478,-0.00131529506053,-0.000524754392912,-3.33355403723e-06,-8.11040985647e-06,-0.000210771142706,0.999999977749,0.0,0.0,0.0,0.0,0.0,0.0
1609054414365254164,156,1609054414365254164,0.00570575314478,-0.00131529506053,-0.000524754392912,-3.33355403723e-06,-8.11040985647e-06,-0.000210771142706,0.999999977749,0.0,0.0,0.0,0.0,0.0,0.0
1609054414462148905,157,1609054414462148905,0.0067896626173,0.00029403448317,-0.00110813285472,-5.03399727076e-06,-8.95235925018e-06,7.25023910514e-05,0.999999997319,0.0,0.0,0.0,0.0,0.0,0.0
1609054414558851242,158,1609054414558851242,0.0067896626173,0.00029403448317,-0.00110813285472,-5.03399727076e-06,-8.95235925018e-06,7.25023910514e-05,0.999999997319,0.0,0.0,0.0,0.0,0.0,0.0
1609054414668603182,159,1609054414668603182,0.00856175441779,-0.000861807002972,-0.00150848823485,-8.57686139711e-06,-6.14449795461e-05,8.43094571504e-05,0.999999994521,0.0,0.0,0.0,0.0,0.0,0.0
1609054414762166023,160,1609054414762166023,0.00856175441779,-0.000861807002972,-0.00150848823485,-8.57686139711e-06,-6.14449795461e-05,8.43094571504e-05,0.999999994521,0.0,0.0,0.0,0.0,0.0,0.0
1609054414860432863,161,1609054414860432863,0.00315413573035,-0.0133272076982,-0.00139979864602,-1.99804378174e-07,-7.81349623085e-05,9.44112280291e-05,0.999999992491,0.0,0.0,0.0,0.0,0.0,0.0
1609054414969217300,162,1609054414969217300,0.00315413573035,-0.0133272076982,-0.00139979864602,-1.99804378174e-07,-7.81349623085e-05,9.44112280291e-05,0.999999992491,0.0,0.0,0.0,0.0,0.0,0.0
1609054415062453270,163,1609054415062453270,0.00213211181844,-0.0106942876298,0.00115060878792,2.50074128503e-05,-5.45174112247e-06,7.13836810687e-05,0.999999997125,0.0,0.0,0.0,0.0,0.0,0.0
1609054415159574032,164,1609054415159574032,0.00213211181844,-0.0106942876298,0.00115060878792,2.50074128503e-05,-5.45174112247e-06,7.13836810687e-05,0.999999997125,0.0,0.0,0.0,0.0,0.0,0.0
1609054415269281864,165,1609054415269281864,0.00737188214196,-0.00193469927455,0.000597818105085,7.08096880059e-06,7.09100362873e-06,0.000270626087852,0.999999963331,0.0,0.0,0.0,0.0,0.0,0.0
1609054415362461805,166,1609054415362461805,0.00737188214196,-0.00193469927455,0.000597818105085,7.08096880059e-06,7.09100362873e-06,0.000270626087852,0.999999963331,0.0,0.0,0.0,0.0,0.0,0.0
1609054415459398270,167,1609054415459398270,0.00784903634788,-0.00611709288862,0.0010656955783,6.34337804704e-06,-1.05118255228e-05,-9.88491920571e-05,0.999999995039,0.0,0.0,0.0,0.0,0.0,0.0
1609054415568372726,168,1609054415568372726,0.00784903634788,-0.00611709288862,0.0010656955783,6.34337804704e-06,-1.05118255228e-05,-9.88491920571e-05,0.999999995039,0.0,0.0,0.0,0.0,0.0,0.0
1609054415666883707,169,1609054415666883707,0.0106971164266,-0.00183412162487,0.000493371053607,-2.32711862183e-06,2.54380568516e-05,-0.000111839414193,0.99999999342,0.0,0.0,0.0,0.0,0.0,0.0
1609054415760653973,170,1609054415760653973,0.0106971164266,-0.00183412162487,0.000493371053607,-2.32711862183e-06,2.54380568516e-05,-0.000111839414193,0.99999999342,0.0,0.0,0.0,0.0,0.0,0.0
1609054415874499798,171,1609054415874499798,0.00411731986228,2.86816339063e-05,-0.000858578001367,-1.20205698062e-05,-6.17150638282e-05,9.34638032086e-05,0.999999993656,0.0,0.0,0.0,0.0,0.0,0.0
1609054415967223644,172,1609054415967223644,0.00411731986228,2.86816339063e-05,-0.000858578001367,-1.20205698062e-05,-6.17150638282e-05,9.34638032086e-05,0.999999993656,0.0,0.0,0.0,0.0,0.0,0.0
1609054416060900927,173,1609054416060900927,0.0066756072532,-0.00790818596878,-0.00101781196084,2.78044027224e-06,-2.2461041942e-05,0.000102036988294,0.999999994538,0.0,0.0,0.0,0.0,0.0,0.0
1609054416177806377,174,1609054416177806377,0.0066756072532,-0.00790818596878,-0.00101781196084,2.78044027224e-06,-2.2461041942e-05,0.000102036988294,0.999999994538,0.0,0.0,0.0,0.0,0.0,0.0
1609054416270380974,175,1609054416270380974,0.00452003689897,-0.0144524065791,-0.00125107743592,6.13597149758e-06,-6.31122949265e-05,0.000241210312856,0.999999968898,0.0,0.0,0.0,0.0,0.0,0.0
1609054416364276648,176,1609054416364276648,0.00452003689897,-0.0144524065791,-0.00125107743592,6.13597149758e-06,-6.31122949265e-05,0.000241210312856,0.999999968898,0.0,0.0,0.0,0.0,0.0,0.0
1609054416460371494,177,1609054416460371494,0.00542270835797,-0.0109510623145,-0.00084192839897,9.6307980684e-06,-3.69980459216e-05,2.42845697161e-05,0.999999998974,0.0,0.0,0.0,0.0,0.0,0.0
1609054416570194721,178,1609054416570194721,0.00542270835797,-0.0109510623145,-0.00084192839897,9.6307980684e-06,-3.69980459216e-05,2.42845697161e-05,0.999999998974,0.0,0.0,0.0,0.0,0.0,0.0
1609054416664018393,179,1609054416664018393,0.00487356990578,-0.00361319440497,-0.000851935264813,1.74677225694e-06,-4.92571120489e-05,1.70944290124e-05,0.999999998639,0.0,0.0,0.0,0.0,0.0,0.0
1609054416761210203,180,1609054416761210203,0.00487356990578,-0.00361319440497,-0.000851935264813,1.74677225694e-06,-4.92571120489e-05,1.70944290124e-05,0.999999998639,0.0,0.0,0.0,0.0,0.0,0.0
1609054416872062922,181,1609054416872062922,0.00837130426362,0.0104782043388,-0.000714890502233,-1.50174025099e-05,-2.75220466232e-05,0.000128663915643,0.999999991231,0.0,0.0,0.0,0.0,0.0,0.0
1609054416965483904,182,1609054416965483904,0.00837130426362,0.0104782043388,-0.000714890502233,-1.50174025099e-05,-2.75220466232e-05,0.000128663915643,0.999999991231,0.0,0.0,0.0,0.0,0.0,0.0
1609054417060499907,183,1609054417060499907,0.00383777570348,0.00950524913762,0.000346028020895,-1.62540065891e-05,-6.92507738221e-05,0.000139176371609,0.999999987785,0.0,0.0,0.0,0.0,0.0,0.0
1609054417171416044,184,1609054417171416044,0.00383777570348,0.00950524913762,0.000346028020895,-1.62540065891e-05,-6.92507738221e-05,0.000139176371609,0.999999987785,0.0,0.0,0.0,0.0,0.0,0.0
1609054417265791178,185,1609054417265791178,0.00720633535726,-0.0100598429725,0.00074990580653,5.42134985974e-06,-2.78192929217e-05,0.000100358749424,0.999999994562,0.0,0.0,0.0,0.0,0.0,0.0
1609054417361926317,186,1609054417361926317,0.00720633535726,-0.0100598429725,0.00074990580653,5.42134985974e-06,-2.78192929217e-05,0.000100358749424,0.999999994562,0.0,0.0,0.0,0.0,0.0,0.0
1609054417472058773,187,1609054417472058773,0.00556874442436,-0.00412238172943,0.000473590319947,-1.39290030309e-06,-7.3614136801e-05,8.58525809677e-05,0.999999993604,0.0,0.0,0.0,0.0,0.0,0.0
1609054417566003084,188,1609054417566003084,0.00556874442436,-0.00412238172943,0.000473590319947,-1.39290030309e-06,-7.3614136801e-05,8.58525809677e-05,0.999999993604,0.0,0.0,0.0,0.0,0.0,0.0
1609054417660468817,189,1609054417660468817,0.000739234837219,-0.0110510145657,0.00137367085511,1.07688231233e-05,-4.92918327508e-05,-1.7670007821e-05,0.999999998571,0.0,0.0,0.0,0.0,0.0,0.0
1609054417770445108,190,1609054417770445108,0.000739234837219,-0.0110510145657,0.00137367085511,1.07688231233e-05,-4.92918327508e-05,-1.7670007821e-05,0.999999998571,0.0,0.0,0.0,0.0,0.0,0.0
1609054417864468336,191,1609054417864468336,0.00249596878658,-0.00612522681906,-0.000196945687988,-6.10496333753e-06,-7.73103607133e-05,6.21473936257e-06,0.999999996974,0.0,0.0,0.0,0.0,0.0,0.0
1609054417959754229,192,1609054417959754229,0.00249596878658,-0.00612522681906,-0.000196945687988,-6.10496333753e-06,-7.73103607133e-05,6.21473936257e-06,0.999999996974,0.0,0.0,0.0,0.0,0.0,0.0
1609054418070196390,193,1609054418070196390,0.00806566121775,-0.00715254875807,0.000686862704174,2.39030466639e-05,2.62343861803e-05,-0.000112936200522,0.999999992993,0.0,0.0,0.0,0.0,0.0,0.0
1609054418164486408,194,1609054418164486408,0.00806566121775,-0.00715254875807,0.000686862704174,2.39030466639e-05,2.62343861803e-05,-0.000112936200522,0.999999992993,0.0,0.0,0.0,0.0,0.0,0.0
1609054418259320259,195,1609054418259320259,0.00428341530334,-0.0101573678444,0.000506751651805,7.99141633495e-06,-1.21053952535e-05,7.47377286786e-05,0.999999997102,0.0,0.0,0.0,0.0,0.0,0.0
1609054418370117426,196,1609054418370117426,0.00428341530334,-0.0101573678444,0.000506751651805,7.99141633495e-06,-1.21053952535e-05,7.47377286786e-05,0.999999997102,0.0,0.0,0.0,0.0,0.0,0.0
1609054418464111090,197,1609054418464111090,0.00164373975824,-0.0138444932359,-0.000796583023115,6.31880736906e-06,-3.76969245699e-05,0.000126243421036,0.999999991301,0.0,0.0,0.0,0.0,0.0,0.0
1609054418559254169,198,1609054418559254169,0.00164373975824,-0.0138444932359,-0.000796583023115,6.31880736906e-06,-3.76969245699e-05,0.000126243421036,0.999999991301,0.0,0.0,0.0,0.0,0.0,0.0
1609054418669648170,199,1609054418669648170,0.00717395198353,-0.000573105137808,-0.000711678986922,-7.09182746414e-07,1.25167106144e-06,3.34895356494e-05,0.999999999438,0.0,0.0,0.0,0.0,0.0,0.0
1609054418763825417,200,1609054418763825417,0.00717395198353,-0.000573105137808,-0.000711678986922,-7.09182746414e-07,1.25167106144e-06,3.34895356494e-05,0.999999999438,0.0,0.0,0.0,0.0,0.0,0.0
1609054418858804464,201,1609054418858804464,0.00518004071367,0.00121162706959,0.000585994910794,-4.17266474042e-06,-2.20616643853e-05,1.5012368964e-05,0.999999999635,0.0,0.0,0.0,0.0,0.0,0.0
1609054418969802141,202,1609054418969802141,0.00518004071367,0.00121162706959,0.000585994910794,-4.17266474042e-06,-2.20616643853e-05,1.5012368964e-05,0.999999999635,0.0,0.0,0.0,0.0,0.0,0.0
1609054419063722134,203,1609054419063722134,0.00746918273108,-0.00445056534075,0.000447883854437,2.62086903196e-06,1.04759326973e-06,-8.9084986374e-05,0.999999996028,0.0,0.0,0.0,0.0,0.0,0.0
1609054419159015417,204,1609054419159015417,0.00746918273108,-0.00445056534075,0.000447883854437,2.62086903196e-06,1.04759326973e-06,-8.9084986374e-05,0.999999996028,0.0,0.0,0.0,0.0,0.0,0.0
1609054419270012617,205,1609054419270012617,0.0041291379845,-0.00963180459641,0.000290477288546,2.77760099998e-06,-2.94623997205e-05,1.75823922551e-05,0.999999999408,0.0,0.0,0.0,0.0,0.0,0.0
1609054419363985538,206,1609054419363985538,0.0041291379845,-0.00963180459641,0.000290477288546,2.77760099998e-06,-2.94623997205e-05,1.75823922551e-05,0.999999999408,0.0,0.0,0.0,0.0,0.0,0.0
1609054419459335089,207,1609054419459335089,0.00457442121308,-0.00570709794062,-0.000634098548577,3.00462763726e-06,-7.5902020105e-05,-5.71866885352e-05,0.99999999548,0.0,0.0,0.0,0.0,0.0,0.0
1609054419570042372,208,1609054419570042372,0.00457442121308,-0.00570709794062,-0.000634098548577,3.00462763726e-06,-7.5902020105e-05,-5.71866885352e-05,0.99999999548,0.0,0.0,0.0,0.0,0.0,0.0
1609054419663929224,209,1609054419663929224,0.00565224679946,-0.000470387370867,-7.56393458555e-05,-1.15644719439e-05,-1.06830304891e-05,-3.71768485077e-07,0.999999999876,0.0,0.0,0.0,0.0,0.0,0.0
1609054419759082556,210,1609054419759082556,0.00565224679946,-0.000470387370867,-7.56393458555e-05,-1.15644719439e-05,-1.06830304891e-05,-3.71768485077e-07,0.999999999876,0.0,0.0,0.0,0.0,0.0,0.0
1609054419869924068,211,1609054419869924068,0.00733457159353,-0.003891619877,0.000243442765705,1.60437464662e-06,-3.86126897595e-05,6.25976701326e-05,0.999999997294,0.0,0.0,0.0,0.0,0.0,0.0
1609054419963737488,212,1609054419963737488,0.00733457159353,-0.003891619877,0.000243442765705,1.60437464662e-06,-3.86126897595e-05,6.25976701326e-05,0.999999997294,0.0,0.0,0.0,0.0,0.0,0.0
1609054420058952332,213,1609054420058952332,-0.000158317299032,-0.010757017652,0.000355926090633,9.33014763112e-06,-1.35175488086e-05,9.56526791e-05,0.99999999529,0.0,0.0,0.0,0.0,0.0,0.0
1609054420170028448,214,1609054420170028448,-0.000158317299032,-0.010757017652,0.000355926090633,9.33014763112e-06,-1.35175488086e-05,9.56526791e-05,0.99999999529,0.0,0.0,0.0,0.0,0.0,0.0
1609054420263888836,215,1609054420263888836,0.00522394222703,0.00449756009219,-0.000986809413153,-9.06779516503e-06,-1.9754830808e-05,-0.000108275748782,0.999999993902,0.0,0.0,0.0,0.0,0.0,0.0
1609054420359045267,216,1609054420359045267,0.00522394222703,0.00449756009219,-0.000986809413153,-9.06779516503e-06,-1.9754830808e-05,-0.000108275748782,0.999999993902,0.0,0.0,0.0,0.0,0.0,0.0
1609054420469975233,217,1609054420469975233,0.0074066698192,8.080788038e-05,0.00106083434981,-8.3195048844e-06,-3.76918035364e-05,0.000128968477389,0.999999990939,0.0,0.0,0.0,0.0,0.0,0.0
1609054420563678026,218,1609054420563678026,0.0074066698192,8.080788038e-05,0.00106083434981,-8.3195048844e-06,-3.76918035364e-05,0.000128968477389,0.999999990939,0.0,0.0,0.0,0.0,0.0,0.0
1609054420658852339,219,1609054420658852339,0.0110363120192,-0.0105688572672,-0.000937279463419,5.92764810758e-06,-1.57293691001e-05,0.000120698765433,0.999999992575,0.0,0.0,0.0,0.0,0.0,0.0
1609054420770562887,220,1609054420770562887,0.0110363120192,-0.0105688572672,-0.000937279463419,5.92764810758e-06,-1.57293691001e-05,0.000120698765433,0.999999992575,0.0,0.0,0.0,0.0,0.0,0.0
1609054420864519835,221,1609054420864519835,0.00472167758921,-0.000384073960241,-0.000214990286731,-1.49155130732e-05,-2.99591995845e-05,5.44860372748e-06,0.999999999425,0.0,0.0,0.0,0.0,0.0,0.0
1609054420959661722,222,1609054420959661722,0.00472167758921,-0.000384073960241,-0.000214990286731,-1.49155130732e-05,-2.99591995845e-05,5.44860372748e-06,0.999999999425,0.0,0.0,0.0,0.0,0.0,0.0
1609054421070539713,223,1609054421070539713,0.00372130419225,-0.00316986727799,-0.000943789490728,-5.49327695851e-06,-7.05214529659e-05,7.13545970406e-06,0.999999997473,0.0,0.0,0.0,0.0,0.0,0.0
1609054421165136337,224,1609054421165136337,0.00372130419225,-0.00316986727799,-0.000943789490728,-5.49327695851e-06,-7.05214529659e-05,7.13545970406e-06,0.999999997473,0.0,0.0,0.0,0.0,0.0,0.0
1609054421259689093,225,1609054421259689093,0.00689125120902,-0.00779412912208,-0.000297672096285,1.56242025246e-05,3.99969448438e-05,5.93832382141e-05,0.999999997315,0.0,0.0,0.0,0.0,0.0,0.0
1609054421370332003,226,1609054421370332003,0.00689125120902,-0.00779412912208,-0.000297672096285,1.56242025246e-05,3.99969448438e-05,5.93832382141e-05,0.999999997315,0.0,0.0,0.0,0.0,0.0,0.0
1609054421464591265,227,1609054421464591265,0.00566945941692,0.000713083905343,0.000205780482056,-8.56724926952e-06,-4.07824134e-06,0.000211905758296,0.999999977503,0.0,0.0,0.0,0.0,0.0,0.0
1609054421559391737,228,1609054421559391737,0.00566945941692,0.000713083905343,0.000205780482056,-8.56724926952e-06,-4.07824134e-06,0.000211905758296,0.999999977503,0.0,0.0,0.0,0.0,0.0,0.0
1609054421670470476,229,1609054421670470476,0.00452219569085,-0.00815924723943,-0.00112347941972,5.7775863003e-06,-6.50179560652e-05,0.000154748405477,0.999999985896,0.0,0.0,0.0,0.0,0.0,0.0
1609054421764627934,230,1609054421764627934,0.00452219569085,-0.00815924723943,-0.00112347941972,5.7775863003e-06,-6.50179560652e-05,0.000154748405477,0.999999985896,0.0,0.0,0.0,0.0,0.0,0.0
1609054421859828711,231,1609054421859828711,0.00193165483576,-0.00281330381313,0.000619702879608,-6.78034436477e-06,-3.77184586091e-05,-3.58691662468e-05,0.999999998622,0.0,0.0,0.0,0.0,0.0,0.0
1609054421970602274,232,1609054421970602274,0.00193165483576,-0.00281330381313,0.000619702879608,-6.78034436477e-06,-3.77184586091e-05,-3.58691662468e-05,0.999999998622,0.0,0.0,0.0,0.0,0.0,0.0
1609054422064452410,233,1609054422064452410,0.00674120447309,-0.00968084247942,0.00121655211478,1.10558920544e-05,-2.40568583029e-05,-1.41154548152e-05,0.99999999955,0.0,0.0,0.0,0.0,0.0,0.0
1609054422159576654,234,1609054422159576654,0.00674120447309,-0.00968084247942,0.00121655211478,1.10558920544e-05,-2.40568583029e-05,-1.41154548152e-05,0.99999999955,0.0,0.0,0.0,0.0,0.0,0.0
1609054422270252705,235,1609054422270252705,0.00420690185744,-0.00695727952346,0.000853429428,8.68427400481e-06,-2.84653004492e-05,-8.92790752267e-05,0.999999995572,0.0,0.0,0.0,0.0,0.0,0.0
1609054422364330292,236,1609054422364330292,0.00420690185744,-0.00695727952346,0.000853429428,8.68427400481e-06,-2.84653004492e-05,-8.92790752267e-05,0.999999995572,0.0,0.0,0.0,0.0,0.0,0.0
1609054422459209919,237,1609054422459209919,0.00657785068272,-0.00550393826051,-0.00115390242237,6.94287611372e-06,2.49378658093e-08,-0.0001377409481,0.99999999049,0.0,0.0,0.0,0.0,0.0,0.0
1609054422570088387,238,1609054422570088387,0.00657785068272,-0.00550393826051,-0.00115390242237,6.94287611372e-06,2.49378658093e-08,-0.0001377409481,0.99999999049,0.0,0.0,0.0,0.0,0.0,0.0
1609054422664035797,239,1609054422664035797,0.00721043144028,-0.00835270997041,0.00118302977333,6.6892054127e-06,-4.62093551346e-06,6.15925698063e-05,0.99999999807,0.0,0.0,0.0,0.0,0.0,0.0
1609054422759145975,240,1609054422759145975,0.00721043144028,-0.00835270997041,0.00118302977333,6.6892054127e-06,-4.62093551346e-06,6.15925698063e-05,0.99999999807,0.0,0.0,0.0,0.0,0.0,0.0
1609054422870306253,241,1609054422870306253,0.00887511329561,9.02946065038e-05,-0.000847954619219,1.73652799579e-06,2.2774279133e-05,9.37069626245e-05,0.999999995349,0.0,0.0,0.0,0.0,0.0,0.0
1609054422964282036,242,1609054422964282036,0.00887511329561,9.02946065038e-05,-0.000847954619219,1.73652799579e-06,2.2774279133e-05,9.37069626245e-05,0.999999995349,0.0,0.0,0.0,0.0,0.0,0.0
1609054423059458971,243,1609054423059458971,0.00600887151557,-0.00136010635679,0.000252060527633,3.64963773479e-06,2.40371696228e-05,-0.000152321786235,0.999999988103,0.0,0.0,0.0,0.0,0.0,0.0
1609054423170310259,244,1609054423170310259,0.00600887151557,-0.00136010635679,0.000252060527633,3.64963773479e-06,2.40371696228e-05,-0.000152321786235,0.999999988103,0.0,0.0,0.0,0.0,0.0,0.0
1609054423264266491,245,1609054423264266491,0.00561272133635,0.0117653992779,0.000150218728114,-2.63534675335e-05,-3.50600168882e-05,2.00687212015e-05,0.999999998837,0.0,0.0,0.0,0.0,0.0,0.0
1609054423359496355,246,1609054423359496355,0.00561272133635,0.0117653992779,0.000150218728114,-2.63534675335e-05,-3.50600168882e-05,2.00687212015e-05,0.999999998837,0.0,0.0,0.0,0.0,0.0,0.0
1609054423470298767,247,1609054423470298767,0.00745293768318,-0.000816081964256,-0.000821328842213,-1.19991359888e-06,-6.09255043762e-05,-0.000216486174574,0.99999997471,0.0,0.0,0.0,0.0,0.0,0.0
1609054423564407110,248,1609054423564407110,0.00745293768318,-0.000816081964256,-0.000821328842213,-1.19991359888e-06,-6.09255043762e-05,-0.000216486174574,0.99999997471,0.0,0.0,0.0,0.0,0.0,0.0
1609054423659315348,249,1609054423659315348,0.00974549306036,-0.00820338780732,0.000277083932228,1.04632957014e-06,-4.47582733885e-05,-1.40383928172e-05,0.999999998899,0.0,0.0,0.0,0.0,0.0,0.0
1609054423770085812,250,1609054423770085812,0.00974549306036,-0.00820338780732,0.000277083932228,1.04632957014e-06,-4.47582733885e-05,-1.40383928172e-05,0.999999998899,0.0,0.0,0.0,0.0,0.0,0.0
1609054423863925219,251,1609054423863925219,0.00534401646937,-0.00151246607817,8.52309679139e-05,-8.2117946359e-06,-4.2800898096e-05,-4.10870924634e-05,0.999999998206,0.0,0.0,0.0,0.0,0.0,0.0
1609054423959342003,252,1609054423959342003,0.00534401646937,-0.00151246607817,8.52309679139e-05,-8.2117946359e-06,-4.2800898096e-05,-4.10870924634e-05,0.999999998206,0.0,0.0,0.0,0.0,0.0,0.0
1609054424069988251,253,1609054424069988251,0.00757611516247,-0.00244138882072,-0.00119825799324,-6.43920187055e-06,-4.36376176671e-05,7.2182090491e-05,0.999999996422,0.0,0.0,0.0,0.0,0.0,0.0
1609054424163917303,254,1609054424163917303,0.00757611516247,-0.00244138882072,-0.00119825799324,-6.43920187055e-06,-4.36376176671e-05,7.2182090491e-05,0.999999996422,0.0,0.0,0.0,0.0,0.0,0.0
1609054424259054899,255,1609054424259054899,0.00546854989082,-0.0128457868949,-0.00109751131772,6.53248014083e-06,-4.33998229812e-06,-4.14699955765e-05,0.999999999109,0.0,0.0,0.0,0.0,0.0,0.0
1609054424370056152,256,1609054424370056152,0.00546854989082,-0.0128457868949,-0.00109751131772,6.53248014083e-06,-4.33998229812e-06,-4.14699955765e-05,0.999999999109,0.0,0.0,0.0,0.0,0.0,0.0
1609054424464001179,257,1609054424464001179,0.00539685222638,0.000885623654985,-0.000323367103315,-1.58051562464e-05,-8.73523072797e-05,0.000129583057059,0.999999987664,0.0,0.0,0.0,0.0,0.0,0.0
1609054424559176922,258,1609054424559176922,0.00539685222638,0.000885623654985,-0.000323367103315,-1.58051562464e-05,-8.73523072797e-05,0.000129583057059,0.999999987664,0.0,0.0,0.0,0.0,0.0,0.0
1609054424670102119,259,1609054424670102119,0.00849029261474,-0.0041071148456,-0.000682863468218,3.01004452139e-07,-2.46088958969e-05,4.94804942243e-05,0.999999998473,0.0,0.0,0.0,0.0,0.0,0.0
1609054424764034748,260,1609054424764034748,0.00849029261474,-0.0041071148456,-0.000682863468218,3.01004452139e-07,-2.46088958969e-05,4.94804942243e-05,0.999999998473,0.0,0.0,0.0,0.0,0.0,0.0
1609054424859049320,261,1609054424859049320,0.0052312455658,0.00182393678179,0.00122136077594,-1.38257779429e-05,-1.45984622784e-05,-3.31537087094e-05,0.999999999248,0.0,0.0,0.0,0.0,0.0,0.0
1609054424970034122,262,1609054424970034122,0.0052312455658,0.00182393678179,0.00122136077594,-1.38257779429e-05,-1.45984622784e-05,-3.31537087094e-05,0.999999999248,0.0,0.0,0.0,0.0,0.0,0.0
1609054425063878298,263,1609054425063878298,0.00648202432786,-0.00670767001979,-0.000649056546004,1.37115063081e-05,2.80777627872e-05,8.24067199228e-05,0.999999996116,0.0,0.0,0.0,0.0,0.0,0.0
1609054425159103155,264,1609054425159103155,0.00648202432786,-0.00670767001979,-0.000649056546004,1.37115063081e-05,2.80777627872e-05,8.24067199228e-05,0.999999996116,0.0,0.0,0.0,0.0,0.0,0.0
1609054425270055532,265,1609054425270055532,0.00268620531154,0.00509662560589,-0.00154259775909,-2.51798877649e-05,-7.8559984546e-05,-7.18205660913e-05,0.999999994018,0.0,0.0,0.0,0.0,0.0,0.0
1609054425363741636,266,1609054425363741636,0.00268620531154,0.00509662560589,-0.00154259775909,-2.51798877649e-05,-7.8559984546e-05,-7.18205660913e-05,0.999999994018,0.0,0.0,0.0,0.0,0.0,0.0
1609054425459070206,267,1609054425459070206,0.00655976895777,-0.00252265159952,0.000171928390027,1.39279065817e-05,1.38789840411e-05,1.50811989575e-05,0.999999999693,0.0,0.0,0.0,0.0,0.0,0.0
1609054425570206404,268,1609054425570206404,0.00655976895777,-0.00252265159952,0.000171928390027,1.39279065817e-05,1.38789840411e-05,1.50811989575e-05,0.999999999693,0.0,0.0,0.0,0.0,0.0,0.0
1609054425663785696,269,1609054425663785696,0.00519626986854,-0.0118636684458,0.000533068093403,2.02222567654e-05,2.7978867271e-06,1.48250443193e-05,0.999999999682,0.0,0.0,0.0,0.0,0.0,0.0
1609054425759110451,270,1609054425759110451,0.00519626986854,-0.0118636684458,0.000533068093403,2.02222567654e-05,2.7978867271e-06,1.48250443193e-05,0.999999999682,0.0,0.0,0.0,0.0,0.0,0.0
1609054425870002985,271,1609054425870002985,0.00759100960098,-0.000809267329727,0.000583025064935,8.79720124578e-06,3.45399788487e-05,-0.000107271093445,0.999999993611,0.0,0.0,0.0,0.0,0.0,0.0
1609054425963974237,272,1609054425963974237,0.00759100960098,-0.000809267329727,0.000583025064935,8.79720124578e-06,3.45399788487e-05,-0.000107271093445,0.999999993611,0.0,0.0,0.0,0.0,0.0,0.0
1609054426058978558,273,1609054426058978558,0.00918810129274,-0.00641715576145,-0.000687913924265,7.96836520058e-06,1.89568224507e-05,-6.12352306895e-05,0.999999997914,0.0,0.0,0.0,0.0,0.0,0.0
1609054426169999599,274,1609054426169999599,0.00918810129274,-0.00641715576145,-0.000687913924265,7.96836520058e-06,1.89568224507e-05,-6.12352306895e-05,0.999999997914,0.0,0.0,0.0,0.0,0.0,0.0
1609054426263942003,275,1609054426263942003,0.00626750735115,-0.0106626124737,-0.000506466064205,1.0564843887e-05,-3.07369662287e-05,-3.98758819617e-05,0.999999998677,0.0,0.0,0.0,0.0,0.0,0.0
1609054426359135628,276,1609054426359135628,0.00626750735115,-0.0106626124737,-0.000506466064205,1.0564843887e-05,-3.07369662287e-05,-3.98758819617e-05,0.999999998677,0.0,0.0,0.0,0.0,0.0,0.0
1609054426469990492,277,1609054426469990492,-0.000207647020321,-0.000467792613314,0.000841873445624,7.26543040527e-06,1.86539637681e-05,1.97248099668e-06,0.999999999798,0.0,0.0,0.0,0.0,0.0,0.0
1609054426563951492,278,1609054426563951492,-0.000207647020321,-0.000467792613314,0.000841873445624,7.26543040527e-06,1.86539637681e-05,1.97248099668e-06,0.999999999798,0.0,0.0,0.0,0.0,0.0,0.0
1609054426658741951,279,1609054426658741951,0.00444267249326,-0.00369765029386,-0.00045542843194,1.31561482994e-06,-1.64696320437e-05,4.26254695859e-05,0.999999998955,0.0,0.0,0.0,0.0,0.0,0.0
1609054426770044088,280,1609054426770044088,0.00444267249326,-0.00369765029386,-0.00045542843194,1.31561482994e-06,-1.64696320437e-05,4.26254695859e-05,0.999999998955,0.0,0.0,0.0,0.0,0.0,0.0
1609054426863754034,281,1609054426863754034,0.0052235947844,-0.0111539596507,0.000712679530915,1.04919824693e-05,-6.49681548712e-06,-0.00016261976195,0.999999986701,0.0,0.0,0.0,0.0,0.0,0.0
1609054426958931923,282,1609054426958931923,0.0052235947844,-0.0111539596507,0.000712679530915,1.04919824693e-05,-6.49681548712e-06,-0.00016261976195,0.999999986701,0.0,0.0,0.0,0.0,0.0,0.0
1609054427069769382,283,1609054427069769382,0.00391322893923,-0.00048313937203,0.000602481727952,4.14981403562e-06,6.34464937955e-06,1.15061471126e-05,0.999999999905,0.0,0.0,0.0,0.0,0.0,0.0
1609054427163532019,284,1609054427163532019,0.00391322893923,-0.00048313937203,0.000602481727952,4.14981403562e-06,6.34464937955e-06,1.15061471126e-05,0.999999999905,0.0,0.0,0.0,0.0,0.0,0.0
1609054427258726835,285,1609054427258726835,0.00847099658677,0.000445784352665,-0.000474527573108,2.56968032149e-06,4.22567582931e-05,-9.40267468944e-05,0.999999994683,0.0,0.0,0.0,0.0,0.0,0.0
1609054427369786263,286,1609054427369786263,0.00847099658677,0.000445784352665,-0.000474527573108,2.56968032149e-06,4.22567582931e-05,-9.40267468944e-05,0.999999994683,0.0,0.0,0.0,0.0,0.0,0.0
1609054427463493824,287,1609054427463493824,0.00759413457694,-0.00347635316858,0.000691070615337,5.96809108437e-06,2.37603631699e-07,-6.57743173171e-05,0.999999997819,0.0,0.0,0.0,0.0,0.0,0.0
1609054427558803320,288,1609054427558803320,0.00759413457694,-0.00347635316858,0.000691070615337,5.96809108437e-06,2.37603631699e-07,-6.57743173171e-05,0.999999997819,0.0,0.0,0.0,0.0,0.0,0.0
1609054427669877291,289,1609054427669877291,0.00690201315773,0.000921143935206,-1.43796529653e-05,-4.32106163537e-06,-2.4362520259e-05,-1.96248135403e-05,0.999999999501,0.0,0.0,0.0,0.0,0.0,0.0
1609054427763384342,290,1609054427763384342,0.00690201315773,0.000921143935206,-1.43796529653e-05,-4.32106163537e-06,-2.4362520259e-05,-1.96248135403e-05,0.999999999501,0.0,0.0,0.0,0.0,0.0,0.0
1609054427859019041,291,1609054427859019041,0.00598464226338,0.0107584006214,-0.00105438469859,1.65546357975e-05,7.55572989711e-05,-0.000108628815111,0.999999991108,0.0,0.0,0.0,0.0,0.0,0.0
1609054427969795227,292,1609054427969795227,0.00598464226338,0.0107584006214,-0.00105438469859,1.65546357975e-05,7.55572989711e-05,-0.000108628815111,0.999999991108,0.0,0.0,0.0,0.0,0.0,0.0
1609054428064557314,293,1609054428064557314,0.00424257891934,-0.00707020605264,-0.000207561611348,1.62304999924e-05,3.72929935667e-05,0.000105916009597,0.999999993564,0.0,0.0,0.0,0.0,0.0,0.0
1609054428159039497,294,1609054428159039497,0.00424257891934,-0.00707020605264,-0.000207561611348,1.62304999924e-05,3.72929935667e-05,0.000105916009597,0.999999993564,0.0,0.0,0.0,0.0,0.0,0.0
1609054428269650459,295,1609054428269650459,0.00397552206779,0.00347595095868,-0.00029040638571,-6.61511290436e-06,2.90538603614e-06,-0.00011611537718,0.999999993233,0.0,0.0,0.0,0.0,0.0,0.0
1609054428363430500,296,1609054428363430500,0.00397552206779,0.00347595095868,-0.00029040638571,-6.61511290436e-06,2.90538603614e-06,-0.00011611537718,0.999999993233,0.0,0.0,0.0,0.0,0.0,0.0
1609054428458909988,297,1609054428458909988,0.0111968037648,0.0119638249987,0.000469149385904,-1.99714999133e-05,-7.30824449804e-06,-0.000160220860251,0.999999986939,0.0,0.0,0.0,0.0,0.0,0.0
1609054428569565773,298,1609054428569565773,0.0111968037648,0.0119638249987,0.000469149385904,-1.99714999133e-05,-7.30824449804e-06,-0.000160220860251,0.999999986939,0.0,0.0,0.0,0.0,0.0,0.0
1609054428663282871,299,1609054428663282871,0.00593427458248,0.00781432414704,-0.000538930233696,-6.27833242871e-06,4.107041368e-05,-7.25674505399e-08,0.999999999137,0.0,0.0,0.0,0.0,0.0,0.0
1609054428758571625,300,1609054428758571625,0.00593427458248,0.00781432414704,-0.000538930233696,-6.27833242871e-06,4.107041368e-05,-7.25674505399e-08,0.999999999137,0.0,0.0,0.0,0.0,0.0,0.0
1609054428869471788,301,1609054428869471788,0.00776887360495,0.00240459284753,0.000644207812057,-7.07141878199e-06,-9.77556795597e-06,-0.000129085011688,0.999999991596,0.0,0.0,0.0,0.0,0.0,0.0
1609054428963313580,302,1609054428963313580,0.00776887360495,0.00240459284753,0.000644207812057,-7.07141878199e-06,-9.77556795597e-06,-0.000129085011688,0.999999991596,0.0,0.0,0.0,0.0,0.0,0.0
1609054429058798790,303,1609054429058798790,0.00661384693253,0.00369285119879,-0.00138484604618,-1.11163580422e-05,-1.28723743284e-05,0.000106281330044,0.999999994208,0.0,0.0,0.0,0.0,0.0,0.0
1609054429169764280,304,1609054429169764280,0.00661384693253,0.00369285119879,-0.00138484604618,-1.11163580422e-05,-1.28723743284e-05,0.000106281330044,0.999999994208,0.0,0.0,0.0,0.0,0.0,0.0
1609054429263825178,305,1609054429263825178,0.00519898978942,-0.000177914952168,-0.000194091057933,-8.8199628489e-06,9.66307520822e-07,-0.000130873454576,0.999999991397,0.0,0.0,0.0,0.0,0.0,0.0
1609054429358830214,306,1609054429358830214,0.00519898978942,-0.000177914952168,-0.000194091057933,-8.8199628489e-06,9.66307520822e-07,-0.000130873454576,0.999999991397,0.0,0.0,0.0,0.0,0.0,0.0
1609054429469820499,307,1609054429469820499,0.00435928905351,-0.0142929281693,0.000694480492744,1.98083317384e-05,-1.04762843798e-05,5.3158753107e-05,0.999999998336,0.0,0.0,0.0,0.0,0.0,0.0
1609054429563561440,308,1609054429563561440,0.00435928905351,-0.0142929281693,0.000694480492744,1.98083317384e-05,-1.04762843798e-05,5.3158753107e-05,0.999999998336,0.0,0.0,0.0,0.0,0.0,0.0
1609054429658920050,309,1609054429658920050,0.00555067115553,-0.00236221348413,-0.00143531946959,-5.07346962588e-06,-4.32398595574e-06,-0.000156078402204,0.999999987798,0.0,0.0,0.0,0.0,0.0,0.0
1609054429769555569,310,1609054429769555569,0.00555067115553,-0.00236221348413,-0.00143531946959,-5.07346962588e-06,-4.32398595574e-06,-0.000156078402204,0.999999987798,0.0,0.0,0.0,0.0,0.0,0.0
1609054429863430977,311,1609054429863430977,0.00461213733892,-0.00137811299296,-0.000375338576663,3.05543666876e-06,1.5657239191e-05,-0.000104473372206,0.999999994415,0.0,0.0,0.0,0.0,0.0,0.0
1609054429959448576,312,1609054429959448576,0.00461213733892,-0.00137811299296,-0.000375338576663,3.05543666876e-06,1.5657239191e-05,-0.000104473372206,0.999999994415,0.0,0.0,0.0,0.0,0.0,0.0
1609054430070038319,313,1609054430070038319,0.00292093229623,-0.00873521542215,0.000944089039902,-4.2117634732e-07,3.73049907155e-06,-0.000116534172032,0.999999993203,0.0,0.0,0.0,0.0,0.0,0.0
1609054430163857222,314,1609054430163857222,0.00292093229623,-0.00873521542215,0.000944089039902,-4.2117634732e-07,3.73049907155e-06,-0.000116534172032,0.999999993203,0.0,0.0,0.0,0.0,0.0,0.0
1609054430258804560,315,1609054430258804560,0.00345881577694,0.0149305621779,0.000988304119809,-2.48767368712e-05,-3.14738842474e-05,9.896790692e-06,0.999999999146,0.0,0.0,0.0,0.0,0.0,0.0
1609054430369770527,316,1609054430369770527,0.00345881577694,0.0149305621779,0.000988304119809,-2.48767368712e-05,-3.14738842474e-05,9.896790692e-06,0.999999999146,0.0,0.0,0.0,0.0,0.0,0.0
1609054430463466406,317,1609054430463466406,0.00483443374581,0.00133705739232,-0.00177053047392,3.97363533229e-06,1.86994749857e-05,0.000127663501485,0.999999991668,0.0,0.0,0.0,0.0,0.0,0.0
1609054430558634520,318,1609054430558634520,0.00483443374581,0.00133705739232,-0.00177053047392,3.97363533229e-06,1.86994749857e-05,0.000127663501485,0.999999991668,0.0,0.0,0.0,0.0,0.0,0.0
1609054430669348001,319,1609054430669348001,0.00379881614814,0.000786777449473,8.19976597219e-05,-2.08525185779e-05,-4.46846739092e-05,0.000104338647038,0.999999993341,0.0,0.0,0.0,0.0,0.0,0.0
1609054430763450146,320,1609054430763450146,0.00379881614814,0.000786777449473,8.19976597219e-05,-2.08525185779e-05,-4.46846739092e-05,0.000104338647038,0.999999993341,0.0,0.0,0.0,0.0,0.0,0.0
1609054430858603716,321,1609054430858603716,0.00426848425417,0.00818994840572,-0.00127351093271,-2.00148164177e-05,-8.76556483966e-05,0.000101492524144,0.999999990808,0.0,0.0,0.0,0.0,0.0,0.0
1609054430969798326,322,1609054430969798326,0.00426848425417,0.00818994840572,-0.00127351093271,-2.00148164177e-05,-8.76556483966e-05,0.000101492524144,0.999999990808,0.0,0.0,0.0,0.0,0.0,0.0
1609054431063582659,323,1609054431063582659,0.00149169792626,0.00948969102939,-0.000108230825493,-1.6997507509e-05,-4.66453158785e-05,6.97892602565e-05,0.999999996332,0.0,0.0,0.0,0.0,0.0,0.0
1609054431158975840,324,1609054431158975840,0.00149169792626,0.00948969102939,-0.000108230825493,-1.6997507509e-05,-4.66453158785e-05,6.97892602565e-05,0.999999996332,0.0,0.0,0.0,0.0,0.0,0.0
1609054431270025015,325,1609054431270025015,0.00517282327295,0.00582448024026,0.000439133173445,-1.90838976376e-05,3.2767847374e-06,-4.26998484265e-05,0.999999998901,0.0,0.0,0.0,0.0,0.0,0.0
1609054431363705635,326,1609054431363705635,0.00517282327295,0.00582448024026,0.000439133173445,-1.90838976376e-05,3.2767847374e-06,-4.26998484265e-05,0.999999998901,0.0,0.0,0.0,0.0,0.0,0.0
1609054431459053516,327,1609054431459053516,0.00197715548174,0.000103229537909,0.00016753589921,-6.14890499338e-06,-6.55169935322e-05,3.50963457594e-05,0.999999997219,0.0,0.0,0.0,0.0,0.0,0.0
1609054431570143461,328,1609054431570143461,0.00197715548174,0.000103229537909,0.00016753589921,-6.14890499338e-06,-6.55169935322e-05,3.50963457594e-05,0.999999997219,0.0,0.0,0.0,0.0,0.0,0.0
1609054431663699389,329,1609054431663699389,0.00491145692415,0.00660668519474,-0.0002624719776,2.27971274586e-06,2.19347005609e-05,-2.576941344e-06,0.999999999754,0.0,0.0,0.0,0.0,0.0,0.0
1609054431758923292,330,1609054431758923292,0.00491145692415,0.00660668519474,-0.0002624719776,2.27971274586e-06,2.19347005609e-05,-2.576941344e-06,0.999999999754,0.0,0.0,0.0,0.0,0.0,0.0
1609054431869878054,331,1609054431869878054,0.00600291722496,-0.00606470533664,0.000977852226728,3.58499500347e-06,1.5589620153e-05,2.13694608929e-05,0.999999999644,0.0,0.0,0.0,0.0,0.0,0.0
1609054431963661671,332,1609054431963661671,0.00600291722496,-0.00606470533664,0.000977852226728,3.58499500347e-06,1.5589620153e-05,2.13694608929e-05,0.999999999644,0.0,0.0,0.0,0.0,0.0,0.0
1609054432058907032,333,1609054432058907032,0.00865435145987,-0.000356360863743,3.27615763772e-05,-2.51268576093e-06,-1.22061530681e-05,-0.000310297950427,0.99999995178,0.0,0.0,0.0,0.0,0.0,0.0
1609054432169985294,334,1609054432169985294,0.00865435145987,-0.000356360863743,3.27615763772e-05,-2.51268576093e-06,-1.22061530681e-05,-0.000310297950427,0.99999995178,0.0,0.0,0.0,0.0,0.0,0.0
1609054432263644457,335,1609054432263644457,0.00116807643011,0.0107076650127,0.00108237542803,-1.95753920993e-05,-2.39821335076e-05,1.69158599374e-05,0.999999999378,0.0,0.0,0.0,0.0,0.0,0.0
1609054432359347343,336,1609054432359347343,0.00116807643011,0.0107076650127,0.00108237542803,-1.95753920993e-05,-2.39821335076e-05,1.69158599374e-05,0.999999999378,0.0,0.0,0.0,0.0,0.0,0.0
1609054432469973326,337,1609054432469973326,0.00468435145543,0.000287619063007,0.000270066339481,5.4498269526e-06,8.17682798033e-06,-4.69309539295e-05,0.99999999885,0.0,0.0,0.0,0.0,0.0,0.0
1609054432563478470,338,1609054432563478470,0.00468435145543,0.000287619063007,0.000270066339481,5.4498269526e-06,8.17682798033e-06,-4.69309539295e-05,0.99999999885,0.0,0.0,0.0,0.0,0.0,0.0
1609054432658759356,339,1609054432658759356,0.00647587458258,-0.0126919325252,-0.000637655363107,-5.12430633501e-06,-6.42472111882e-05,3.93808995868e-05,0.999999997148,0.0,0.0,0.0,0.0,0.0,0.0
1609054432769861221,340,1609054432769861221,0.00647587458258,-0.0126919325252,-0.000637655363107,-5.12430633501e-06,-6.42472111882e-05,3.93808995868e-05,0.999999997148,0.0,0.0,0.0,0.0,0.0,0.0
1609054432863534212,341,1609054432863534212,0.00355970680961,0.00448200853847,-0.00132556091293,-1.77518998493e-05,-7.29067885069e-05,7.88497954277e-05,0.999999994076,0.0,0.0,0.0,0.0,0.0,0.0
1609054432958740473,342,1609054432958740473,0.00355970680961,0.00448200853847,-0.00132556091293,-1.77518998493e-05,-7.29067885069e-05,7.88497954277e-05,0.999999994076,0.0,0.0,0.0,0.0,0.0,0.0
1609054433069976807,343,1609054433069976807,0.00313448769416,0.00728818219134,-0.000133955296449,-1.36508183049e-05,-1.24469745149e-05,-0.000101900761513,0.999999994637,0.0,0.0,0.0,0.0,0.0,0.0
1609054433163552999,344,1609054433163552999,0.00313448769416,0.00728818219134,-0.000133955296449,-1.36508183049e-05,-1.24469745149e-05,-0.000101900761513,0.999999994637,0.0,0.0,0.0,0.0,0.0,0.0
1609054433258788586,345,1609054433258788586,0.00419870240359,0.00210092739157,-0.00132221161856,-1.59129806919e-05,-4.42316968352e-05,0.000169802016318,0.999999984479,0.0,0.0,0.0,0.0,0.0,0.0
1609054433370133162,346,1609054433370133162,0.00419870240359,0.00210092739157,-0.00132221161856,-1.59129806919e-05,-4.42316968352e-05,0.000169802016318,0.999999984479,0.0,0.0,0.0,0.0,0.0,0.0
1609054433463714838,347,1609054433463714838,0.00436966721078,0.0085182950479,9.58507735117e-05,-2.10269585822e-05,-4.42472231669e-05,0.00023335395275,0.999999971573,0.0,0.0,0.0,0.0,0.0,0.0
1609054433558340073,348,1609054433558340073,0.00436966721078,0.0085182950479,9.58507735117e-05,-2.10269585822e-05,-4.42472231669e-05,0.00023335395275,0.999999971573,0.0,0.0,0.0,0.0,0.0,0.0
1609054433669966698,349,1609054433669966698,0.00687706436605,-0.00852532979484,0.000786356710533,1.49180661068e-05,-1.15700632833e-06,0.000148555154097,0.999999988854,0.0,0.0,0.0,0.0,0.0,0.0
1609054433763217449,350,1609054433763217449,0.00687706436605,-0.00852532979484,0.000786356710533,1.49180661068e-05,-1.15700632833e-06,0.000148555154097,0.999999988854,0.0,0.0,0.0,0.0,0.0,0.0
1609054433858493805,351,1609054433858493805,0.00474814844285,-0.00175824894651,-0.000657542438325,-1.31923279129e-05,-6.44847490965e-05,9.9604944507e-05,0.999999992873,0.0,0.0,0.0,0.0,0.0,0.0
