%time,field.header.seq,field.header.stamp,field.pose.pose.position.x,field.pose.pose.position.y,field.pose.pose.position.z,field.pose.pose.orientation.x,field.pose.pose.orientation.y,field.pose.pose.orientation.z,field.pose.pose.orientation.w,field.twist.twist.linear.x,field.twist.twist.linear.y,field.twist.twist.linear.z,field.twist.twist.angular.x,field.twist.twist.angular.y,field.twist.twist.angular.z
1609043645857906580,25,1609043645857906580,0.0010388141251,0.00126873087663,0.000334848208941,2.8389710864e-06,-1.28750474472e-05,-0.000118989018964,0.999999992834,0.0,0.0,0.0,0.0,0.0,0.0
1609043645968871355,26,1609043645968871355,0.0010388141251,0.00126873087663,0.000334848208941,2.8389710864e-06,-1.28750474472e-05,-0.000118989018964,0.999999992834,0.0,0.0,0.0,0.0,0.0,0.0
1609043646062448025,27,1609043646062448025,0.000120352932379,2.84797151408e-05,-0.00154180846983,1.97067397296e-05,-6.55858360528e-05,-7.80961649792e-05,0.999999994606,0.0,0.0,0.0,0.0,0.0,0.0
1609043646157720804,28,1609043646157720804,0.000120352932379,2.84797151408e-05,-0.00154180846983,1.97067397296e-05,-6.55858360528e-05,-7.80961649792e-05,0.999999994606,0.0,0.0,0.0,0.0,0.0,0.0
1609043646268861771,29,1609043646268861771,0.00112803303409,0.00268585676898,-0.000919000417723,1.68770694701e-05,-4.22614499283e-05,-5.15438352431e-05,0.999999997636,0.0,0.0,0.0,0.0,0.0,0.0
1609043646362523079,30,1609043646362523079,0.00112803303409,0.00268585676898,-0.000919000417723,1.68770694701e-05,-4.22614499283e-05,-5.15438352431e-05,0.999999997636,0.0,0.0,0.0,0.0,0.0,0.0
1609043646457710505,31,1609043646457710505,0.00123088757407,0.000931420028239,-0.00150170490255,2.94088183999e-05,-5.44602936974e-05,-0.000102007792381,0.999999992882,0.0,0.0,0.0,0.0,0.0,0.0
1609043646568797588,32,1609043646568797588,0.00123088757407,0.000931420028239,-0.00150170490255,2.94088183999e-05,-5.44602936974e-05,-0.000102007792381,0.999999992882,0.0,0.0,0.0,0.0,0.0,0.0
1609043646662518740,33,1609043646662518740,0.00239523563902,-0.0014998118269,-0.00118560913061,3.44534664696e-05,-5.74467810745e-05,2.27763673471e-05,0.999999997497,0.0,0.0,0.0,0.0,0.0,0.0
1609043646757744074,34,1609043646757744074,0.00239523563902,-0.0014998118269,-0.00118560913061,3.44534664696e-05,-5.74467810745e-05,2.27763673471e-05,0.999999997497,0.0,0.0,0.0,0.0,0.0,0.0
1609043646868740320,35,1609043646868740320,0.000555246140309,0.000146281521242,-0.00161978499661,3.6048349329e-05,-5.5280120092e-05,-2.99803710447e-05,0.999999997373,0.0,0.0,0.0,0.0,0.0,0.0
1609043646962521076,36,1609043646962521076,0.000555246140309,0.000146281521242,-0.00161978499661,3.6048349329e-05,-5.5280120092e-05,-2.99803710447e-05,0.999999997373,0.0,0.0,0.0,0.0,0.0,0.0
1609043647057955742,37,1609043647057955742,0.00189923813374,0.00261043350745,-0.000834443477675,8.53068361524e-06,-4.54876699865e-05,-0.00021297884983,0.999999976249,0.0,0.0,0.0,0.0,0.0,0.0
1609043647168937922,38,1609043647168937922,0.00189923813374,0.00261043350745,-0.000834443477675,8.53068361524e-06,-4.54876699865e-05,-0.00021297884983,0.999999976249,0.0,0.0,0.0,0.0,0.0,0.0
1609043647262681484,39,1609043647262681484,0.000287032854352,0.00281837158091,-0.00105616784925,1.91725645181e-05,-6.90482064878e-05,-5.50459712174e-06,0.999999997417,0.0,0.0,0.0,0.0,0.0,0.0
1609043647358197689,40,1609043647358197689,0.000287032854352,0.00281837158091,-0.00105616784925,1.91725645181e-05,-6.90482064878e-05,-5.50459712174e-06,0.999999997417,0.0,0.0,0.0,0.0,0.0,0.0
1609043647468885422,41,1609043647468885422,0.00137838346748,-0.00311101521487,-0.000560877744029,3.69871196379e-05,-4.44558140833e-05,-6.39576998388e-06,0.999999998307,0.0,0.0,0.0,0.0,0.0,0.0
1609043647562643766,42,1609043647562643766,0.00137838346748,-0.00311101521487,-0.000560877744029,3.69871196379e-05,-4.44558140833e-05,-6.39576998388e-06,0.999999998307,0.0,0.0,0.0,0.0,0.0,0.0
1609043647657835484,43,1609043647657835484,0.00198090144073,-0.000438174391416,-0.000375023113881,3.95735500007e-05,-4.78558465676e-05,-2.2665262794e-06,0.999999998069,0.0,0.0,0.0,0.0,0.0,0.0
1609043647769203424,44,1609043647769203424,0.00198090144073,-0.000438174391416,-0.000375023113881,3.95735500007e-05,-4.78558465676e-05,-2.2665262794e-06,0.999999998069,0.0,0.0,0.0,0.0,0.0,0.0
1609043647862541199,45,1609043647862541199,0.00157737309048,0.000640069713024,-5.58143040164e-05,5.50085302535e-06,-6.8580238792e-06,-2.76465099136e-06,0.999999999958,0.0,0.0,0.0,0.0,0.0,0.0
1609043647957784891,46,1609043647957784891,0.00157737309048,0.000640069713024,-5.58143040164e-05,5.50085302535e-06,-6.8580238792e-06,-2.76465099136e-06,0.999999999958,0.0,0.0,0.0,0.0,0.0,0.0
1609043648068687439,47,1609043648068687439,-0.000139115900968,-8.99518255279e-05,-0.000836963662613,2.74444161477e-05,-5.67045301891e-05,-4.43232940183e-05,0.999999997033,0.0,0.0,0.0,0.0,0.0,0.0
1609043648162494183,48,1609043648162494183,-0.000139115900968,-8.99518255279e-05,-0.000836963662613,2.74444161477e-05,-5.67045301891e-05,-4.43232940183e-05,0.999999997033,0.0,0.0,0.0,0.0,0.0,0.0
1609043648257946968,49,1609043648257946968,-0.00104955287713,0.00469227331173,-0.00167962872514,1.30198039874e-05,-8.10862854351e-05,-5.7252088825e-05,0.999999994989,0.0,0.0,0.0,0.0,0.0,0.0
1609043648369037151,50,1609043648369037151,-0.00104955287713,0.00469227331173,-0.00167962872514,1.30198039874e-05,-8.10862854351e-05,-5.7252088825e-05,0.999999994989,0.0,0.0,0.0,0.0,0.0,0.0
1609043648462505102,51,1609043648462505102,-6.89311072065e-05,0.00491243135609,-0.00164980227838,2.91224703941e-06,-6.01540598305e-05,-0.000171208707742,0.99999998353,0.0,0.0,0.0,0.0,0.0,0.0
1609043648557770014,52,1609043648557770014,-6.89311072065e-05,0.00491243135609,-0.00164980227838,2.91224703941e-06,-6.01540598305e-05,-0.000171208707742,0.99999998353,0.0,0.0,0.0,0.0,0.0,0.0
1609043648668736219,53,1609043648668736219,0.00186548114016,-0.0051279601639,-0.000559410967371,4.13083691215e-05,-4.46730280818e-05,3.52962684979e-05,0.999999997526,0.0,0.0,0.0,0.0,0.0,0.0
1609043648762487411,54,1609043648762487411,0.00186548114016,-0.0051279601639,-0.000559410967371,4.13083691215e-05,-4.46730280818e-05,3.52962684979e-05,0.999999997526,0.0,0.0,0.0,0.0,0.0,0.0
1609043648857475996,55,1609043648857475996,-4.19269642354e-05,0.000732298084198,-0.000199912946063,1.02381339413e-05,-3.45371957161e-05,-0.000103919237957,0.999999993952,0.0,0.0,0.0,0.0,0.0,0.0
1609043648968594790,56,1609043648968594790,-4.19269642354e-05,0.000732298084198,-0.000199912946063,1.02381339413e-05,-3.45371957161e-05,-0.000103919237957,0.999999993952,0.0,0.0,0.0,0.0,0.0,0.0
1609043649062355757,57,1609043649062355757,-0.000548418742405,0.00214683717855,-0.00208757745786,4.45194235366e-05,-0.00011580495972,-6.1527267019e-05,0.999999990411,0.0,0.0,0.0,0.0,0.0,0.0
1609043649157798290,58,1609043649157798290,-0.000548418742405,0.00214683717855,-0.00208757745786,4.45194235366e-05,-0.00011580495972,-6.1527267019e-05,0.999999990411,0.0,0.0,0.0,0.0,0.0,0.0
1609043649268594980,59,1609043649268594980,0.00111965987199,0.00263834450978,-0.000949049234395,1.40707258256e-05,-3.18945682889e-05,-7.08058750003e-05,0.999999996886,0.0,0.0,0.0,0.0,0.0,0.0
1609043649362310410,60,1609043649362310410,0.00111965987199,0.00263834450978,-0.000949049234395,1.40707258256e-05,-3.18945682889e-05,-7.08058750003e-05,0.999999996886,0.0,0.0,0.0,0.0,0.0,0.0
1609043649457795382,61,1609043649457795382,-0.000465169440587,0.00362462007586,-0.00261017714643,2.74864148722e-05,-9.93747494848e-05,-0.000109248151968,0.999999988717,0.0,0.0,0.0,0.0,0.0,0.0
1609043649568291664,62,1609043649568291664,-0.000465169440587,0.00362462007586,-0.00261017714643,2.74864148722e-05,-9.93747494848e-05,-0.000109248151968,0.999999988717,0.0,0.0,0.0,0.0,0.0,0.0
1609043649662141562,63,1609043649662141562,0.00282713078667,-0.00303243693029,-0.0019102831226,5.56454753143e-05,-7.19589051618e-05,-2.14152918039e-05,0.999999995633,0.0,0.0,0.0,0.0,0.0,0.0
1609043649757415295,64,1609043649757415295,0.00282713078667,-0.00303243693029,-0.0019102831226,5.56454753143e-05,-7.19589051618e-05,-2.14152918039e-05,0.999999995633,0.0,0.0,0.0,0.0,0.0,0.0
1609043649868411541,65,1609043649868411541,0.001166093613,0.00277115800801,-0.000748973273127,1.81137496285e-05,-3.72260394394e-05,-0.000136591954117,0.999999989814,0.0,0.0,0.0,0.0,0.0,0.0
1609043649962271690,66,1609043649962271690,0.001166093613,0.00277115800801,-0.000748973273127,1.81137496285e-05,-3.72260394394e-05,-0.000136591954117,0.999999989814,0.0,0.0,0.0,0.0,0.0,0.0
1609043650057523012,67,1609043650057523012,0.000185555003516,0.00267842876601,-0.00071910279676,1.81388752785e-05,-5.59662034294e-05,-0.000179858698114,0.999999982095,0.0,0.0,0.0,0.0,0.0,0.0
1609043650168541908,68,1609043650168541908,0.000185555003516,0.00267842876601,-0.00071910279676,1.81388752785e-05,-5.59662034294e-05,-0.000179858698114,0.999999982095,0.0,0.0,0.0,0.0,0.0,0.0
1609043650262203693,69,1609043650262203693,0.00082674053273,-7.95680295716e-05,-0.0012071823483,3.62219501022e-05,-5.7167340332e-05,5.34410293776e-05,0.999999996282,0.0,0.0,0.0,0.0,0.0,0.0
1609043650357485294,70,1609043650357485294,0.00082674053273,-7.95680295716e-05,-0.0012071823483,3.62219501022e-05,-5.7167340332e-05,5.34410293776e-05,0.999999996282,0.0,0.0,0.0,0.0,0.0,0.0
1609043650468751192,71,1609043650468751192,-0.00117323682933,0.00522915647582,-0.00160154536015,1.35320153763e-05,-8.0424034843e-05,-7.46927833566e-05,0.999999993885,0.0,0.0,0.0,0.0,0.0,0.0
1609043650562211752,72,1609043650562211752,-0.00117323682933,0.00522915647582,-0.00160154536015,1.35320153763e-05,-8.0424034843e-05,-7.46927833566e-05,0.999999993885,0.0,0.0,0.0,0.0,0.0,0.0
1609043650657418489,73,1609043650657418489,0.00097150069746,0.00164328065635,-0.00178881061792,3.69303245138e-05,-8.16690799981e-05,-0.000100144500459,0.999999990969,0.0,0.0,0.0,0.0,0.0,0.0
1609043650768271446,74,1609043650768271446,0.00097150069746,0.00164328065635,-0.00178881061792,3.69303245138e-05,-8.16690799981e-05,-0.000100144500459,0.999999990969,0.0,0.0,0.0,0.0,0.0,0.0
1609043650862178802,75,1609043650862178802,0.000373431496816,0.00221893072477,0.000115341543794,1.71226293728e-06,-1.71452524759e-05,-0.000160681007021,0.999999986942,0.0,0.0,0.0,0.0,0.0,0.0
1609043650957247257,76,1609043650957247257,0.000373431496816,0.00221893072477,0.000115341543794,1.71226293728e-06,-1.71452524759e-05,-0.000160681007021,0.999999986942,0.0,0.0,0.0,0.0,0.0,0.0
1609043651068470478,77,1609043651068470478,0.000639386006111,0.00446626435901,-0.00141249643712,2.13368996475e-05,-6.75113052899e-05,-8.74993880559e-05,0.999999993665,0.0,0.0,0.0,0.0,0.0,0.0
1609043651162469625,78,1609043651162469625,0.000639386006111,0.00446626435901,-0.00141249643712,2.13368996475e-05,-6.75113052899e-05,-8.74993880559e-05,0.999999993665,0.0,0.0,0.0,0.0,0.0,0.0
1609043651257454872,79,1609043651257454872,0.000813133627227,0.000854370577958,-0.0009324307099,2.17661821054e-05,-4.58980900414e-05,-6.09740818211e-05,0.999999996851,0.0,0.0,0.0,0.0,0.0,0.0
1609043651368612766,80,1609043651368612766,0.000813133627227,0.000854370577958,-0.0009324307099,2.17661821054e-05,-4.58980900414e-05,-6.09740818211e-05,0.999999996851,0.0,0.0,0.0,0.0,0.0,0.0
1609043651462187290,81,1609043651462187290,0.00144873553838,0.00155064232311,-0.0007767115046,2.00254978581e-05,-4.34709002979e-05,-8.9252170333e-05,0.999999994872,0.0,0.0,0.0,0.0,0.0,0.0
1609043651557303905,82,1609043651557303905,0.00144873553838,0.00155064232311,-0.0007767115046,2.00254978581e-05,-4.34709002979e-05,-8.9252170333e-05,0.999999994872,0.0,0.0,0.0,0.0,0.0,0.0
1609043651668114901,83,1609043651668114901,0.00290059711015,-0.00289325052958,-0.000959908799677,2.08263341868e-05,-2.85073069566e-05,-0.000108352457353,0.999999993507,0.0,0.0,0.0,0.0,0.0,0.0
1609043651762060642,84,1609043651762060642,0.00290059711015,-0.00289325052958,-0.000959908799677,2.08263341868e-05,-2.85073069566e-05,-0.000108352457353,0.999999993507,0.0,0.0,0.0,0.0,0.0,0.0
1609043651857352972,85,1609043651857352972,-0.0014231513955,0.00561901785451,-0.000510355216883,-4.38233141634e-06,-2.36990131944e-05,-0.000122194785767,0.999999992244,0.0,0.0,0.0,0.0,0.0,0.0
1609043651968310595,86,1609043651968310595,-0.0014231513955,0.00561901785451,-0.000510355216883,-4.38233141634e-06,-2.36990131944e-05,-0.000122194785767,0.999999992244,0.0,0.0,0.0,0.0,0.0,0.0
1609043652062166929,87,1609043652062166929,-0.000122967811211,0.0035483856832,-0.000899434374208,6.22961119744e-06,-3.69924224301e-05,-7.58013034264e-05,0.999999996423,0.0,0.0,0.0,0.0,0.0,0.0
1609043652157705307,88,1609043652157705307,-0.000122967811211,0.0035483856832,-0.000899434374208,6.22961119744e-06,-3.69924224301e-05,-7.58013034264e-05,0.999999996423,0.0,0.0,0.0,0.0,0.0,0.0
1609043652269840002,89,1609043652269840002,0.000750657060717,0.00557325196862,-0.000849488419264,1.75662002761e-06,-4.55009381297e-05,-0.000217020254558,0.999999975414,0.0,0.0,0.0,0.0,0.0,0.0
1609043652363836050,90,1609043652363836050,0.000750657060717,0.00557325196862,-0.000849488419264,1.75662002761e-06,-4.55009381297e-05,-0.000217020254558,0.999999975414,0.0,0.0,0.0,0.0,0.0,0.0
1609043652457461596,91,1609043652457461596,0.00297445879384,-0.00133609856542,0.000820360312633,9.95349785722e-06,3.71142511295e-06,-6.17800117096e-07,0.999999999943,0.0,0.0,0.0,0.0,0.0,0.0
1609043652569962263,92,1609043652569962263,0.00297445879384,-0.00133609856542,0.000820360312633,9.95349785722e-06,3.71142511295e-06,-6.17800117096e-07,0.999999999943,0.0,0.0,0.0,0.0,0.0,0.0
1609043652663848162,93,1609043652663848162,0.0023108038008,-0.000390006668179,-0.000534024071789,2.52673310469e-05,-2.81030396638e-05,1.81564518115e-05,0.999999999121,0.0,0.0,0.0,0.0,0.0,0.0
1609043652757586002,94,1609043652757586002,0.0023108038008,-0.000390006668179,-0.000534024071789,2.52673310469e-05,-2.81030396638e-05,1.81564518115e-05,0.999999999121,0.0,0.0,0.0,0.0,0.0,0.0
1609043652871131420,95,1609043652871131420,0.00136030548661,-0.000787030112094,-0.00258921334333,4.99535384979e-05,-7.94891987388e-05,-1.72565910294e-05,0.999999995444,0.0,0.0,0.0,0.0,0.0,0.0
1609043652963475227,96,1609043652963475227,0.00136030548661,-0.000787030112094,-0.00258921334333,4.99535384979e-05,-7.94891987388e-05,-1.72565910294e-05,0.999999995444,0.0,0.0,0.0,0.0,0.0,0.0
1609043653058115005,97,1609043653058115005,0.00228158868139,0.000766542901179,-0.00190429136078,2.78542419994e-05,-6.13748669516e-05,-9.18031940916e-05,0.999999993515,0.0,0.0,0.0,0.0,0.0,0.0
1609043653169545650,98,1609043653169545650,0.00228158868139,0.000766542901179,-0.00190429136078,2.78542419994e-05,-6.13748669516e-05,-9.18031940916e-05,0.999999993515,0.0,0.0,0.0,0.0,0.0,0.0
1609043653263297319,99,1609043653263297319,-0.00202551588568,0.00535427299778,-0.00203347941254,1.02018496825e-05,-7.56402806489e-05,-8.39717194784e-05,0.999999993562,0.0,0.0,0.0,0.0,0.0,0.0
1609043653357565403,100,1609043653357565403,-0.00202551588568,0.00535427299778,-0.00203347941254,1.02018496825e-05,-7.56402806489e-05,-8.39717194784e-05,0.999999993562,0.0,0.0,0.0,0.0,0.0,0.0
1609043653470639229,101,1609043653470639229,0.000125863557348,0.00291980856618,-0.00129761523361,8.85341047071e-06,-4.36724011924e-05,-0.000167233383981,0.999999985024,0.0,0.0,0.0,0.0,0.0,0.0
1609043653563307524,102,1609043653563307524,0.000125863557348,0.00291980856618,-0.00129761523361,8.85341047071e-06,-4.36724011924e-05,-0.000167233383981,0.999999985024,0.0,0.0,0.0,0.0,0.0,0.0
1609043653657113314,103,1609043653657113314,-0.000213446657343,0.00446515657469,-0.00204764154461,1.46108853292e-05,-7.2424269928e-05,-9.90079491552e-05,0.999999992369,0.0,0.0,0.0,0.0,0.0,0.0
1609043653757525444,104,1609043653757525444,-0.000213446657343,0.00446515657469,-0.00204764154461,1.46108853292e-05,-7.2424269928e-05,-9.90079491552e-05,0.999999992369,0.0,0.0,0.0,0.0,0.0,0.0
1609043653866878510,105,1609043653866878510,0.00151997399587,0.0016307572948,-0.00153444268473,1.91501902616e-05,-6.61085831708e-05,-0.00017325766405,0.999999982622,0.0,0.0,0.0,0.0,0.0,0.0
1609043653960734367,106,1609043653960734367,0.00151997399587,0.0016307572948,-0.00153444268473,1.91501902616e-05,-6.61085831708e-05,-0.00017325766405,0.999999982622,0.0,0.0,0.0,0.0,0.0,0.0
1609043654057466269,107,1609043654057466269,0.00109556405128,0.00405170144118,-0.000549631221649,-1.10491153258e-05,-1.34237377961e-05,-0.000142913992872,0.999999989637,0.0,0.0,0.0,0.0,0.0,0.0
1609043654167167664,108,1609043654167167664,0.00109556405128,0.00405170144118,-0.000549631221649,-1.10491153258e-05,-1.34237377961e-05,-0.000142913992872,0.999999989637,0.0,0.0,0.0,0.0,0.0,0.0
1609043654261045218,109,1609043654261045218,0.000773091782071,0.00339751346411,-0.00108061928216,-8.84851789596e-07,-4.44574620533e-05,-0.000101484032578,0.999999993862,0.0,0.0,0.0,0.0,0.0,0.0
1609043654357563496,110,1609043654357563496,0.000773091782071,0.00339751346411,-0.00108061928216,-8.84851789596e-07,-4.44574620533e-05,-0.000101484032578,0.999999993862,0.0,0.0,0.0,0.0,0.0,0.0
1609043654466949940,111,1609043654466949940,0.000742438132501,0.00112799954875,-0.000901514504215,2.07056546848e-05,-4.96072429311e-05,-2.749975821e-05,0.999999998177,0.0,0.0,0.0,0.0,0.0,0.0
1609043654563715935,112,1609043654563715935,0.000742438132501,0.00112799954875,-0.000901514504215,2.07056546848e-05,-4.96072429311e-05,-2.749975821e-05,0.999999998177,0.0,0.0,0.0,0.0,0.0,0.0
1609043654657459497,113,1609043654657459497,-0.000103269856961,0.00313909183844,-0.00244540816206,2.88011643346e-05,-0.000107731397742,-0.000135457927322,0.999999984608,0.0,0.0,0.0,0.0,0.0,0.0
1609043654768309116,114,1609043654768309116,-0.000103269856961,0.00313909183844,-0.00244540816206,2.88011643346e-05,-0.000107731397742,-0.000135457927322,0.999999984608,0.0,0.0,0.0,0.0,0.0,0.0
1609043654958330154,115,1609043654958330154,-0.000189488602368,0.00252236043131,0.000126488027811,-7.89345241524e-06,-3.74692650088e-06,-5.38590436686e-05,0.999999998511,0.0,0.0,0.0,0.0,0.0,0.0
1609043655068126678,116,1609043655068126678,-0.000189488602368,0.00252236043131,0.000126488027811,-7.89345241524e-06,-3.74692650088e-06,-5.38590436686e-05,0.999999998511,0.0,0.0,0.0,0.0,0.0,0.0
1609043655162305593,117,1609043655162305593,-0.00121491440651,0.00247258921034,-0.00173599747087,2.50475795049e-05,-8.57164300877e-05,-0.000131766235396,0.999999987331,0.0,0.0,0.0,0.0,0.0,0.0
1609043655257472992,118,1609043655257472992,-0.00121491440651,0.00247258921034,-0.00173599747087,2.50475795049e-05,-8.57164300877e-05,-0.000131766235396,0.999999987331,0.0,0.0,0.0,0.0,0.0,0.0
1609043655367793322,119,1609043655367793322,-0.00102158198267,-0.00429621685391,0.00493540751481,-0.0010325872815,0.000534870652351,4.94634745285e-05,0.999999322615,0.0,0.0,0.0,0.0,0.0,0.0
1609043655463260889,120,1609043655463260889,0.00136725465525,0.00196947276824,-0.00159507422401,7.22736039362e-06,-5.45200515558e-05,-1.3879241404e-05,0.999999998391,0.0,0.0,0.0,0.0,0.0,0.0
1609043655558698893,121,1609043655558698893,-0.00120686500192,0.00276702487511,-0.00182176293433,2.49800476421e-05,-8.13409649981e-05,-0.000134985933653,0.999999987269,0.0,0.0,0.0,0.0,0.0,0.0
1609043655669824839,122,1609043655669824839,-0.00120686500192,0.00276702487511,-0.00182176293433,2.49800476421e-05,-8.13409649981e-05,-0.000134985933653,0.999999987269,0.0,0.0,0.0,0.0,0.0,0.0
1609043655763274670,123,1609043655763274670,0.00105827820747,0.000606481554003,-0.00200251862819,3.17401821492e-05,-6.65648204256e-05,-8.65927555752e-05,0.999999993532,0.0,0.0,0.0,0.0,0.0,0.0
1609043655857172251,124,1609043655857172251,0.00105827820747,0.000606481554003,-0.00200251862819,3.17401821492e-05,-6.65648204256e-05,-8.65927555752e-05,0.999999993532,0.0,0.0,0.0,0.0,0.0,0.0
1609043655972023726,125,1609043655972023726,0.000821676725692,0.00237456292237,-0.00203021571972,2.50857557428e-05,-6.1583817858e-05,-5.02922470034e-05,0.999999996524,0.0,0.0,0.0,0.0,0.0,0.0
1609043656063204765,126,1609043656063204765,0.000821676725692,0.00237456292237,-0.00203021571972,2.50857557428e-05,-6.1583817858e-05,-5.02922470034e-05,0.999999996524,0.0,0.0,0.0,0.0,0.0,0.0
1609043656161874056,127,1609043656161874056,0.000847917133254,-0.000824996997506,-0.00175080628896,2.96751052459e-05,-6.77760118359e-05,9.28955835842e-05,0.999999992948,0.0,0.0,0.0,0.0,0.0,0.0
1609043656257388115,128,1609043656257388115,0.000847917133254,-0.000824996997506,-0.00175080628896,2.96751052459e-05,-6.77760118359e-05,9.28955835842e-05,0.999999992948,0.0,0.0,0.0,0.0,0.0,0.0
1609043656457219839,129,1609043656457219839,0.000715774631685,0.000814919607129,-0.00169398880244,1.95643529618e-05,-6.56220581451e-05,-8.72099582382e-05,0.999999993853,0.0,0.0,0.0,0.0,0.0,0.0
1609043656561094999,130,1609043656561094999,0.000715774631685,0.000814919607129,-0.00169398880244,1.95643529618e-05,-6.56220581451e-05,-8.72099582382e-05,0.999999993853,0.0,0.0,0.0,0.0,0.0,0.0
1609043656663914919,131,1609043656663914919,-0.00171698195176,0.00703683678169,-0.0013136024643,5.57049298673e-06,-7.49202242694e-05,-0.000128724268486,0.999999988893,0.0,0.0,0.0,0.0,0.0,0.0
1609043656766721487,132,1609043656766721487,-0.00171698195176,0.00703683678169,-0.0013136024643,5.57049298673e-06,-7.49202242694e-05,-0.000128724268486,0.999999988893,0.0,0.0,0.0,0.0,0.0,0.0
1609043656870594025,133,1609043656870594025,0.00170456309063,0.00366167530116,0.000449017997563,-1.21785259314e-05,1.08747746902e-05,-0.000199980005634,0.999999979871,0.0,0.0,0.0,0.0,0.0,0.0
1609043656972902775,134,1609043656972902775,0.00170456309063,0.00366167530116,0.000449017997563,-1.21785259314e-05,1.08747746902e-05,-0.000199980005634,0.999999979871,0.0,0.0,0.0,0.0,0.0,0.0
1609043657075711727,135,1609043657075711727,0.00148559947652,0.000289057004439,-0.000937077299729,2.51477219791e-05,-5.44765376281e-05,-1.87987566496e-07,0.9999999982,0.0,0.0,0.0,0.0,0.0,0.0
1609043657178982496,136,1609043657178982496,0.00148559947652,0.000289057004439,-0.000937077299729,2.51477219791e-05,-5.44765376281e-05,-1.87987566496e-07,0.9999999982,0.0,0.0,0.0,0.0,0.0,0.0
1609043657283605814,137,1609043657283605814,0.000421549523311,0.00153280800245,-0.00148913646475,2.44898873862e-05,-6.66502182068e-05,-1.65519120608e-05,0.999999997342,0.0,0.0,0.0,0.0,0.0,0.0
1609043657387769461,138,1609043657387769461,0.000421549523311,0.00153280800245,-0.00148913646475,2.44898873862e-05,-6.66502182068e-05,-1.65519120608e-05,0.999999997342,0.0,0.0,0.0,0.0,0.0,0.0
1609043657557137251,139,1609043657557137251,0.00140703613616,-0.00384372597721,-0.000560689631171,3.06162731082e-05,-1.86853492717e-05,-1.65485563992e-06,0.999999999355,0.0,0.0,0.0,0.0,0.0,0.0
1609043657660401106,140,1609043657660401106,0.00140703613616,-0.00384372597721,-0.000560689631171,3.06162731082e-05,-1.86853492717e-05,-1.65485563992e-06,0.999999999355,0.0,0.0,0.0,0.0,0.0,0.0
1609043657769903421,141,1609043657769903421,0.00144098480343,-0.000715108201497,-0.000619648640114,3.18656897957e-05,-4.37936495297e-05,0.000122104773546,0.999999991079,0.0,0.0,0.0,0.0,0.0,0.0
1609043657871285915,142,1609043657871285915,0.00144098480343,-0.000715108201497,-0.000619648640114,3.18656897957e-05,-4.37936495297e-05,0.000122104773546,0.999999991079,0.0,0.0,0.0,0.0,0.0,0.0
1609043657975111485,143,1609043657975111485,6.5661011802e-05,0.00223375030697,-0.000906266062001,2.34342104708e-05,-6.66654083328e-05,-0.000146450860596,0.999999986779,0.0,0.0,0.0,0.0,0.0,0.0
1609043658077710629,144,1609043658077710629,6.5661011802e-05,0.00223375030697,-0.000906266062001,2.34342104708e-05,-6.66654083328e-05,-0.000146450860596,0.999999986779,0.0,0.0,0.0,0.0,0.0,0.0
1609043658181786537,145,1609043658181786537,0.00122944541758,-9.98823036567e-05,2.74147302053e-05,1.13257021233e-05,-5.84590340207e-06,-1.31975157615e-06,0.999999999918,0.0,0.0,0.0,0.0,0.0,0.0
1609043658283475161,146,1609043658283475161,0.00122944541758,-9.98823036567e-05,2.74147302053e-05,1.13257021233e-05,-5.84590340207e-06,-1.31975157615e-06,0.999999999918,0.0,0.0,0.0,0.0,0.0,0.0
1609043658386534214,147,1609043658386534214,0.000596800729689,0.00140164145728,-0.00266292833182,3.96927615612e-05,-0.000107024242583,-6.20239325845e-05,0.999999991562,0.0,0.0,0.0,0.0,0.0,0.0
1609043658561256886,148,1609043658561256886,0.000596800729689,0.00140164145728,-0.00266292833182,3.96927615612e-05,-0.000107024242583,-6.20239325845e-05,0.999999991562,0.0,0.0,0.0,0.0,0.0,0.0
1609043658668093443,149,1609043658668093443,0.00242388162654,0.00205779429381,-0.00186127438558,2.69971672249e-05,-9.33520357913e-05,-0.000176486184818,0.999999979705,0.0,0.0,0.0,0.0,0.0,0.0
1609043658770936012,150,1609043658770936012,0.00242388162654,0.00205779429381,-0.00186127438558,2.69971672249e-05,-9.33520357913e-05,-0.000176486184818,0.999999979705,0.0,0.0,0.0,0.0,0.0,0.0
1609043658874103308,151,1609043658874103308,0.000485502026327,0.00258859084089,0.00100573580347,-9.41160806338e-06,2.16647354372e-05,-0.000116854466912,0.999999992894,0.0,0.0,0.0,0.0,0.0,0.0
1609043658976997137,152,1609043658976997137,0.000485502026327,0.00258859084089,0.00100573580347,-9.41160806338e-06,2.16647354372e-05,-0.000116854466912,0.999999992894,0.0,0.0,0.0,0.0,0.0,0.0
1609043659081444979,153,1609043659081444979,0.000222878457491,0.000105588411838,-0.000803793412883,2.29474124897e-05,-6.23442355191e-05,-1.13281606993e-05,0.999999997729,0.0,0.0,0.0,0.0,0.0,0.0
1609043659183437586,154,1609043659183437586,0.000222878457491,0.000105588411838,-0.000803793412883,2.29474124897e-05,-6.23442355191e-05,-1.13281606993e-05,0.999999997729,0.0,0.0,0.0,0.0,0.0,0.0
1609043659286269188,155,1609043659286269188,0.00236092263582,0.00160158213168,-0.00134778532173,1.36129229866e-05,-5.83649469496e-05,-3.81977056567e-05,0.999999997475,0.0,0.0,0.0,0.0,0.0,0.0
1609043659356725693,156,1609043659356725693,0.00236092263582,0.00160158213168,-0.00134778532173,1.36129229866e-05,-5.83649469496e-05,-3.81977056567e-05,0.999999997475,0.0,0.0,0.0,0.0,0.0,0.0
1609043659458543301,157,1609043659458543301,-0.00212751523189,0.00526760595012,-0.00128577889786,-3.76644156306e-06,-4.28231285447e-05,-0.000164598634656,0.99999998553,0.0,0.0,0.0,0.0,0.0,0.0
1609043659563061237,158,1609043659563061237,-0.00212751523189,0.00526760595012,-0.00128577889786,-3.76644156306e-06,-4.28231285447e-05,-0.000164598634656,0.99999998553,0.0,0.0,0.0,0.0,0.0,0.0
1609043659664602518,159,1609043659664602518,0.00189133314303,-0.000488169766549,-0.00193469617028,4.5578801073e-05,-9.435869002e-05,-1.8774307118e-05,0.999999994333,0.0,0.0,0.0,0.0,0.0,0.0
1609043659767889023,160,1609043659767889023,0.00189133314303,-0.000488169766549,-0.00193469617028,4.5578801073e-05,-9.435869002e-05,-1.8774307118e-05,0.999999994333,0.0,0.0,0.0,0.0,0.0,0.0
1609043659870728493,161,1609043659870728493,-8.38627595041e-05,0.00148658901079,-0.0015982558947,1.37307438588e-05,-7.09625406686e-05,-6.32044976199e-05,0.99999999539,0.0,0.0,0.0,0.0,0.0,0.0
1609043659980032444,162,1609043659980032444,-8.38627595041e-05,0.00148658901079,-0.0015982558947,1.37307438588e-05,-7.09625406686e-05,-6.32044976199e-05,0.99999999539,0.0,0.0,0.0,0.0,0.0,0.0
1609043660082999706,163,1609043660082999706,0.000400366057578,0.00187026927095,0.000197804348182,3.05323711918e-06,-8.95784113918e-06,-0.000157012228173,0.999999987629,0.0,0.0,0.0,0.0,0.0,0.0
1609043660186392784,164,1609043660186392784,0.000400366057578,0.00187026927095,0.000197804348182,3.05323711918e-06,-8.95784113918e-06,-0.000157012228173,0.999999987629,0.0,0.0,0.0,0.0,0.0,0.0
1609043660257445812,165,1609043660257445812,0.000584184511915,0.00181722984987,-0.00166540479182,1.55531660041e-05,-6.12074804229e-05,-0.000146326441017,0.9999999873,0.0,0.0,0.0,0.0,0.0,0.0
1609043660358417749,166,1609043660358417749,0.000584184511915,0.00181722984987,-0.00166540479182,1.55531660041e-05,-6.12074804229e-05,-0.000146326441017,0.9999999873,0.0,0.0,0.0,0.0,0.0,0.0
1609043660461256742,167,1609043660461256742,0.000304990853277,0.000672564119193,-0.000690448859952,2.12041885916e-05,-4.49743660561e-05,-0.000143466777567,0.999999988472,0.0,0.0,0.0,0.0,0.0,0.0
1609043660564266443,168,1609043660564266443,0.000304990853277,0.000672564119193,-0.000690448859952,2.12041885916e-05,-4.49743660561e-05,-0.000143466777567,0.999999988472,0.0,0.0,0.0,0.0,0.0,0.0
1609043660667532206,169,1609043660667532206,-0.00150853916986,0.00259271804788,-0.000924609915655,1.01155814702e-05,-5.70061078827e-05,5.65503207665e-07,0.999999998324,0.0,0.0,0.0,0.0,0.0,0.0
1609043660771424294,170,1609043660771424294,-0.00150853916986,0.00259271804788,-0.000924609915655,1.01155814702e-05,-5.70061078827e-05,5.65503207665e-07,0.999999998324,0.0,0.0,0.0,0.0,0.0,0.0
1609043660873684883,171,1609043660873684883,0.000594979850678,0.000631242125449,-0.00148034705832,3.52707811757e-05,-8.07589718282e-05,-7.01800982383e-05,0.999999993654,0.0,0.0,0.0,0.0,0.0,0.0
1609043660977250576,172,1609043660977250576,0.000594979850678,0.000631242125449,-0.00148034705832,3.52707811757e-05,-8.07589718282e-05,-7.01800982383e-05,0.999999993654,0.0,0.0,0.0,0.0,0.0,0.0
1609043661080220938,173,1609043661080220938,-0.000119608048613,0.00368540976688,-0.000666448726824,5.02528045518e-06,-3.69284709038e-05,-0.000118213762626,0.999999992318,0.0,0.0,0.0,0.0,0.0,0.0
1609043661183395386,174,1609043661183395386,-0.000119608048613,0.00368540976688,-0.000666448726824,5.02528045518e-06,-3.69284709038e-05,-0.000118213762626,0.999999992318,0.0,0.0,0.0,0.0,0.0,0.0
1609043661286161184,175,1609043661286161184,-0.000409759620899,-0.000607126827816,0.000637014660975,-8.28432679494e-05,6.782414164e-05,-0.000179417339664,0.999999978173,0.0,0.0,0.0,0.0,0.0,0.0
1609043661356396914,176,1609043661356396914,0.00152803583958,0.000391404277902,-0.000530092299453,1.38493765437e-05,-1.86485391235e-05,-8.32628186657e-05,0.999999996264,0.0,0.0,0.0,0.0,0.0,0.0
1609043661458095551,177,1609043661458095551,-0.000250110499516,0.00228607481248,-0.000908624234234,2.39288999335e-05,-6.70429196121e-05,-2.75331421453e-05,0.999999997087,0.0,0.0,0.0,0.0,0.0,0.0
1609043661561083794,178,1609043661561083794,-0.000250110499516,0.00228607481248,-0.000908624234234,2.39288999335e-05,-6.70429196121e-05,-2.75331421453e-05,0.999999997087,0.0,0.0,0.0,0.0,0.0,0.0
1609043661664525509,179,1609043661664525509,0.00248120082437,-4.45220205705e-05,-0.00025174146979,2.15840327619e-05,-2.37614235541e-05,-7.02245631573e-05,0.999999997019,0.0,0.0,0.0,0.0,0.0,0.0
1609043661768240929,180,1609043661768240929,0.00248120082437,-4.45220205705e-05,-0.00025174146979,2.15840327619e-05,-2.37614235541e-05,-7.02245631573e-05,0.999999997019,0.0,0.0,0.0,0.0,0.0,0.0
1609043661870469332,181,1609043661870469332,-0.000320274593554,0.00356831121302,0.000818715044773,-2.0231932927e-05,2.19979558522e-05,-7.66604775849e-05,0.999999996615,0.0,0.0,0.0,0.0,0.0,0.0
1609043661973752975,182,1609043661973752975,-0.000320274593554,0.00356831121302,0.000818715044773,-2.0231932927e-05,2.19979558522e-05,-7.66604775849e-05,0.999999996615,0.0,0.0,0.0,0.0,0.0,0.0
1609043662076670408,183,1609043662076670408,0.000340755910335,-0.00178232425279,-0.000612428643798,2.91253987462e-05,-3.60547893882e-05,-4.76564461212e-05,0.99999999779,0.0,0.0,0.0,0.0,0.0,0.0
1609043662183703423,184,1609043662183703423,0.000340755910335,-0.00178232425279,-0.000612428643798,2.91253987462e-05,-3.60547893882e-05,-4.76564461212e-05,0.99999999779,0.0,0.0,0.0,0.0,0.0,0.0
1609043662285902262,185,1609043662285902262,-0.000464732992053,-0.00700394437311,0.00293462502335,-0.000154753293299,-9.08849275179e-05,0.000184531808428,0.99999996687,0.0,0.0,0.0,0.0,0.0,0.0
1609043662356905699,186,1609043662356905699,0.000488069808414,0.00286542693292,-0.000372435435734,7.57896148685e-06,-1.59189449199e-05,-7.29559415778e-05,0.999999997183,0.0,0.0,0.0,0.0,0.0,0.0
1609043662457743645,187,1609043662457743645,0.00132726172029,0.00370879848995,-0.000432577379092,-9.71675395966e-06,-1.79168475587e-05,-2.60225443744e-05,0.999999999454,0.0,0.0,0.0,0.0,0.0,0.0
1609043662561408281,188,1609043662561408281,0.00132726172029,0.00370879848995,-0.000432577379092,-9.71675395966e-06,-1.79168475587e-05,-2.60225443744e-05,0.999999999454,0.0,0.0,0.0,0.0,0.0,0.0
1609043662665227890,189,1609043662665227890,0.000122196618421,0.00298914908152,-0.000874979400785,5.81374930443e-06,-3.90526493998e-05,-0.000129426122021,0.999999990845,0.0,0.0,0.0,0.0,0.0,0.0
1609043662767758131,190,1609043662767758131,0.000122196618421,0.00298914908152,-0.000874979400785,5.81374930443e-06,-3.90526493998e-05,-0.000129426122021,0.999999990845,0.0,0.0,0.0,0.0,0.0,0.0
1609043662870408535,191,1609043662870408535,-0.00176038436274,0.00552481869143,-0.000581695434599,-1.70146716521e-05,-3.12805672329e-05,-9.16108618647e-05,0.99999999517,0.0,0.0,0.0,0.0,0.0,0.0
1609043662973894596,192,1609043662973894596,-0.00176038436274,0.00552481869143,-0.000581695434599,-1.70146716521e-05,-3.12805672329e-05,-9.16108618647e-05,0.99999999517,0.0,0.0,0.0,0.0,0.0,0.0
1609043663076516390,193,1609043663076516390,-0.000386034670014,0.00106257035139,-0.000570656415488,1.61530655556e-05,-2.64102513249e-05,-4.10436258295e-05,0.999999998678,0.0,0.0,0.0,0.0,0.0,0.0
1609043663179625988,194,1609043663179625988,-0.000386034670014,0.00106257035139,-0.000570656415488,1.61530655556e-05,-2.64102513249e-05,-4.10436258295e-05,0.999999998678,0.0,0.0,0.0,0.0,0.0,0.0
1609043663283624172,195,1609043663283624172,-0.0019840886312,0.00225641772886,-0.000718384389736,9.47961838704e-07,-4.46295442588e-05,-6.44655610493e-06,0.999999998983,0.0,0.0,0.0,0.0,0.0,0.0
1609043663386454821,196,1609043663386454821,-0.0019840886312,0.00225641772886,-0.000718384389736,9.47961838704e-07,-4.46295442588e-05,-6.44655610493e-06,0.999999998983,0.0,0.0,0.0,0.0,0.0,0.0
1609043663456806898,197,1609043663456806898,0.000898793968994,0.00106651831006,-0.00270256947679,3.94292301785e-05,-0.000107742779356,-0.000144133766802,0.999999983031,0.0,0.0,0.0,0.0,0.0,0.0
1609043663661369562,198,1609043663661369562,0.000898793968994,0.00106651831006,-0.00270256947679,3.94292301785e-05,-0.000107742779356,-0.000144133766802,0.999999983031,0.0,0.0,0.0,0.0,0.0,0.0
1609043663764312029,199,1609043663764312029,0.00271140944813,-0.000155023475272,-0.000176237774468,8.82202390072e-06,-8.52715259893e-06,-8.07711353265e-05,0.999999996663,0.0,0.0,0.0,0.0,0.0,0.0
1609043663867734671,200,1609043663867734671,0.00271140944813,-0.000155023475272,-0.000176237774468,8.82202390072e-06,-8.52715259893e-06,-8.07711353265e-05,0.999999996663,0.0,0.0,0.0,0.0,0.0,0.0
1609043663970978975,201,1609043663970978975,6.17639300869e-05,0.000806257795178,-0.00110021699869,2.84151481798e-05,-5.31519610883e-05,-9.47011615305e-05,0.9999999937,0.0,0.0,0.0,0.0,0.0,0.0
1609043664074723482,202,1609043664074723482,6.17639300869e-05,0.000806257795178,-0.00110021699869,2.84151481798e-05,-5.31519610883e-05,-9.47011615305e-05,0.9999999937,0.0,0.0,0.0,0.0,0.0,0.0
1609043664176994801,203,1609043664176994801,0.0005212681707,0.00149423594894,-0.00270459860895,4.45383566893e-05,-0.000117237374039,-0.000115237623314,0.999999985496,0.0,0.0,0.0,0.0,0.0,0.0
1609043664279771090,204,1609043664279771090,0.0005212681707,0.00149423594894,-0.00270459860895,4.45383566893e-05,-0.000117237374039,-0.000115237623314,0.999999985496,0.0,0.0,0.0,0.0,0.0,0.0
1609043664383482695,205,1609043664383482695,-0.00239729184773,0.00587893986017,-0.00211749786714,2.01189625151e-05,-8.27697112089e-05,-0.000261899511765,0.999999962077,0.0,0.0,0.0,0.0,0.0,0.0
1609043664486382484,206,1609043664486382484,-0.00239729184773,0.00587893986017,-0.00211749786714,2.01189625151e-05,-8.27697112089e-05,-0.000261899511765,0.999999962077,0.0,0.0,0.0,0.0,0.0,0.0
1609043664658283234,207,1609043664658283234,0.000738667153164,0.00473782418205,-0.000530562663473,-4.18403078381e-06,-1.38696078731e-05,-0.000195847090251,0.999999980717,0.0,0.0,0.0,0.0,0.0,0.0
1609043664761707067,208,1609043664761707067,0.000738667153164,0.00473782418205,-0.000530562663473,-4.18403078381e-06,-1.38696078731e-05,-0.000195847090251,0.999999980717,0.0,0.0,0.0,0.0,0.0,0.0
1609043664864668608,209,1609043664864668608,0.00198157771293,0.00168668762532,-6.92469602461e-05,3.97864511044e-06,-2.35756092703e-05,-5.29312267041e-05,0.999999998313,0.0,0.0,0.0,0.0,0.0,0.0
1609043664967721462,210,1609043664967721462,0.00198157771293,0.00168668762532,-6.92469602461e-05,3.97864511044e-06,-2.35756092703e-05,-5.29312267041e-05,0.999999998313,0.0,0.0,0.0,0.0,0.0,0.0
1609043665072690248,211,1609043665072690248,0.00149627177196,0.00140516634072,0.000471319257376,-6.97944412614e-06,2.01120419787e-05,-0.000118925972537,0.999999992702,0.0,0.0,0.0,0.0,0.0,0.0
1609043665173795462,212,1609043665173795462,0.00149627177196,0.00140516634072,0.000471319257376,-6.97944412614e-06,2.01120419787e-05,-0.000118925972537,0.999999992702,0.0,0.0,0.0,0.0,0.0,0.0
1609043665277086020,213,1609043665277086020,3.47418505489e-05,-0.00197836371363,-0.000535179794722,2.84910831096e-05,-3.292772651e-05,-3.09072556804e-05,0.999999998574,0.0,0.0,0.0,0.0,0.0,0.0
1609043665380308867,214,1609043665380308867,3.47418505489e-05,-0.00197836371363,-0.000535179794722,2.84910831096e-05,-3.292772651e-05,-3.09072556804e-05,0.999999998574,0.0,0.0,0.0,0.0,0.0,0.0
1609043665483161211,215,1609043665483161211,0.00145339085912,0.000370123509846,-0.00153399753348,2.49980628332e-05,-6.13531715163e-05,-0.000128138434873,0.999999989596,0.0,0.0,0.0,0.0,0.0,0.0
1609043665558884621,216,1609043665558884621,0.00145339085912,0.000370123509846,-0.00153399753348,2.49980628332e-05,-6.13531715163e-05,-0.000128138434873,0.999999989596,0.0,0.0,0.0,0.0,0.0,0.0
1609043665661927462,217,1609043665661927462,0.00161960442446,0.00218117130894,-0.0023999225973,2.42725854822e-05,-7.86211661531e-05,-6.41597285959e-05,0.999999994557,0.0,0.0,0.0,0.0,0.0,0.0
1609043665765120983,218,1609043665765120983,0.00161960442446,0.00218117130894,-0.0023999225973,2.42725854822e-05,-7.86211661531e-05,-6.41597285959e-05,0.999999994557,0.0,0.0,0.0,0.0,0.0,0.0
1609043665867801666,219,1609043665867801666,0.0036706394508,0.00210749563181,-0.000397685189251,1.29610465534e-06,-4.05604532537e-06,-0.000117510269138,0.999999993087,0.0,0.0,0.0,0.0,0.0,0.0
1609043665970709085,220,1609043665970709085,0.0036706394508,0.00210749563181,-0.000397685189251,1.29610465534e-06,-4.05604532537e-06,-0.000117510269138,0.999999993087,0.0,0.0,0.0,0.0,0.0,0.0
1609043666074698210,221,1609043666074698210,0.000742823532769,0.00145180401095,0.000479018644876,-2.24085006397e-06,3.44717971694e-06,-6.22408806584e-05,0.999999998055,0.0,0.0,0.0,0.0,0.0,0.0
1609043666181234121,222,1609043666181234121,0.000742823532769,0.00145180401095,0.000479018644876,-2.24085006397e-06,3.44717971694e-06,-6.22408806584e-05,0.999999998055,0.0,0.0,0.0,0.0,0.0,0.0
1609043666258632421,223,1609043666258632421,-0.000791326089057,0.000550521464924,1.58746162155e-05,2.43558566561e-05,-4.84777729292e-05,-6.37683260501e-05,0.999999996495,0.0,0.0,0.0,0.0,0.0,0.0
1609043666360102177,224,1609043666360102177,-0.000791326089057,0.000550521464924,1.58746162155e-05,2.43558566561e-05,-4.84777729292e-05,-6.37683260501e-05,0.999999996495,0.0,0.0,0.0,0.0,0.0,0.0
1609043666464158535,225,1609043666464158535,0.00301711475878,-0.000379332556161,-0.00061250765949,1.82352533203e-05,-7.26000720367e-06,-9.28643705536e-05,0.999999995495,0.0,0.0,0.0,0.0,0.0,0.0
1609043666566326380,226,1609043666566326380,0.00301711475878,-0.000379332556161,-0.00061250765949,1.82352533203e-05,-7.26000720367e-06,-9.28643705536e-05,0.999999995495,0.0,0.0,0.0,0.0,0.0,0.0
1609043666669156790,227,1609043666669156790,-0.000602436643473,0.00292434428733,-0.000875186009682,4.5366952954e-06,-3.09448843946e-05,-8.76126938566e-05,0.999999995673,0.0,0.0,0.0,0.0,0.0,0.0
1609043666772404432,228,1609043666772404432,-0.000602436643473,0.00292434428733,-0.000875186009682,4.5366952954e-06,-3.09448843946e-05,-8.76126938566e-05,0.999999995673,0.0,0.0,0.0,0.0,0.0,0.0
1609043666876152277,229,1609043666876152277,0.000739704451895,-0.000307827541577,-0.000909356354881,3.73011638874e-05,-5.92936640154e-05,-1.97117206722e-05,0.999999997352,0.0,0.0,0.0,0.0,0.0,0.0
1609043666978578091,230,1609043666978578091,0.000739704451895,-0.000307827541577,-0.000909356354881,3.73011638874e-05,-5.92936640154e-05,-1.97117206722e-05,0.999999997352,0.0,0.0,0.0,0.0,0.0,0.0
1609043667082442760,231,1609043667082442760,0.00127995134375,0.000681536079518,-0.000457580330363,4.59751791364e-06,-2.59055105438e-05,-3.3759391422e-05,0.999999999084,0.0,0.0,0.0,0.0,0.0,0.0
1609043667184716702,232,1609043667184716702,0.00127995134375,0.000681536079518,-0.000457580330363,4.59751791364e-06,-2.59055105438e-05,-3.3759391422e-05,0.999999999084,0.0,0.0,0.0,0.0,0.0,0.0
1609043667256566048,233,1609043667256566048,0.00183805655236,-0.00190762369934,0.000180152244338,1.51000990521e-05,8.96627883066e-06,-2.92560401878e-05,0.999999999418,0.0,0.0,0.0,0.0,0.0,0.0
1609043667358994246,234,1609043667358994246,0.00183805655236,-0.00190762369934,0.000180152244338,1.51000990521e-05,8.96627883066e-06,-2.92560401878e-05,0.999999999418,0.0,0.0,0.0,0.0,0.0,0.0
1609043667460701704,235,1609043667460701704,-0.000150576739503,0.00428144188863,-0.00102828565932,7.23897229517e-06,-4.35170787865e-05,-0.000110960272749,0.999999992871,0.0,0.0,0.0,0.0,0.0,0.0
1609043667563713789,236,1609043667563713789,-0.000150576739503,0.00428144188863,-0.00102828565932,7.23897229517e-06,-4.35170787865e-05,-0.000110960272749,0.999999992871,0.0,0.0,0.0,0.0,0.0,0.0
1609043667665854692,237,1609043667665854692,-0.000564924296164,0.00135616385472,7.7487156167e-05,4.23338201217e-06,-6.6975779224e-06,-6.9566580337e-05,0.999999997549,0.0,0.0,0.0,0.0,0.0,0.0
1609043667769175291,238,1609043667769175291,-0.000564924296164,0.00135616385472,7.7487156167e-05,4.23338201217e-06,-6.6975779224e-06,-6.9566580337e-05,0.999999997549,0.0,0.0,0.0,0.0,0.0,0.0
1609043667874624014,239,1609043667874624014,-0.000197480441065,0.00518845979288,-6.81184567556e-05,-1.67420171944e-05,2.32870209568e-06,-0.000196488573198,0.999999980553,0.0,0.0,0.0,0.0,0.0,0.0
1609043667981836557,240,1609043667981836557,-0.000197480441065,0.00518845979288,-6.81184567556e-05,-1.67420171944e-05,2.32870209568e-06,-0.000196488573198,0.999999980553,0.0,0.0,0.0,0.0,0.0,0.0
1609043668084876776,241,1609043668084876776,0.000773945732805,0.00227451326269,-0.00051078351557,1.40847140779e-05,-2.9556672103e-05,-0.000115573175745,0.999999992785,0.0,0.0,0.0,0.0,0.0,0.0
1609043668156872034,242,1609043668156872034,0.000773945732805,0.00227451326269,-0.00051078351557,1.40847140779e-05,-2.9556672103e-05,-0.000115573175745,0.999999992785,0.0,0.0,0.0,0.0,0.0,0.0
1609043668257738829,243,1609043668257738829,-0.000499047095068,0.00470332027173,0.000324962867719,-7.22299528165e-06,1.55063629105e-05,-0.00016025898518,0.999999987012,0.0,0.0,0.0,0.0,0.0,0.0
1609043668369698286,244,1609043668369698286,-0.000499047095068,0.00470332027173,0.000324962867719,-7.22299528165e-06,1.55063629105e-05,-0.00016025898518,0.999999987012,0.0,0.0,0.0,0.0,0.0,0.0
1609043668472450018,245,1609043668472450018,0.000834520560045,0.0030883624086,0.000219944714828,6.99800615321e-06,-2.00511993528e-05,-0.000140513242969,0.999999989903,0.0,0.0,0.0,0.0,0.0,0.0
1609043668576153994,246,1609043668576153994,0.000834520560045,0.0030883624086,0.000219944714828,6.99800615321e-06,-2.00511993528e-05,-0.000140513242969,0.999999989903,0.0,0.0,0.0,0.0,0.0,0.0
1609043668679510355,247,1609043668679510355,0.00294820183783,-0.003189290543,-0.000219352567996,3.01439156168e-05,-3.37646717277e-05,-7.61671141746e-06,0.999999998947,0.0,0.0,0.0,0.0,0.0,0.0
1609043668861402035,248,1609043668861402035,0.00294820183783,-0.003189290543,-0.000219352567996,3.01439156168e-05,-3.37646717277e-05,-7.61671141746e-06,0.999999998947,0.0,0.0,0.0,0.0,0.0,0.0
1609043668967531204,249,1609043668967531204,0.00221971878097,0.00174326980253,0.000147857406862,7.38565082498e-06,-2.29703309017e-06,-0.0001600990838,0.999999987154,0.0,0.0,0.0,0.0,0.0,0.0
1609043669075342655,250,1609043669075342655,0.00221971878097,0.00174326980253,0.000147857406862,7.38565082498e-06,-2.29703309017e-06,-0.0001600990838,0.999999987154,0.0,0.0,0.0,0.0,0.0,0.0
1609043669178456545,251,1609043669178456545,-0.000233755126085,0.000316360444127,-0.00203219301405,4.67373166528e-05,-9.17244736203e-05,-6.90193628253e-05,0.999999992319,0.0,0.0,0.0,0.0,0.0,0.0
1609043669283041716,252,1609043669283041716,-0.000233755126085,0.000316360444127,-0.00203219301405,4.67373166528e-05,-9.17244736203e-05,-6.90193628253e-05,0.999999992319,0.0,0.0,0.0,0.0,0.0,0.0
1609043669356589317,253,1609043669356589317,-0.000323232888504,0.00350324173005,-0.000442557305643,1.40193443028e-05,-1.50589307076e-05,-8.56663065266e-05,0.999999996119,0.0,0.0,0.0,0.0,0.0,0.0
1609043669458377600,254,1609043669458377600,-0.000323232888504,0.00350324173005,-0.000442557305643,1.40193443028e-05,-1.50589307076e-05,-8.56663065266e-05,0.999999996119,0.0,0.0,0.0,0.0,0.0,0.0
1609043669561326265,255,1609043669561326265,0.000640810433374,0.00204894621988,-0.000633403103613,1.74840615864e-05,-1.29206805199e-05,-5.69171345439e-05,0.999999998144,0.0,0.0,0.0,0.0,0.0,0.0
1609043669664672613,256,1609043669664672613,0.000640810433374,0.00204894621988,-0.000633403103613,1.74840615864e-05,-1.29206805199e-05,-5.69171345439e-05,0.999999998144,0.0,0.0,0.0,0.0,0.0,0.0
1609043669767797709,257,1609043669767797709,0.00218720695821,-0.00355090308752,-0.000461796082601,2.05569421569e-05,-7.32947966674e-06,6.43542677605e-05,0.999999997691,0.0,0.0,0.0,0.0,0.0,0.0
1609043669870740891,258,1609043669870740891,0.00218720695821,-0.00355090308752,-0.000461796082601,2.05569421569e-05,-7.32947966674e-06,6.43542677605e-05,0.999999997691,0.0,0.0,0.0,0.0,0.0,0.0
1609043669974768639,259,1609043669974768639,-0.000426830409735,0.00265641593711,-0.00153673450281,1.66943245905e-05,-5.74181382159e-05,-0.000135474309825,0.999999989036,0.0,0.0,0.0,0.0,0.0,0.0
1609043670077357054,260,1609043670077357054,-0.000426830409735,0.00265641593711,-0.00153673450281,1.66943245905e-05,-5.74181382159e-05,-0.000135474309825,0.999999989036,0.0,0.0,0.0,0.0,0.0,0.0
1609043670180481911,261,1609043670180481911,0.00128945682768,-9.78210990936e-05,-0.000939575480597,1.95579622761e-05,-2.9568641262e-05,-6.96309285829e-05,0.999999996947,0.0,0.0,0.0,0.0,0.0,0.0
1609043670282839537,262,1609043670282839537,0.00128945682768,-9.78210990936e-05,-0.000939575480597,1.95579622761e-05,-2.9568641262e-05,-6.96309285829e-05,0.999999996947,0.0,0.0,0.0,0.0,0.0,0.0
1609043670385955572,263,1609043670385955572,0.00427363353557,-0.0102453413338,0.00120072976537,0.000188659401042,-7.85680502877e-05,3.79693545667e-05,0.999999978397,0.0,0.0,0.0,0.0,0.0,0.0
1609043670456449270,264,1609043670456449270,0.00209025199191,-0.000531632597526,-0.000356174389823,1.52436364565e-05,-2.29840925575e-05,2.99782673587e-05,0.99999999917,0.0,0.0,0.0,0.0,0.0,0.0
1609043670558374166,265,1609043670558374166,0.00114330971959,8.25231133019e-05,-0.00139423147902,3.78242875729e-05,-8.0450195892e-05,-3.82954466022e-05,0.999999995315,0.0,0.0,0.0,0.0,0.0,0.0
1609043670661405802,266,1609043670661405802,0.00114330971959,8.25231133019e-05,-0.00139423147902,3.78242875729e-05,-8.0450195892e-05,-3.82954466022e-05,0.999999995315,0.0,0.0,0.0,0.0,0.0,0.0
1609043670764571667,267,1609043670764571667,-0.000664173882725,-4.92545190645e-06,-0.00225610128383,5.21224530519e-05,-0.000100583198518,-5.03841658078e-06,0.99999999357,0.0,0.0,0.0,0.0,0.0,0.0
1609043670867654324,268,1609043670867654324,-0.000664173882725,-4.92545190645e-06,-0.00225610128383,5.21224530519e-05,-0.000100583198518,-5.03841658078e-06,0.99999999357,0.0,0.0,0.0,0.0,0.0,0.0
1609043670970948458,269,1609043670970948458,0.00129587630192,0.00288134650038,-0.00154014395233,2.36252683171e-05,-6.38670126157e-05,-9.96932214023e-05,0.999999992712,0.0,0.0,0.0,0.0,0.0,0.0
1609043671074268579,270,1609043671074268579,0.00129587630192,0.00288134650038,-0.00154014395233,2.36252683171e-05,-6.38670126157e-05,-9.96932214023e-05,0.999999992712,0.0,0.0,0.0,0.0,0.0,0.0
1609043671177553177,271,1609043671177553177,-0.000486227694849,-0.000738103599061,-0.00157132734629,2.84743170097e-05,-8.43774078177e-05,-3.92075730158e-05,0.999999995266,0.0,0.0,0.0,0.0,0.0,0.0
1609043671280499458,272,1609043671280499458,-0.000486227694849,-0.000738103599061,-0.00157132734629,2.84743170097e-05,-8.43774078177e-05,-3.92075730158e-05,0.999999995266,0.0,0.0,0.0,0.0,0.0,0.0
1609043671384469509,273,1609043671384469509,-0.00119712614038,0.00592830794589,-0.000724265092454,-2.83152799392e-06,-3.59939152244e-05,-0.000220422059062,0.999999975055,0.0,0.0,0.0,0.0,0.0,0.0
1609043671489806175,274,1609043671489806175,-0.00119712614038,0.00592830794589,-0.000724265092454,-2.83152799392e-06,-3.59939152244e-05,-0.000220422059062,0.999999975055,0.0,0.0,0.0,0.0,0.0,0.0
1609043671558113098,275,1609043671558113098,0.000535136198029,0.00133541367715,-0.0013352248623,1.94140615643e-05,-5.57280411199e-05,-3.81782336584e-05,0.99999999753,0.0,0.0,0.0,0.0,0.0,0.0
1609043671658515692,276,1609043671658515692,0.000535136198029,0.00133541367715,-0.0013352248623,1.94140615643e-05,-5.57280411199e-05,-3.81782336584e-05,0.99999999753,0.0,0.0,0.0,0.0,0.0,0.0
1609043671761777401,277,1609043671761777401,0.00100270555047,-0.000130890588249,-0.000131645272629,2.02359678234e-05,-1.58756681169e-05,-4.5387699878e-05,0.999999998639,0.0,0.0,0.0,0.0,0.0,0.0
1609043671872451544,278,1609043671872451544,0.00100270555047,-0.000130890588249,-0.000131645272629,2.02359678234e-05,-1.58756681169e-05,-4.5387699878e-05,0.999999998639,0.0,0.0,0.0,0.0,0.0,0.0
1609043671974337339,279,1609043671974337339,0.00190751522933,0.0038693222499,0.00153873009014,-2.04530008432e-05,3.83678841873e-05,-8.5818531625e-05,0.999999995372,0.0,0.0,0.0,0.0,0.0,0.0
1609043672077321529,280,1609043672077321529,0.00190751522933,0.0038693222499,0.00153873009014,-2.04530008432e-05,3.83678841873e-05,-8.5818531625e-05,0.999999995372,0.0,0.0,0.0,0.0,0.0,0.0
1609043672180401087,281,1609043672180401087,0.000554498530673,0.000386910312865,-0.000206531132328,1.12436188619e-05,-6.64859662428e-06,-2.2834363425e-05,0.999999999654,0.0,0.0,0.0,0.0,0.0,0.0
1609043672283194542,282,1609043672283194542,0.000554498530673,0.000386910312865,-0.000206531132328,1.12436188619e-05,-6.64859662428e-06,-2.2834363425e-05,0.999999999654,0.0,0.0,0.0,0.0,0.0,0.0
1609043672389885426,283,1609043672389885426,6.8334052696e-05,-0.00199561535722,-0.00132323007682,3.66331844205e-05,-5.47333130762e-05,-1.4906396741e-05,0.99999999772,0.0,0.0,0.0,0.0,0.0,0.0
1609043672457178354,284,1609043672457178354,6.8334052696e-05,-0.00199561535722,-0.00132323007682,3.66331844205e-05,-5.47333130762e-05,-1.4906396741e-05,0.99999999772,0.0,0.0,0.0,0.0,0.0,0.0
1609043672561815500,285,1609043672561815500,0.000127933136321,0.00149589936191,-0.000480851440524,1.37362761072e-05,-4.35434597718e-05,-0.000196079404025,0.999999979734,0.0,0.0,0.0,0.0,0.0,0.0
1609043672661930084,286,1609043672661930084,0.000127933136321,0.00149589936191,-0.000480851440524,1.37362761072e-05,-4.35434597718e-05,-0.000196079404025,0.999999979734,0.0,0.0,0.0,0.0,0.0,0.0
1609043672765889406,287,1609043672765889406,-0.00111439990744,0.00414875680415,-0.000858745423011,-1.16357006131e-06,-4.43004208606e-05,-0.000144419631695,0.99999998859,0.0,0.0,0.0,0.0,0.0,0.0
1609043672869439602,288,1609043672869439602,-0.00111439990744,0.00414875680415,-0.000858745423011,-1.16357006131e-06,-4.43004208606e-05,-0.000144419631695,0.99999998859,0.0,0.0,0.0,0.0,0.0,0.0
1609043672971505404,289,1609043672971505404,0.000408949587064,-0.000382275573822,0.000197887430199,5.58827572743e-06,-1.24231971977e-05,-7.78592265123e-05,0.999999996876,0.0,0.0,0.0,0.0,0.0,0.0
1609043673073864698,290,1609043673073864698,0.000408949587064,-0.000382275573822,0.000197887430199,5.58827572743e-06,-1.24231971977e-05,-7.78592265123e-05,0.999999996876,0.0,0.0,0.0,0.0,0.0,0.0
1609043673177118301,291,1609043673177118301,0.000892873051885,0.00426125000709,-0.00179197888544,2.01312477523e-05,-7.07476971365e-05,-0.000112705587162,0.999999990943,0.0,0.0,0.0,0.0,0.0,0.0
1609043673280866861,292,1609043673280866861,0.000892873051885,0.00426125000709,-0.00179197888544,2.01312477523e-05,-7.07476971365e-05,-0.000112705587162,0.999999990943,0.0,0.0,0.0,0.0,0.0,0.0
1609043673384187460,293,1609043673384187460,8.96280628185e-05,0.000711646403983,-0.00140640681315,9.92975450659e-06,-5.66745088783e-05,-6.96365361416e-05,0.99999999592,0.0,0.0,0.0,0.0,0.0,0.0
1609043673486265659,294,1609043673486265659,8.96280628185e-05,0.000711646403983,-0.00140640681315,9.92975450659e-06,-5.66745088783e-05,-6.96365361416e-05,0.99999999592,0.0,0.0,0.0,0.0,0.0,0.0
1609043673556525946,295,1609043673556525946,-0.000539889219979,2.77429502019e-06,-0.000495730517899,1.63037849081e-05,-3.74646658577e-05,-9.54711347062e-05,0.999999994608,0.0,0.0,0.0,0.0,0.0,0.0
1609043673658455372,296,1609043673658455372,-0.000539889219979,2.77429502019e-06,-0.000495730517899,1.63037849081e-05,-3.74646658577e-05,-9.54711347062e-05,0.999999994608,0.0,0.0,0.0,0.0,0.0,0.0
1609043673763788700,297,1609043673763788700,0.00109235947031,5.57286174691e-05,-0.0010950048792,2.40545406892e-05,-6.54068711598e-05,-5.5864191615e-05,0.999999996011,0.0,0.0,0.0,0.0,0.0,0.0
1609043673866989851,298,1609043673866989851,0.00109235947031,5.57286174691e-05,-0.0010950048792,2.40545406892e-05,-6.54068711598e-05,-5.5864191615e-05,0.999999996011,0.0,0.0,0.0,0.0,0.0,0.0
1609043673967819691,299,1609043673967819691,-6.34812295618e-05,0.00133485209368,0.000179813550189,-1.7686919936e-06,-1.37054487862e-05,-4.6747441131e-05,0.999999998812,0.0,0.0,0.0,0.0,0.0,0.0
1609043674070949078,300,1609043674070949078,-6.34812295618e-05,0.00133485209368,0.000179813550189,-1.7686919936e-06,-1.37054487862e-05,-4.6747441131e-05,0.999999998812,0.0,0.0,0.0,0.0,0.0,0.0
1609043674175453901,301,1609043674175453901,0.00181346680783,-0.00327405568273,-0.000977975036657,3.14495385091e-05,-5.6797954741e-05,2.85755096648e-05,0.999999997484,0.0,0.0,0.0,0.0,0.0,0.0
1609043674278709888,302,1609043674278709888,0.00181346680783,-0.00327405568273,-0.000977975036657,3.14495385091e-05,-5.6797954741e-05,2.85755096648e-05,0.999999997484,0.0,0.0,0.0,0.0,0.0,0.0
1609043674380568743,303,1609043674380568743,-0.000627448730331,0.00125749652377,-0.00166195908686,3.14480193636e-05,-8.36774510055e-05,-0.000103338758952,0.999999990665,0.0,0.0,0.0,0.0,0.0,0.0
1609043674486509562,304,1609043674486509562,-0.000627448730331,0.00125749652377,-0.00166195908686,3.14480193636e-05,-8.36774510055e-05,-0.000103338758952,0.999999990665,0.0,0.0,0.0,0.0,0.0,0.0
1609043674557726383,305,1609043674557726383,0.00223349643264,-0.00109690714833,-0.000843648830285,3.21658132679e-05,-6.65161728919e-05,1.70686808604e-05,0.999999997125,0.0,0.0,0.0,0.0,0.0,0.0
1609043674658894539,306,1609043674658894539,0.00223349643264,-0.00109690714833,-0.000843648830285,3.21658132679e-05,-6.65161728919e-05,1.70686808604e-05,0.999999997125,0.0,0.0,0.0,0.0,0.0,0.0
1609043674762137413,307,1609043674762137413,0.00130985105723,0.00238096093563,0.000235034994231,8.17947955076e-07,1.3322574126e-05,-0.000155283904033,0.999999987854,0.0,0.0,0.0,0.0,0.0,0.0
1609043674864768267,308,1609043674864768267,0.00130985105723,0.00238096093563,0.000235034994231,8.17947955076e-07,1.3322574126e-05,-0.000155283904033,0.999999987854,0.0,0.0,0.0,0.0,0.0,0.0
1609043674967703342,309,1609043674967703342,0.00135870621651,-0.000756648762425,8.90865041545e-05,1.73082788192e-05,-2.25433667943e-08,-5.36936344772e-05,0.999999998409,0.0,0.0,0.0,0.0,0.0,0.0
1609043675070831060,310,1609043675070831060,0.00135870621651,-0.000756648762425,8.90865041545e-05,1.73082788192e-05,-2.25433667943e-08,-5.36936344772e-05,0.999999998409,0.0,0.0,0.0,0.0,0.0,0.0
1609043675175945997,311,1609043675175945997,0.00196312182254,2.60413204094e-05,-0.000432897197572,2.59342504442e-05,-4.18449375042e-05,-0.000107477476649,0.999999993013,0.0,0.0,0.0,0.0,0.0,0.0
1609043675276805162,312,1609043675276805162,0.00196312182254,2.60413204094e-05,-0.000432897197572,2.59342504442e-05,-4.18449375042e-05,-0.000107477476649,0.999999993013,0.0,0.0,0.0,0.0,0.0,0.0
1609043675379696608,313,1609043675379696608,0.00120018607847,1.23300448162e-05,-0.000321636608072,1.40699574444e-05,-2.3971410716e-05,-0.000102361416405,0.999999994375,0.0,0.0,0.0,0.0,0.0,0.0
1609043675484305859,314,1609043675484305859,0.00120018607847,1.23300448162e-05,-0.000321636608072,1.40699574444e-05,-2.3971410716e-05,-0.000102361416405,0.999999994375,0.0,0.0,0.0,0.0,0.0,0.0
1609043675586269379,315,1609043675586269379,0.00182413526075,-0.00437262593496,-0.0023170676521,-9.87820395834e-05,-5.8303053384e-05,-1.90821347211e-05,0.999999993239,0.0,0.0,0.0,0.0,0.0,0.0
1609043675656328917,316,1609043675656328917,0.000810828187684,0.00542309028251,0.000522858467424,-2.69429817322e-05,4.45773871705e-05,-0.000185371230302,0.999999981462,0.0,0.0,0.0,0.0,0.0,0.0
1609043675758325100,317,1609043675758325100,0.00144637140929,0.00130155219567,-0.00115440472427,1.526938607e-05,-1.67305654192e-05,-0.000144439157735,0.999999989312,0.0,0.0,0.0,0.0,0.0,0.0
1609043675861519575,318,1609043675861519575,0.00144637140929,0.00130155219567,-0.00115440472427,1.526938607e-05,-1.67305654192e-05,-0.000144439157735,0.999999989312,0.0,0.0,0.0,0.0,0.0,0.0
1609043675964497566,319,1609043675964497566,0.00202812856209,-0.00202942369862,-0.0010432865504,3.94326702881e-05,-7.5637881704e-05,-1.66430182633e-06,0.999999996361,0.0,0.0,0.0,0.0,0.0,0.0
1609043676067419767,320,1609043676067419767,0.00202812856209,-0.00202942369862,-0.0010432865504,3.94326702881e-05,-7.5637881704e-05,-1.66430182633e-06,0.999999996361,0.0,0.0,0.0,0.0,0.0,0.0
1609043676170366049,321,1609043676170366049,0.00277375187455,0.0034786078267,0.000137339624296,-5.94061386054e-06,-6.54748339714e-06,-0.000151924310837,0.99999998842,0.0,0.0,0.0,0.0,0.0,0.0
1609043676273576975,322,1609043676273576975,0.00277375187455,0.0034786078267,0.000137339624296,-5.94061386054e-06,-6.54748339714e-06,-0.000151924310837,0.99999998842,0.0,0.0,0.0,0.0,0.0,0.0
1609043676377115250,323,1609043676377115250,0.00250857422405,0.00137582105372,-0.000754595186058,1.9717484929e-05,-7.66659206604e-07,-0.000123146918133,0.999999992223,0.0,0.0,0.0,0.0,0.0,0.0
1609043676479820490,324,1609043676479820490,0.00250857422405,0.00137582105372,-0.000754595186058,1.9717484929e-05,-7.66659206604e-07,-0.000123146918133,0.999999992223,0.0,0.0,0.0,0.0,0.0,0.0
1609043676583160400,325,1609043676583160400,0.00297061259756,0.00447362075277,-0.000316445794759,-9.03936051661e-06,-9.93208466152e-06,-0.000175330291908,0.999999984539,0.0,0.0,0.0,0.0,0.0,0.0
1609043676686212540,326,1609043676686212540,0.00297061259756,0.00447362075277,-0.000316445794759,-9.03936051661e-06,-9.93208466152e-06,-0.000175330291908,0.999999984539,0.0,0.0,0.0,0.0,0.0,0.0
1609043676756862402,327,1609043676756862402,0.00247656291163,0.00122484131082,-0.000491320950338,1.46844872312e-05,-3.03986179675e-05,-4.70590580619e-05,0.999999998323,0.0,0.0,0.0,0.0,0.0,0.0
1609043676857973814,328,1609043676857973814,0.00247656291163,0.00122484131082,-0.000491320950338,1.46844872312e-05,-3.03986179675e-05,-4.70590580619e-05,0.999999998323,0.0,0.0,0.0,0.0,0.0,0.0
1609043676961449385,329,1609043676961449385,8.35079828048e-05,0.00387747588244,-0.000300492658462,5.86529485262e-07,-1.9731932342e-05,-0.000139550812847,0.999999990068,0.0,0.0,0.0,0.0,0.0,0.0
1609043677064424992,330,1609043677064424992,8.35079828048e-05,0.00387747588244,-0.000300492658462,5.86529485262e-07,-1.9731932342e-05,-0.000139550812847,0.999999990068,0.0,0.0,0.0,0.0,0.0,0.0
1609043677167688608,331,1609043677167688608,0.00220622694968,0.00138224108591,0.0001503851278,5.28465705132e-06,-4.71481516731e-06,-0.000145872100595,0.999999989336,0.0,0.0,0.0,0.0,0.0,0.0
1609043677270481110,332,1609043677270481110,0.00220622694968,0.00138224108591,0.0001503851278,5.28465705132e-06,-4.71481516731e-06,-0.000145872100595,0.999999989336,0.0,0.0,0.0,0.0,0.0,0.0
1609043677373960257,333,1609043677373960257,0.00108148635547,-0.00343060667652,-0.00129715253447,3.21143036077e-05,-4.34716855099e-05,3.5824974243e-05,0.999999997898,0.0,0.0,0.0,0.0,0.0,0.0
1609043677477940798,334,1609043677477940798,0.00108148635547,-0.00343060667652,-0.00129715253447,3.21143036077e-05,-4.34716855099e-05,3.5824974243e-05,0.999999997898,0.0,0.0,0.0,0.0,0.0,0.0
