%time,field.header.seq,field.header.stamp,field.pose.pose.position.x,field.pose.pose.position.y,field.pose.pose.position.z,field.pose.pose.orientation.x,field.pose.pose.orientation.y,field.pose.pose.orientation.z,field.pose.pose.orientation.w,field.twist.twist.linear.x,field.twist.twist.linear.y,field.twist.twist.linear.z,field.twist.twist.angular.x,field.twist.twist.angular.y,field.twist.twist.angular.z
1609045334550580740,31,1609045334550580740,-0.000100335571119,-0.00217962827631,0.00183872032355,2.73464153258e-05,4.08419565841e-05,-9.85108100047e-06,0.999999998744,0.0,0.0,0.0,0.0,0.0,0.0
1609045334654011011,32,1609045334654011011,-0.000100335571119,-0.00217962827631,0.00183872032355,2.73464153258e-05,4.08419565841e-05,-9.85108100047e-06,0.999999998744,0.0,0.0,0.0,0.0,0.0,0.0
1609045334756903887,33,1609045334756903887,-0.00177106994971,-0.00217985963054,0.000234400479537,-7.38368742036e-06,2.31519786272e-05,-9.64108172456e-05,0.999999995057,0.0,0.0,0.0,0.0,0.0,0.0
1609045334860278845,34,1609045334860278845,-0.00177106994971,-0.00217985963054,0.000234400479537,-7.38368742036e-06,2.31519786272e-05,-9.64108172456e-05,0.999999995057,0.0,0.0,0.0,0.0,0.0,0.0
1609045335036881924,35,1609045335036881924,8.86801106569e-05,-0.00257867009323,0.000377976155678,2.20792420522e-06,1.90957543577e-05,-7.20146151335e-05,0.999999997222,0.0,0.0,0.0,0.0,0.0,0.0
1609045335140093565,36,1609045335140093565,8.86801106569e-05,-0.00257867009323,0.000377976155678,2.20792420522e-06,1.90957543577e-05,-7.20146151335e-05,0.999999997222,0.0,0.0,0.0,0.0,0.0,0.0
1609045335243832111,37,1609045335243832111,-0.00435773512557,-0.00948678437707,-0.00485016596644,-0.000351040878391,0.000159546734017,-0.000166105631558,0.999999911862,0.0,0.0,0.0,0.0,0.0,0.0
1609045335346648693,38,1609045335346648693,-0.00273273933296,-0.00199380860765,8.59889594147e-05,1.11295393403e-05,2.02898952961e-05,-6.18670318069e-05,0.999999997818,0.0,0.0,0.0,0.0,0.0,0.0
1609045335450445652,39,1609045335450445652,0.000720275773356,-0.00258914548491,0.000763054562251,3.23653696043e-05,3.38552520568e-05,-4.9024035923e-05,0.999999997701,0.0,0.0,0.0,0.0,0.0,0.0
1609045335553537130,40,1609045335553537130,0.000720275773356,-0.00258914548491,0.000763054562251,3.23653696043e-05,3.38552520568e-05,-4.9024035923e-05,0.999999997701,0.0,0.0,0.0,0.0,0.0,0.0
1609045335657122612,41,1609045335657122612,0.000404637860927,-0.000658873911666,3.98468335512e-05,-3.06617046661e-05,1.23091032767e-05,-7.11615661201e-05,0.999999996922,0.0,0.0,0.0,0.0,0.0,0.0
1609045335758650541,42,1609045335758650541,0.000404637860927,-0.000658873911666,3.98468335512e-05,-3.06617046661e-05,1.23091032767e-05,-7.11615661201e-05,0.999999996922,0.0,0.0,0.0,0.0,0.0,0.0
1609045335861435890,43,1609045335861435890,-0.00160823710975,-0.00203867850995,0.000930080031087,2.42264732673e-06,2.33834701841e-05,-4.93619851283e-05,0.999999998505,0.0,0.0,0.0,0.0,0.0,0.0
1609045335933333397,44,1609045335933333397,-0.00160823710975,-0.00203867850995,0.000930080031087,2.42264732673e-06,2.33834701841e-05,-4.93619851283e-05,0.999999998505,0.0,0.0,0.0,0.0,0.0,0.0
1609045336033698797,45,1609045336033698797,0.00345636083043,-0.000895286751441,-2.23752515306e-05,-1.12517510188e-05,2.94930954281e-05,-6.4527299933e-05,0.99999999742,0.0,0.0,0.0,0.0,0.0,0.0
1609045336137942791,46,1609045336137942791,0.00345636083043,-0.000895286751441,-2.23752515306e-05,-1.12517510188e-05,2.94930954281e-05,-6.4527299933e-05,0.99999999742,0.0,0.0,0.0,0.0,0.0,0.0
1609045336240868330,47,1609045336240868330,0.0024774851495,-0.000857867819583,-0.000311471733583,-3.51752735732e-05,1.95642135726e-05,-0.000110394606781,0.999999993096,0.0,0.0,0.0,0.0,0.0,0.0
1609045336342889309,48,1609045336342889309,0.0024774851495,-0.000857867819583,-0.000311471733583,-3.51752735732e-05,1.95642135726e-05,-0.000110394606781,0.999999993096,0.0,0.0,0.0,0.0,0.0,0.0
1609045336445773840,49,1609045336445773840,0.00367535458758,-0.00063910839611,0.000187526963784,-1.09129827241e-05,3.18560882747e-05,-5.85006240815e-05,0.999999997722,0.0,0.0,0.0,0.0,0.0,0.0
1609045336550275326,50,1609045336550275326,0.00367535458758,-0.00063910839611,0.000187526963784,-1.09129827241e-05,3.18560882747e-05,-5.85006240815e-05,0.999999997722,0.0,0.0,0.0,0.0,0.0,0.0
1609045336652543783,51,1609045336652543783,-0.000999711591703,-0.00201026080566,0.00122933866089,2.16630053304e-05,1.88770029613e-05,-5.06755225038e-05,0.999999998303,0.0,0.0,0.0,0.0,0.0,0.0
1609045336755619526,52,1609045336755619526,-0.000999711591703,-0.00201026080566,0.00122933866089,2.16630053304e-05,1.88770029613e-05,-5.06755225038e-05,0.999999998303,0.0,0.0,0.0,0.0,0.0,0.0
1609045336858505249,53,1609045336858505249,-0.000121220096371,-0.00381312222948,0.00094245413833,2.86774165649e-05,2.07452834743e-05,-9.52597518806e-05,0.999999994836,0.0,0.0,0.0,0.0,0.0,0.0
1609045336961292505,54,1609045336961292505,-0.000121220096371,-0.00381312222948,0.00094245413833,2.86774165649e-05,2.07452834743e-05,-9.52597518806e-05,0.999999994836,0.0,0.0,0.0,0.0,0.0,0.0
1609045337034416199,55,1609045337034416199,0.00136595218451,-0.0017453352909,0.000695717080256,-8.0091803786e-06,3.52320963766e-05,-8.24627636089e-05,0.999999995947,0.0,0.0,0.0,0.0,0.0,0.0
1609045337133888721,56,1609045337133888721,0.00136595218451,-0.0017453352909,0.000695717080256,-8.0091803786e-06,3.52320963766e-05,-8.24627636089e-05,0.999999995947,0.0,0.0,0.0,0.0,0.0,0.0
1609045337237661123,57,1609045337237661123,-0.00218204215713,-0.00173867186823,0.000853818938763,2.15767528838e-05,1.67629461102e-05,-2.70499118201e-05,0.999999999261,0.0,0.0,0.0,0.0,0.0,0.0
1609045337339965105,58,1609045337339965105,-0.00218204215713,-0.00173867186823,0.000853818938763,2.15767528838e-05,1.67629461102e-05,-2.70499118201e-05,0.999999999261,0.0,0.0,0.0,0.0,0.0,0.0
1609045337442790270,59,1609045337442790270,-0.00195607146283,-0.00209900153047,2.13665907421e-05,1.20659258295e-06,3.0019198863e-06,-5.33378093394e-05,0.999999998572,0.0,0.0,0.0,0.0,0.0,0.0
1609045337550874710,60,1609045337550874710,-0.00195607146283,-0.00209900153047,2.13665907421e-05,1.20659258295e-06,3.0019198863e-06,-5.33378093394e-05,0.999999998572,0.0,0.0,0.0,0.0,0.0,0.0
1609045337653517008,61,1609045337653517008,-0.000767001846036,-0.00221606871268,0.000784180305298,1.22104618328e-05,4.54914627312e-05,-4.07564082257e-05,0.99999999806,0.0,0.0,0.0,0.0,0.0,0.0
1609045337758701324,62,1609045337758701324,-0.000767001846036,-0.00221606871268,0.000784180305298,1.22104618328e-05,4.54914627312e-05,-4.07564082257e-05,0.99999999806,0.0,0.0,0.0,0.0,0.0,0.0
1609045337861159325,63,1609045337861159325,0.0020347942971,-0.00340717457182,0.00075865032931,2.47673302198e-05,1.99829994868e-05,-5.9165213648e-05,0.999999997743,0.0,0.0,0.0,0.0,0.0,0.0
1609045337964150190,64,1609045337964150190,0.0020347942971,-0.00340717457182,0.00075865032931,2.47673302198e-05,1.99829994868e-05,-5.9165213648e-05,0.999999997743,0.0,0.0,0.0,0.0,0.0,0.0
1609045338033470154,65,1609045338033470154,0.000960408527103,-0.0034435258878,0.00017971104105,4.02119381551e-06,2.80387978283e-05,-9.07405667662e-05,0.999999995482,0.0,0.0,0.0,0.0,0.0,0.0
1609045338135342360,66,1609045338135342360,0.000960408527103,-0.0034435258878,0.00017971104105,4.02119381551e-06,2.80387978283e-05,-9.07405667662e-05,0.999999995482,0.0,0.0,0.0,0.0,0.0,0.0
1609045338240126610,67,1609045338240126610,0.000632807786088,-0.00113751414809,0.000630660280319,-4.27510551482e-08,5.47480124978e-05,-6.68825793017e-05,0.999999996265,0.0,0.0,0.0,0.0,0.0,0.0
1609045338341446161,68,1609045338341446161,0.000632807786088,-0.00113751414809,0.000630660280319,-4.27510551482e-08,5.47480124978e-05,-6.68825793017e-05,0.999999996265,0.0,0.0,0.0,0.0,0.0,0.0
1609045338446226358,69,1609045338446226358,0.00179582081802,-0.00442615118773,0.000879779422362,2.08350163347e-05,3.40029852247e-05,-7.79639654319e-05,0.999999996166,0.0,0.0,0.0,0.0,0.0,0.0
1609045338552102089,70,1609045338552102089,0.00179582081802,-0.00442615118773,0.000879779422362,2.08350163347e-05,3.40029852247e-05,-7.79639654319e-05,0.999999996166,0.0,0.0,0.0,0.0,0.0,0.0
1609045338655307293,71,1609045338655307293,0.00369429550148,-0.00117512355767,0.000801686218386,-7.5555246677e-06,2.30467436282e-05,-8.45393935405e-05,0.999999996132,0.0,0.0,0.0,0.0,0.0,0.0
1609045338758886337,72,1609045338758886337,0.00369429550148,-0.00117512355767,0.000801686218386,-7.5555246677e-06,2.30467436282e-05,-8.45393935405e-05,0.999999996132,0.0,0.0,0.0,0.0,0.0,0.0
1609045338933745861,73,1609045338933745861,0.00324012987228,-0.00147631938243,0.000374514619855,-1.84701190488e-05,1.76970345834e-05,-0.000112050010037,0.999999993395,0.0,0.0,0.0,0.0,0.0,0.0
1609045339033212900,74,1609045339033212900,0.00324012987228,-0.00147631938243,0.000374514619855,-1.84701190488e-05,1.76970345834e-05,-0.000112050010037,0.999999993395,0.0,0.0,0.0,0.0,0.0,0.0
1609045339136552095,75,1609045339136552095,-0.000492240401878,0.00812372280462,0.0016872038184,-9.80268147697e-05,0.000193229855756,-6.26051262128e-05,0.999999974567,0.0,0.0,0.0,0.0,0.0,0.0
1609045339239628792,76,1609045339239628792,0.00354864572799,-0.0021562078261,0.000351542451575,4.62704484295e-06,3.56965258401e-05,-7.75067125526e-05,0.999999996349,0.0,0.0,0.0,0.0,0.0,0.0
1609045339343123674,77,1609045339343123674,0.00216785064941,-0.0026546793947,0.00110238865265,1.44995088977e-05,4.8093869947e-05,-0.000116877955257,0.999999991908,0.0,0.0,0.0,0.0,0.0,0.0
1609045339445812225,78,1609045339445812225,0.00216785064941,-0.0026546793947,0.00110238865265,1.44995088977e-05,4.8093869947e-05,-0.000116877955257,0.999999991908,0.0,0.0,0.0,0.0,0.0,0.0
1609045339548739910,79,1609045339548739910,0.00134504320087,-0.00417180889007,0.00110739156437,2.18988926977e-05,3.63033116686e-05,-0.000145083428529,0.999999988577,0.0,0.0,0.0,0.0,0.0,0.0
1609045339651870966,80,1609045339651870966,0.00134504320087,-0.00417180889007,0.00110739156437,2.18988926977e-05,3.63033116686e-05,-0.000145083428529,0.999999988577,0.0,0.0,0.0,0.0,0.0,0.0
1609045339758233547,81,1609045339758233547,-0.00857231155055,-0.0015019004717,0.00140135587268,4.04349160931e-05,1.87802508423e-05,1.93908775784e-05,0.999999998818,0.0,0.0,0.0,0.0,0.0,0.0
1609045339858290434,82,1609045339858290434,-0.00857231155055,-0.0015019004717,0.00140135587268,4.04349160931e-05,1.87802508423e-05,1.93908775784e-05,0.999999998818,0.0,0.0,0.0,0.0,0.0,0.0
1609045340032992601,83,1609045340032992601,0.000992741205152,-0.000429341543267,-0.000550500796119,-2.77510768528e-05,2.18327697452e-05,-7.10424749318e-05,0.999999996853,0.0,0.0,0.0,0.0,0.0,0.0
1609045340133539200,84,1609045340133539200,0.000992741205152,-0.000429341543267,-0.000550500796119,-2.77510768528e-05,2.18327697452e-05,-7.10424749318e-05,0.999999996853,0.0,0.0,0.0,0.0,0.0,0.0
1609045340237145424,85,1609045340237145424,-0.00233063879577,-0.00179130479185,0.00117806778055,3.07949644049e-06,2.64432402244e-05,-7.04369877266e-05,0.999999997165,0.0,0.0,0.0,0.0,0.0,0.0
1609045340339724779,86,1609045340339724779,-0.00233063879577,-0.00179130479185,0.00117806778055,3.07949644049e-06,2.64432402244e-05,-7.04369877266e-05,0.999999997165,0.0,0.0,0.0,0.0,0.0,0.0
1609045340442773342,87,1609045340442773342,-7.37061412903e-05,-0.00379223627008,0.0012001464464,4.62254985616e-05,4.23119132408e-05,-4.20974283004e-05,0.99999999715,0.0,0.0,0.0,0.0,0.0,0.0
1609045340546105385,88,1609045340546105385,-7.37061412903e-05,-0.00379223627008,0.0012001464464,4.62254985616e-05,4.23119132408e-05,-4.20974283004e-05,0.99999999715,0.0,0.0,0.0,0.0,0.0,0.0
1609045340649161816,89,1609045340649161816,0.000578593787645,-0.00159479935364,0.000586377789472,2.53864528064e-06,1.77451955841e-05,-4.30566969766e-05,0.999999998912,0.0,0.0,0.0,0.0,0.0,0.0
1609045340754080534,90,1609045340754080534,0.000578593787645,-0.00159479935364,0.000586377789472,2.53864528064e-06,1.77451955841e-05,-4.30566969766e-05,0.999999998912,0.0,0.0,0.0,0.0,0.0,0.0
1609045340855360270,91,1609045340855360270,-0.00327328012906,-0.00389441030829,0.000414449584156,1.87552248938e-05,1.03745201281e-05,-6.28572741188e-05,0.999999997795,0.0,0.0,0.0,0.0,0.0,0.0
1609045340958522320,92,1609045340958522320,-0.00327328012906,-0.00389441030829,0.000414449584156,1.87552248938e-05,1.03745201281e-05,-6.28572741188e-05,0.999999997795,0.0,0.0,0.0,0.0,0.0,0.0
1609045341133512735,93,1609045341133512735,-0.0147303042984,-0.00878066056674,-0.00262570057941,-4.56305870782e-05,-4.90143513863e-05,-0.000198657231438,0.999999978025,0.0,0.0,0.0,0.0,0.0,0.0
1609045341233565092,94,1609045341233565092,0.0028848608096,-0.00268965295359,0.000524981473494,1.1470169997e-05,2.1002516008e-05,-0.000109004564538,0.999999993773,0.0,0.0,0.0,0.0,0.0,0.0
1609045341337487936,95,1609045341337487936,-0.00554940272768,-0.00486264128315,0.000449299655986,2.85643719559e-05,1.06735208763e-05,-7.0318655442e-05,0.999999997063,0.0,0.0,0.0,0.0,0.0,0.0
1609045341439461708,96,1609045341439461708,-0.00554940272768,-0.00486264128315,0.000449299655986,2.85643719559e-05,1.06735208763e-05,-7.0318655442e-05,0.999999997063,0.0,0.0,0.0,0.0,0.0,0.0
1609045341543758631,97,1609045341543758631,0.00207819326456,-0.00123515625874,-0.000532936052925,-2.90062047829e-05,1.52214454051e-05,-7.72239537347e-05,0.999999996482,0.0,0.0,0.0,0.0,0.0,0.0
1609045341645858526,98,1609045341645858526,0.00207819326456,-0.00123515625874,-0.000532936052925,-2.90062047829e-05,1.52214454051e-05,-7.72239537347e-05,0.999999996482,0.0,0.0,0.0,0.0,0.0,0.0
1609045341748830557,99,1609045341748830557,0.000706068194246,-0.00375472428387,0.00120652844223,2.34349408527e-05,3.5690120161e-05,-9.20134131166e-05,0.999999994855,0.0,0.0,0.0,0.0,0.0,0.0
1609045341852291107,100,1609045341852291107,0.000706068194246,-0.00375472428387,0.00120652844223,2.34349408527e-05,3.5690120161e-05,-9.20134131166e-05,0.999999994855,0.0,0.0,0.0,0.0,0.0,0.0
1609045341954957247,101,1609045341954957247,-0.000980005268714,-0.00449478516755,0.000804628463215,2.5750659552e-05,3.41549910813e-05,-9.43819164419e-05,0.999999994631,0.0,0.0,0.0,0.0,0.0,0.0
1609045342058225393,102,1609045342058225393,-0.000980005268714,-0.00449478516755,0.000804628463215,2.5750659552e-05,3.41549910813e-05,-9.43819164419e-05,0.999999994631,0.0,0.0,0.0,0.0,0.0,0.0
1609045342161844015,103,1609045342161844015,-0.00101132699322,-0.00377689335021,0.000861706650719,1.08420999745e-05,1.52140306138e-05,-8.70227358861e-05,0.999999996039,0.0,0.0,0.0,0.0,0.0,0.0
1609045342232941628,104,1609045342232941628,-0.00101132699322,-0.00377689335021,0.000861706650719,1.08420999745e-05,1.52140306138e-05,-8.70227358861e-05,0.999999996039,0.0,0.0,0.0,0.0,0.0,0.0
1609045342333453655,105,1609045342333453655,-0.000728963998009,-0.00307131770319,0.000689369490106,2.49236910753e-05,2.96841657203e-05,-8.51156665676e-05,0.999999995626,0.0,0.0,0.0,0.0,0.0,0.0
1609045342436954975,106,1609045342436954975,-0.000728963998009,-0.00307131770319,0.000689369490106,2.49236910753e-05,2.96841657203e-05,-8.51156665676e-05,0.999999995626,0.0,0.0,0.0,0.0,0.0,0.0
1609045342540521145,107,1609045342540521145,0.0040904187742,-0.0020020466028,0.00102260393401,-4.40206102116e-06,4.30648609147e-05,-0.000101401610759,0.999999993922,0.0,0.0,0.0,0.0,0.0,0.0
1609045342642505169,108,1609045342642505169,0.0040904187742,-0.0020020466028,0.00102260393401,-4.40206102116e-06,4.30648609147e-05,-0.000101401610759,0.999999993922,0.0,0.0,0.0,0.0,0.0,0.0
1609045342745962620,109,1609045342745962620,0.000887995445744,-0.00308963676035,0.000395058713891,6.44292669993e-06,1.24659849254e-05,-0.000100949997156,0.999999994806,0.0,0.0,0.0,0.0,0.0,0.0
1609045342849233866,110,1609045342849233866,0.000887995445744,-0.00308963676035,0.000395058713891,6.44292669993e-06,1.24659849254e-05,-0.000100949997156,0.999999994806,0.0,0.0,0.0,0.0,0.0,0.0
1609045342954205513,111,1609045342954205513,-0.00132614322182,-0.00272093698278,0.00181618643142,2.45455966758e-05,5.00200953936e-05,-6.46756186156e-05,0.999999996356,0.0,0.0,0.0,0.0,0.0,0.0
1609045343033104181,112,1609045343033104181,-0.00132614322182,-0.00272093698278,0.00181618643142,2.45455966758e-05,5.00200953936e-05,-6.46756186156e-05,0.999999996356,0.0,0.0,0.0,0.0,0.0,0.0
1609045343133380413,113,1609045343133380413,0.00057179644228,-0.00217037252491,0.000961535469551,3.7707278585e-06,2.4780896005e-05,-7.51148594203e-05,0.999999996865,0.0,0.0,0.0,0.0,0.0,0.0
1609045343236848354,114,1609045343236848354,0.00057179644228,-0.00217037252491,0.000961535469551,3.7707278585e-06,2.4780896005e-05,-7.51148594203e-05,0.999999996865,0.0,0.0,0.0,0.0,0.0,0.0
1609045343339487314,115,1609045343339487314,0.00782756313956,0.0045752355986,0.00254268009835,-0.000137634914977,4.35291769767e-06,-1.40196466309e-05,0.999999990421,0.0,0.0,0.0,0.0,0.0,0.0
1609045343443235874,116,1609045343443235874,-0.00377251503647,-0.00240585598084,0.000515193198668,1.18088627153e-05,3.00756516994e-05,-2.2217430226e-05,0.999999999231,0.0,0.0,0.0,0.0,0.0,0.0
1609045343545778036,117,1609045343545778036,-0.00216886644026,-0.0013178767983,0.000935416869,9.58929769355e-06,2.67555232369e-05,-2.06646910273e-05,0.999999999383,0.0,0.0,0.0,0.0,0.0,0.0
1609045343648859739,118,1609045343648859739,-0.00216886644026,-0.0013178767983,0.000935416869,9.58929769355e-06,2.67555232369e-05,-2.06646910273e-05,0.999999999383,0.0,0.0,0.0,0.0,0.0,0.0
1609045343753595114,119,1609045343753595114,-0.0047225399642,-0.00298378558901,3.87150488059e-05,1.17183989415e-05,9.22160674424e-06,-4.23738455102e-05,0.999999998991,0.0,0.0,0.0,0.0,0.0,0.0
1609045343854918242,120,1609045343854918242,-0.0047225399642,-0.00298378558901,3.87150488059e-05,1.17183989415e-05,9.22160674424e-06,-4.23738455102e-05,0.999999998991,0.0,0.0,0.0,0.0,0.0,0.0
1609045344032965899,121,1609045344032965899,-0.00789926767444,0.00195579585153,0.00325177949559,0.000298728668969,9.33706914858e-05,0.000141407656706,0.999999941023,0.0,0.0,0.0,0.0,0.0,0.0
1609045344135595798,122,1609045344135595798,-0.00163715784535,-0.00131999020165,0.00111295360151,1.26292049337e-05,2.20531652058e-05,-3.09611096331e-05,0.999999999198,0.0,0.0,0.0,0.0,0.0,0.0
1609045344237783432,123,1609045344237783432,0.00237731894058,-0.00250961449579,0.00062549680017,1.24124496192e-05,8.20536860018e-06,-6.15070992233e-05,0.999999997998,0.0,0.0,0.0,0.0,0.0,0.0
1609045344340911865,124,1609045344340911865,0.00237731894058,-0.00250961449579,0.00062549680017,1.24124496192e-05,8.20536860018e-06,-6.15070992233e-05,0.999999997998,0.0,0.0,0.0,0.0,0.0,0.0
1609045344444251537,125,1609045344444251537,0.00138182324158,-0.0049011785022,0.00050118938971,1.28112711046e-05,1.81896039984e-05,-0.000144306376904,0.99999998934,0.0,0.0,0.0,0.0,0.0,0.0
1609045344547606468,126,1609045344547606468,0.00138182324158,-0.0049011785022,0.00050118938971,1.28112711046e-05,1.81896039984e-05,-0.000144306376904,0.99999998934,0.0,0.0,0.0,0.0,0.0,0.0
1609045344650313616,127,1609045344650313616,-0.00171726853822,-0.00405877097259,0.00108944839672,2.1722795716e-05,3.12175514214e-05,-8.30144005256e-05,0.999999995831,0.0,0.0,0.0,0.0,0.0,0.0
1609045344753411770,128,1609045344753411770,-0.00171726853822,-0.00405877097259,0.00108944839672,2.1722795716e-05,3.12175514214e-05,-8.30144005256e-05,0.999999995831,0.0,0.0,0.0,0.0,0.0,0.0
1609045344856489182,129,1609045344856489182,-0.00168959716053,-0.00118337842388,0.000643848798155,1.16593091733e-05,2.56337957386e-05,4.03600343552e-06,0.999999999595,0.0,0.0,0.0,0.0,0.0,0.0
1609045344959580660,130,1609045344959580660,-0.00168959716053,-0.00118337842388,0.000643848798155,1.16593091733e-05,2.56337957386e-05,4.03600343552e-06,0.999999999595,0.0,0.0,0.0,0.0,0.0,0.0
1609045345133845091,131,1609045345133845091,0.00330133540852,-0.00269495569392,0.000739580925748,1.87400235246e-05,3.74298436838e-05,-6.99258117609e-05,0.999999996679,0.0,0.0,0.0,0.0,0.0,0.0
1609045345235022068,132,1609045345235022068,0.00330133540852,-0.00269495569392,0.000739580925748,1.87400235246e-05,3.74298436838e-05,-6.99258117609e-05,0.999999996679,0.0,0.0,0.0,0.0,0.0,0.0
1609045345337998629,133,1609045345337998629,0.00695797615372,-0.00137463953454,0.00105481972348,1.36773904963e-05,4.63899182972e-05,-8.74723602054e-05,0.999999995005,0.0,0.0,0.0,0.0,0.0,0.0
1609045345441191435,134,1609045345441191435,0.00695797615372,-0.00137463953454,0.00105481972348,1.36773904963e-05,4.63899182972e-05,-8.74723602054e-05,0.999999995005,0.0,0.0,0.0,0.0,0.0,0.0
1609045345544755220,135,1609045345544755220,0.00171225562065,-0.00334145749381,0.000630600653592,1.00496756259e-05,1.97483895331e-05,-0.000103751061065,0.999999994372,0.0,0.0,0.0,0.0,0.0,0.0
1609045345647147894,136,1609045345647147894,0.00171225562065,-0.00334145749381,0.000630600653592,1.00496756259e-05,1.97483895331e-05,-0.000103751061065,0.999999994372,0.0,0.0,0.0,0.0,0.0,0.0
1609045345750727177,137,1609045345750727177,0.00269812394476,-0.0021684387672,0.000661518000271,9.9535465072e-06,2.34390603996e-05,-7.06981431258e-05,0.999999997177,0.0,0.0,0.0,0.0,0.0,0.0
1609045345853605032,138,1609045345853605032,0.00269812394476,-0.0021684387672,0.000661518000271,9.9535465072e-06,2.34390603996e-05,-7.06981431258e-05,0.999999997177,0.0,0.0,0.0,0.0,0.0,0.0
1609045345956710339,139,1609045345956710339,0.00484836553507,-0.00433843059609,0.0011256588323,3.0826584776e-05,3.69053252796e-05,-0.000109240823055,0.999999992877,0.0,0.0,0.0,0.0,0.0,0.0
1609045346059508562,140,1609045346059508562,0.00484836553507,-0.00433843059609,0.0011256588323,3.0826584776e-05,3.69053252796e-05,-0.000109240823055,0.999999992877,0.0,0.0,0.0,0.0,0.0,0.0
1609045346234099865,141,1609045346234099865,0.00140018717249,-0.0053137809583,0.000556872676216,3.40984443046e-05,1.64085198065e-05,-0.000132203131801,0.999999990545,0.0,0.0,0.0,0.0,0.0,0.0
1609045346336392879,142,1609045346336392879,0.00140018717249,-0.0053137809583,0.000556872676216,3.40984443046e-05,1.64085198065e-05,-0.000132203131801,0.999999990545,0.0,0.0,0.0,0.0,0.0,0.0
1609045346439334869,143,1609045346439334869,0.00517475481001,-0.00405905858471,0.00100905369759,2.99584979753e-05,4.52164148531e-05,-0.000115391424637,0.999999991871,0.0,0.0,0.0,0.0,0.0,0.0
1609045346542101145,144,1609045346542101145,0.00517475481001,-0.00405905858471,0.00100905369759,2.99584979753e-05,4.52164148531e-05,-0.000115391424637,0.999999991871,0.0,0.0,0.0,0.0,0.0,0.0
1609045346644128084,145,1609045346644128084,-0.000529640374265,-0.00394626271979,0.00185467042327,5.20080258799e-05,4.26228537719e-05,-3.84988974847e-05,0.999999996998,0.0,0.0,0.0,0.0,0.0,0.0
1609045346747210026,146,1609045346747210026,-0.000529640374265,-0.00394626271979,0.00185467042327,5.20080258799e-05,4.26228537719e-05,-3.84988974847e-05,0.999999996998,0.0,0.0,0.0,0.0,0.0,0.0
1609045346850270033,147,1609045346850270033,0.00282572091333,-0.00322448401843,0.00116283377529,8.57260106569e-06,2.99591787094e-05,-0.000124924567302,0.999999991711,0.0,0.0,0.0,0.0,0.0,0.0
1609045346956470013,148,1609045346956470013,0.00282572091333,-0.00322448401843,0.00116283377529,8.57260106569e-06,2.99591787094e-05,-0.000124924567302,0.999999991711,0.0,0.0,0.0,0.0,0.0,0.0
1609045347133174658,149,1609045347133174658,-0.00242734792824,-0.00296012927145,0.00130827710219,4.07947701803e-05,4.16410592845e-05,-7.82155836444e-05,0.999999995242,0.0,0.0,0.0,0.0,0.0,0.0
1609045347233131170,150,1609045347233131170,-0.00242734792824,-0.00296012927145,0.00130827710219,4.07947701803e-05,4.16410592845e-05,-7.82155836444e-05,0.999999995242,0.0,0.0,0.0,0.0,0.0,0.0
1609045347336453676,151,1609045347336453676,0.0010397930017,-0.00353690741941,0.00145256506438,4.0319083062e-05,2.88109934576e-05,-0.000102061419261,0.999999993564,0.0,0.0,0.0,0.0,0.0,0.0
1609045347443693876,152,1609045347443693876,0.0010397930017,-0.00353690741941,0.00145256506438,4.0319083062e-05,2.88109934576e-05,-0.000102061419261,0.999999993564,0.0,0.0,0.0,0.0,0.0,0.0
1609045347545498610,153,1609045347545498610,0.01780908134,-0.00434744087437,0.00749304948388,0.000473626883281,-8.48495838046e-05,-0.000486977368266,0.999999765666,0.0,0.0,0.0,0.0,0.0,0.0
1609045347648868322,154,1609045347648868322,0.00441910924636,-0.00396518380077,0.000318023003085,1.39938918948e-05,2.47743958835e-05,-0.000110085520082,0.999999993536,0.0,0.0,0.0,0.0,0.0,0.0
1609045347752139330,155,1609045347752139330,0.000178574946809,-0.00266546516249,0.00190243710639,3.84413781717e-05,5.16671209218e-05,-6.21954082433e-05,0.999999995992,0.0,0.0,0.0,0.0,0.0,0.0
1609045347856669664,156,1609045347856669664,0.000178574946809,-0.00266546516249,0.00190243710639,3.84413781717e-05,5.16671209218e-05,-6.21954082433e-05,0.999999995992,0.0,0.0,0.0,0.0,0.0,0.0
1609045347957723379,157,1609045347957723379,-0.00171855187459,-0.0050088904692,0.00110679777737,3.69716638821e-05,5.33099400069e-05,-0.000114651616983,0.999999991323,0.0,0.0,0.0,0.0,0.0,0.0
1609045348133418560,158,1609045348133418560,-0.00171855187459,-0.0050088904692,0.00110679777737,3.69716638821e-05,5.33099400069e-05,-0.000114651616983,0.999999991323,0.0,0.0,0.0,0.0,0.0,0.0
1609045348232813835,159,1609045348232813835,0.00275229182092,-0.0011057721239,0.000684055140616,-8.36140701227e-07,2.64706136911e-05,-6.33861501076e-05,0.99999999764,0.0,0.0,0.0,0.0,0.0,0.0
1609045348336083889,160,1609045348336083889,0.00275229182092,-0.0011057721239,0.000684055140616,-8.36140701227e-07,2.64706136911e-05,-6.33861501076e-05,0.99999999764,0.0,0.0,0.0,0.0,0.0,0.0
1609045348439252377,161,1609045348439252377,0.00455346409548,-0.00631791535744,0.000407555404992,2.27434156611e-05,2.75670858761e-05,-0.000150668491196,0.999999988011,0.0,0.0,0.0,0.0,0.0,0.0
1609045348542086363,162,1609045348542086363,0.00455346409548,-0.00631791535744,0.000407555404992,2.27434156611e-05,2.75670858761e-05,-0.000150668491196,0.999999988011,0.0,0.0,0.0,0.0,0.0,0.0
1609045348645901680,163,1609045348645901680,0.00553748601699,-0.00403406204759,0.00111550534419,2.58043676654e-05,4.65715326715e-05,-0.000142813556665,0.999999988385,0.0,0.0,0.0,0.0,0.0,0.0
1609045348748370647,164,1609045348748370647,0.00553748601699,-0.00403406204759,0.00111550534419,2.58043676654e-05,4.65715326715e-05,-0.000142813556665,0.999999988385,0.0,0.0,0.0,0.0,0.0,0.0
1609045348851533890,165,1609045348851533890,0.00126253082722,-0.00371888260081,0.000324167258058,8.35006937018e-06,8.08688313782e-06,-0.000113989201708,0.999999993436,0.0,0.0,0.0,0.0,0.0,0.0
1609045348954504967,166,1609045348954504967,0.00126253082722,-0.00371888260081,0.000324167258058,8.35006937018e-06,8.08688313782e-06,-0.000113989201708,0.999999993436,0.0,0.0,0.0,0.0,0.0,0.0
1609045349057685137,167,1609045349057685137,-0.000745557922956,-0.00457262621779,0.000229361862542,8.35447657312e-06,4.56335594313e-05,-0.000138726261683,0.999999989301,0.0,0.0,0.0,0.0,0.0,0.0
1609045349233337164,168,1609045349233337164,-0.000745557922956,-0.00457262621779,0.000229361862542,8.35447657312e-06,4.56335594313e-05,-0.000138726261683,0.999999989301,0.0,0.0,0.0,0.0,0.0,0.0
1609045349332709789,169,1609045349332709789,0.00749859292138,-0.00412120736394,0.00196858541916,4.89923390225e-05,5.57142588317e-05,-0.00012626423937,0.999999989277,0.0,0.0,0.0,0.0,0.0,0.0
1609045349435904264,170,1609045349435904264,0.00749859292138,-0.00412120736394,0.00196858541916,4.89923390225e-05,5.57142588317e-05,-0.00012626423937,0.999999989277,0.0,0.0,0.0,0.0,0.0,0.0
1609045349538886309,171,1609045349538886309,0.00671513697371,-0.00628121578309,0.00214254821993,7.11098301074e-05,6.21725810594e-05,-0.000142174727806,0.999999985432,0.0,0.0,0.0,0.0,0.0,0.0
1609045349646875381,172,1609045349646875381,0.00671513697371,-0.00628121578309,0.00214254821993,7.11098301074e-05,6.21725810594e-05,-0.000142174727806,0.999999985432,0.0,0.0,0.0,0.0,0.0,0.0
1609045349749678612,173,1609045349749678612,0.00168814152032,-0.00411239010197,0.00181389352089,5.85708139292e-05,3.99079361705e-05,-6.12142822351e-05,0.999999995615,0.0,0.0,0.0,0.0,0.0,0.0
1609045349934590340,174,1609045349934590340,0.00168814152032,-0.00411239010197,0.00181389352089,5.85708139292e-05,3.99079361705e-05,-6.12142822351e-05,0.999999995615,0.0,0.0,0.0,0.0,0.0,0.0
1609045350035774231,175,1609045350035774231,0.00488938014845,-0.00398115917495,0.0022571703777,4.83911905836e-05,6.838947911e-05,-0.000107856997877,0.999999990674,0.0,0.0,0.0,0.0,0.0,0.0
1609045350139122725,176,1609045350139122725,0.00488938014845,-0.00398115917495,0.0022571703777,4.83911905836e-05,6.838947911e-05,-0.000107856997877,0.999999990674,0.0,0.0,0.0,0.0,0.0,0.0
1609045350242171288,177,1609045350242171288,0.00503328553521,-0.00336148410303,-0.00101774513883,-3.515068426e-05,1.71503829164e-05,-0.000177491325454,0.999999983484,0.0,0.0,0.0,0.0,0.0,0.0
1609045350346286535,178,1609045350346286535,0.00503328553521,-0.00336148410303,-0.00101774513883,-3.515068426e-05,1.71503829164e-05,-0.000177491325454,0.999999983484,0.0,0.0,0.0,0.0,0.0,0.0
1609045350448590040,179,1609045350448590040,0.00682723499946,-0.00141067070564,0.000412709290333,-8.72140979783e-06,2.77562853362e-05,-0.000109663925737,0.999999993564,0.0,0.0,0.0,0.0,0.0,0.0
1609045350550964355,180,1609045350550964355,0.00682723499946,-0.00141067070564,0.000412709290333,-8.72140979783e-06,2.77562853362e-05,-0.000109663925737,0.999999993564,0.0,0.0,0.0,0.0,0.0,0.0
1609045350654372215,181,1609045350654372215,0.0031246998795,-0.00214050616089,8.24753744073e-05,-3.77748882074e-06,2.08911098588e-05,-0.00011145942538,0.999999993563,0.0,0.0,0.0,0.0,0.0,0.0
1609045350757294893,182,1609045350757294893,0.0031246998795,-0.00214050616089,8.24753744073e-05,-3.77748882074e-06,2.08911098588e-05,-0.00011145942538,0.999999993563,0.0,0.0,0.0,0.0,0.0,0.0
1609045350935307264,183,1609045350935307264,0.00737546999383,-0.00604665899474,0.000763572681683,2.06235857082e-05,5.06632118663e-05,-0.000175168382475,0.999999983162,0.0,0.0,0.0,0.0,0.0,0.0
1609045351038373709,184,1609045351038373709,0.00737546999383,-0.00604665899474,0.000763572681683,2.06235857082e-05,5.06632118663e-05,-0.000175168382475,0.999999983162,0.0,0.0,0.0,0.0,0.0,0.0
1609045351142492056,185,1609045351142492056,0.00653517517286,-0.00536365470828,0.00089568166237,4.71938766041e-05,4.21275437274e-05,-0.000158615186956,0.99999998542,0.0,0.0,0.0,0.0,0.0,0.0
1609045351246604443,186,1609045351246604443,0.00653517517286,-0.00536365470828,0.00089568166237,4.71938766041e-05,4.21275437274e-05,-0.000158615186956,0.99999998542,0.0,0.0,0.0,0.0,0.0,0.0
1609045351352691650,187,1609045351352691650,0.0009672203613,-0.00362239768474,-1.87032666628e-05,1.03444807202e-05,2.54271801512e-05,-7.56266913694e-05,0.999999996764,0.0,0.0,0.0,0.0,0.0,0.0
1609045351455860376,188,1609045351455860376,0.0009672203613,-0.00362239768474,-1.87032666628e-05,1.03444807202e-05,2.54271801512e-05,-7.56266913694e-05,0.999999996764,0.0,0.0,0.0,0.0,0.0,0.0
1609045351558960199,189,1609045351558960199,0.00530249724859,-0.00425361771016,0.00123017243477,4.04077052033e-05,3.99839292689e-05,-0.000105748563877,0.999999992793,0.0,0.0,0.0,0.0,0.0,0.0
1609045351662139416,190,1609045351662139416,0.00530249724859,-0.00425361771016,0.00123017243477,4.04077052033e-05,3.99839292689e-05,-0.000105748563877,0.999999992793,0.0,0.0,0.0,0.0,0.0,0.0
1609045351833963394,191,1609045351833963394,0.00531467328635,-0.00118714309457,-0.00031636340091,-1.93012801946e-05,2.69157948434e-05,-8.92949951644e-05,0.999999995465,0.0,0.0,0.0,0.0,0.0,0.0
1609045351937256813,192,1609045351937256813,0.00531467328635,-0.00118714309457,-0.00031636340091,-1.93012801946e-05,2.69157948434e-05,-8.92949951644e-05,0.999999995465,0.0,0.0,0.0,0.0,0.0,0.0
1609045352041355848,193,1609045352041355848,0.00367742500826,-0.00480680752195,0.00101672463805,4.91079794553e-05,4.65140696101e-05,-9.06225062598e-05,0.999999993606,0.0,0.0,0.0,0.0,0.0,0.0
1609045352143471479,194,1609045352143471479,0.00367742500826,-0.00480680752195,0.00101672463805,4.91079794553e-05,4.65140696101e-05,-9.06225062598e-05,0.999999993606,0.0,0.0,0.0,0.0,0.0,0.0
1609045352247821569,195,1609045352247821569,0.000901723675984,-0.00501504834912,0.00173093786681,4.2916391593e-05,3.84305390527e-05,-0.000131009219679,0.999999989759,0.0,0.0,0.0,0.0,0.0,0.0
1609045352351258755,196,1609045352351258755,0.000901723675984,-0.00501504834912,0.00173093786681,4.2916391593e-05,3.84305390527e-05,-0.000131009219679,0.999999989759,0.0,0.0,0.0,0.0,0.0,0.0
1609045352453060389,197,1609045352453060389,0.00316529191226,-0.00439332073527,0.00167306649147,6.57933395886e-05,4.08903279049e-05,-9.94451069075e-05,0.999999992055,0.0,0.0,0.0,0.0,0.0,0.0
1609045352555871964,198,1609045352555871964,0.00316529191226,-0.00439332073527,0.00167306649147,6.57933395886e-05,4.08903279049e-05,-9.94451069075e-05,0.999999992055,0.0,0.0,0.0,0.0,0.0,0.0
1609045352658162355,199,1609045352658162355,-0.00107442841289,-0.00490774745875,0.000789877648796,4.37232509269e-05,2.38813744497e-05,-7.84665900827e-05,0.99999999568,0.0,0.0,0.0,0.0,0.0,0.0
1609045352831988335,200,1609045352831988335,-0.00107442841289,-0.00490774745875,0.000789877648796,4.37232509269e-05,2.38813744497e-05,-7.84665900827e-05,0.99999999568,0.0,0.0,0.0,0.0,0.0,0.0
1609045352934341669,201,1609045352934341669,0.00489580519936,-0.0052557600266,0.00184816313575,6.18964426739e-05,6.38452776189e-05,-0.000129146303539,0.999999987707,0.0,0.0,0.0,0.0,0.0,0.0
1609045353037779808,202,1609045353037779808,0.00489580519936,-0.0052557600266,0.00184816313575,6.18964426739e-05,6.38452776189e-05,-0.000129146303539,0.999999987707,0.0,0.0,0.0,0.0,0.0,0.0
1609045353140322447,203,1609045353140322447,0.00250331317916,-0.00568708266038,0.00248883065239,6.36113155616e-05,6.75761588534e-05,-0.000125519444009,0.999999987816,0.0,0.0,0.0,0.0,0.0,0.0
1609045353243667364,204,1609045353243667364,0.00250331317916,-0.00568708266038,0.00248883065239,6.36113155616e-05,6.75761588534e-05,-0.000125519444009,0.999999987816,0.0,0.0,0.0,0.0,0.0,0.0
1609045353346687794,205,1609045353346687794,0.0114992550426,-0.00585895226903,0.000675422717245,3.27512434452e-05,4.5189935376e-05,-0.000164062931297,0.999999984984,0.0,0.0,0.0,0.0,0.0,0.0
1609045353449728012,206,1609045353449728012,0.0114992550426,-0.00585895226903,0.000675422717245,3.27512434452e-05,4.5189935376e-05,-0.000164062931297,0.999999984984,0.0,0.0,0.0,0.0,0.0,0.0
1609045353553205967,207,1609045353553205967,0.00544609779484,-0.00582006406308,0.00103504333517,3.78885017632e-05,3.52537308544e-05,-0.000157066384744,0.999999986326,0.0,0.0,0.0,0.0,0.0,0.0
1609045353655855894,208,1609045353655855894,0.00544609779484,-0.00582006406308,0.00103504333517,3.78885017632e-05,3.52537308544e-05,-0.000157066384744,0.999999986326,0.0,0.0,0.0,0.0,0.0,0.0
1609045353758787870,209,1609045353758787870,0.0072081251335,-0.00568004732026,0.000821387789607,2.01967029482e-05,5.13690378643e-05,-0.00019140776845,0.999999980158,0.0,0.0,0.0,0.0,0.0,0.0
1609045353862223864,210,1609045353862223864,0.0072081251335,-0.00568004732026,0.000821387789607,2.01967029482e-05,5.13690378643e-05,-0.00019140776845,0.999999980158,0.0,0.0,0.0,0.0,0.0,0.0
1609045353932296038,211,1609045353932296038,0.00901828298288,-0.00310078281862,0.00602248054937,-0.000615254700824,0.000300692203146,-0.00035575137059,0.999999702243,0.0,0.0,0.0,0.0,0.0,0.0
1609045354034006596,212,1609045354034006596,0.00747172800883,-0.00346658593625,0.00115793014608,5.91400334841e-06,5.59898389768e-05,-0.000149851568,0.999999987187,0.0,0.0,0.0,0.0,0.0,0.0
1609045354137630463,213,1609045354137630463,0.0051349202372,-0.0048687578766,0.00157795949525,4.18673488466e-05,4.82056914857e-05,-0.000138286595216,0.9999999884,0.0,0.0,0.0,0.0,0.0,0.0
1609045354240041018,214,1609045354240041018,0.0051349202372,-0.0048687578766,0.00157795949525,4.18673488466e-05,4.82056914857e-05,-0.000138286595216,0.9999999884,0.0,0.0,0.0,0.0,0.0,0.0
1609045354345477819,215,1609045354345477819,0.00580989197135,-0.00413722918043,0.000157991854908,1.14092349366e-05,2.57343583659e-05,-0.000115157259362,0.999999992973,0.0,0.0,0.0,0.0,0.0,0.0
1609045354446232080,216,1609045354446232080,0.00580989197135,-0.00413722918043,0.000157991854908,1.14092349366e-05,2.57343583659e-05,-0.000115157259362,0.999999992973,0.0,0.0,0.0,0.0,0.0,0.0
1609045354549063683,217,1609045354549063683,0.00236756822491,-0.0064584886041,0.00145722571069,5.32122677807e-05,4.23976643954e-05,-0.000143152531476,0.999999987439,0.0,0.0,0.0,0.0,0.0,0.0
1609045354652084589,218,1609045354652084589,0.00236756822491,-0.0064584886041,0.00145722571069,5.32122677807e-05,4.23976643954e-05,-0.000143152531476,0.999999987439,0.0,0.0,0.0,0.0,0.0,0.0
1609045354755288363,219,1609045354755288363,0.00553000715015,-0.0040867295166,0.000411516554064,-8.3352638126e-06,3.33923716537e-05,-0.000139879350647,0.999999989625,0.0,0.0,0.0,0.0,0.0,0.0
1609045354862078667,220,1609045354862078667,0.00553000715015,-0.0040867295166,0.000411516554064,-8.3352638126e-06,3.33923716537e-05,-0.000139879350647,0.999999989625,0.0,0.0,0.0,0.0,0.0,0.0
1609045354961490870,221,1609045354961490870,0.00731040124765,-0.00497816902302,-3.56746560495e-05,1.99498861352e-05,3.5329706187e-05,-0.000111636590377,0.999999992946,0.0,0.0,0.0,0.0,0.0,0.0
1609045355133394718,222,1609045355133394718,0.00731040124765,-0.00497816902302,-3.56746560495e-05,1.99498861352e-05,3.5329706187e-05,-0.000111636590377,0.999999992946,0.0,0.0,0.0,0.0,0.0,0.0
1609045355237012386,223,1609045355237012386,0.00874634213529,-0.0035810192201,0.000815290326777,1.53674936877e-05,4.62044460568e-05,-0.000112534684583,0.999999992482,0.0,0.0,0.0,0.0,0.0,0.0
1609045355339962721,224,1609045355339962721,0.00874634213529,-0.0035810192201,0.000815290326777,1.53674936877e-05,4.62044460568e-05,-0.000112534684583,0.999999992482,0.0,0.0,0.0,0.0,0.0,0.0
1609045355442709446,225,1609045355442709446,0.00809145605632,-0.00448840970928,0.000547026123145,4.62112201575e-06,2.99601293149e-05,-0.00016317856561,0.999999986227,0.0,0.0,0.0,0.0,0.0,0.0
1609045355545970201,226,1609045355545970201,0.00809145605632,-0.00448840970928,0.000547026123145,4.62112201575e-06,2.99601293149e-05,-0.00016317856561,0.999999986227,0.0,0.0,0.0,0.0,0.0,0.0
1609045355649053097,227,1609045355649053097,0.00370894950543,-0.00559360470268,0.000509666896447,1.86226043581e-05,4.64287265049e-05,-0.000164337076678,0.999999985245,0.0,0.0,0.0,0.0,0.0,0.0
1609045355752284527,228,1609045355752284527,0.00370894950543,-0.00559360470268,0.000509666896447,1.86226043581e-05,4.64287265049e-05,-0.000164337076678,0.999999985245,0.0,0.0,0.0,0.0,0.0,0.0
1609045355855209589,229,1609045355855209589,0.0198461457296,-0.0104784292737,0.00110411042672,0.00012702260899,-0.000103464043399,-0.000531879702157,0.999999845132,0.0,0.0,0.0,0.0,0.0,0.0
1609045355958298922,230,1609045355958298922,0.00208338113152,-0.00724426012398,0.000538823919432,6.34984976482e-05,2.96976330652e-05,-0.00011690239405,0.99999999071,0.0,0.0,0.0,0.0,0.0,0.0
1609045356061547995,231,1609045356061547995,0.0148300992123,-0.0055378663458,0.000328061719903,-0.000439640373169,-1.77560579949e-06,-0.000435527145154,0.999999808515,0.0,0.0,0.0,0.0,0.0,0.0
1609045356233950853,232,1609045356233950853,0.00474120503747,-0.00537425062134,0.0010143993992,3.50457525275e-05,4.90941827986e-05,-0.000157155398291,0.999999985832,0.0,0.0,0.0,0.0,0.0,0.0
1609045356337673187,233,1609045356337673187,0.00637874341287,-0.0053722359547,0.00131494221103,4.95809363999e-05,3.99413072735e-05,-0.000123468029882,0.999999990351,0.0,0.0,0.0,0.0,0.0,0.0
1609045356439819813,234,1609045356439819813,0.00637874341287,-0.0053722359547,0.00131494221103,4.95809363999e-05,3.99413072735e-05,-0.000123468029882,0.999999990351,0.0,0.0,0.0,0.0,0.0,0.0
1609045356542840481,235,1609045356542840481,0.00490556638219,-0.00491772786211,0.00109389725834,3.39695661033e-05,4.5613043825e-05,-0.000154003371057,0.999999986524,0.0,0.0,0.0,0.0,0.0,0.0
1609045356646822929,236,1609045356646822929,0.00490556638219,-0.00491772786211,0.00109389725834,3.39695661033e-05,4.5613043825e-05,-0.000154003371057,0.999999986524,0.0,0.0,0.0,0.0,0.0,0.0
1609045356755345106,237,1609045356755345106,0.00122623720188,-0.00363799727518,-0.00068767199969,-5.16238394301e-06,2.06234381479e-05,-0.000132741973438,0.999999990964,0.0,0.0,0.0,0.0,0.0,0.0
1609045356858777046,238,1609045356858777046,0.00122623720188,-0.00363799727518,-0.00068767199969,-5.16238394301e-06,2.06234381479e-05,-0.000132741973438,0.999999990964,0.0,0.0,0.0,0.0,0.0,0.0
1609045356962072849,239,1609045356962072849,-0.000133778155294,-0.00399494106458,-0.00311786900086,-0.000663723853588,-8.93567842804e-05,-0.000132115243534,0.999999767016,0.0,0.0,0.0,0.0,0.0,0.0
1609045357135710001,240,1609045357135710001,0.00759389055554,-0.00384846141292,0.00111481933402,3.34780304397e-05,6.1418965764e-05,-0.000120130570492,0.999999990338,0.0,0.0,0.0,0.0,0.0,0.0
1609045357238911152,241,1609045357238911152,0.00550605765662,-0.00422879370067,0.00027295324489,1.02386711406e-05,3.97299484544e-05,-9.47905521922e-05,0.999999994666,0.0,0.0,0.0,0.0,0.0,0.0
1609045357340174675,242,1609045357340174675,0.00550605765662,-0.00422879370067,0.00027295324489,1.02386711406e-05,3.97299484544e-05,-9.47905521922e-05,0.999999994666,0.0,0.0,0.0,0.0,0.0,0.0
1609045357443092585,243,1609045357443092585,0.00120225651904,-0.00526205889174,0.00128319466368,4.63526412813e-05,3.82333782653e-05,-0.000116387682306,0.999999991422,0.0,0.0,0.0,0.0,0.0,0.0
1609045357546181679,244,1609045357546181679,0.00120225651904,-0.00526205889174,0.00128319466368,4.63526412813e-05,3.82333782653e-05,-0.000116387682306,0.999999991422,0.0,0.0,0.0,0.0,0.0,0.0
1609045357649516582,245,1609045357649516582,0.0100327864485,-0.00533483854167,0.000958009833545,2.0207661225e-05,6.2053515974e-05,-0.000183876381505,0.999999980965,0.0,0.0,0.0,0.0,0.0,0.0
1609045357752487183,246,1609045357752487183,0.0100327864485,-0.00533483854167,0.000958009833545,2.0207661225e-05,6.2053515974e-05,-0.000183876381505,0.999999980965,0.0,0.0,0.0,0.0,0.0,0.0
1609045357855449200,247,1609045357855449200,0.0110704801861,-0.00287534342284,0.000528414047984,-6.43689606011e-06,5.19239442622e-05,-0.000131924717323,0.999999989929,0.0,0.0,0.0,0.0,0.0,0.0
1609045357958674669,248,1609045357958674669,0.0110704801861,-0.00287534342284,0.000528414047984,-6.43689606011e-06,5.19239442622e-05,-0.000131924717323,0.999999989929,0.0,0.0,0.0,0.0,0.0,0.0
1609045358061515808,249,1609045358061515808,0.00693200640304,-0.0048371863875,0.000830088773321,2.66450186852e-05,3.99414478387e-05,-0.000145063970296,0.999999988326,0.0,0.0,0.0,0.0,0.0,0.0
1609045358233575821,250,1609045358233575821,0.00693200640304,-0.0048371863875,0.000830088773321,2.66450186852e-05,3.99414478387e-05,-0.000145063970296,0.999999988326,0.0,0.0,0.0,0.0,0.0,0.0
1609045358336685419,251,1609045358336685419,0.00663010835155,-0.00612698996919,0.00109329015002,4.89702321231e-05,3.5424351072e-05,-0.00013083828075,0.999999989614,0.0,0.0,0.0,0.0,0.0,0.0
1609045358440450907,252,1609045358440450907,0.00663010835155,-0.00612698996919,0.00109329015002,4.89702321231e-05,3.5424351072e-05,-0.00013083828075,0.999999989614,0.0,0.0,0.0,0.0,0.0,0.0
1609045358542962074,253,1609045358542962074,0.00460588094855,-0.00419663215506,0.00152974172935,2.97763952563e-05,5.08363503661e-05,-0.000116508841525,0.999999991477,0.0,0.0,0.0,0.0,0.0,0.0
1609045358646141052,254,1609045358646141052,0.00460588094855,-0.00419663215506,0.00152974172935,2.97763952563e-05,5.08363503661e-05,-0.000116508841525,0.999999991477,0.0,0.0,0.0,0.0,0.0,0.0
1609045358749271631,255,1609045358749271631,0.0106607246353,0.00308596823035,0.00385837044007,-0.000144122473738,0.000292387622594,-5.18471256755e-05,0.999999945525,0.0,0.0,0.0,0.0,0.0,0.0
1609045358852361679,256,1609045358852361679,0.0106941061923,-0.00494971572455,0.000443442013988,3.68889191825e-06,4.34554859475e-05,-0.000193322218062,0.999999980362,0.0,0.0,0.0,0.0,0.0,0.0
1609045358955761433,257,1609045358955761433,0.00526833835765,-0.00416127314657,0.000767277980399,2.70483061247e-05,2.82121410778e-05,-0.000107508600107,0.999999993457,0.0,0.0,0.0,0.0,0.0,0.0
1609045359058362484,258,1609045359058362484,0.00526833835765,-0.00416127314657,0.000767277980399,2.70483061247e-05,2.82121410778e-05,-0.000107508600107,0.999999993457,0.0,0.0,0.0,0.0,0.0,0.0
1609045359160843372,259,1609045359160843372,0.00292036294191,-0.00630101647227,0.00155893993265,6.53807133655e-05,4.7531702346e-05,-0.000123380266409,0.999999989122,0.0,0.0,0.0,0.0,0.0,0.0
1609045359333363295,260,1609045359333363295,0.00292036294191,-0.00630101647227,0.00155893993265,6.53807133655e-05,4.7531702346e-05,-0.000123380266409,0.999999989122,0.0,0.0,0.0,0.0,0.0,0.0
1609045359436570168,261,1609045359436570168,0.00304809357579,-0.00323021820733,0.000357631364329,2.01437875173e-05,3.42103072615e-05,-7.91980249422e-05,0.999999996076,0.0,0.0,0.0,0.0,0.0,0.0
1609045359539654970,262,1609045359539654970,0.00304809357579,-0.00323021820733,0.000357631364329,2.01437875173e-05,3.42103072615e-05,-7.91980249422e-05,0.999999996076,0.0,0.0,0.0,0.0,0.0,0.0
1609045359642843962,263,1609045359642843962,0.000169960369067,-0.00656218892005,0.0012882023863,6.20461700629e-05,1.37622506188e-05,-0.000123507079048,0.999999990353,0.0,0.0,0.0,0.0,0.0,0.0
1609045359745853186,264,1609045359745853186,0.000169960369067,-0.00656218892005,0.0012882023863,6.20461700629e-05,1.37622506188e-05,-0.000123507079048,0.999999990353,0.0,0.0,0.0,0.0,0.0,0.0
1609045359849003315,265,1609045359849003315,0.00136549776231,-0.00457620256235,0.000791260348061,1.60760356118e-05,3.69523393319e-05,-0.000119169160154,0.999999992087,0.0,0.0,0.0,0.0,0.0,0.0
1609045359952252150,266,1609045359952252150,0.00136549776231,-0.00457620256235,0.000791260348061,1.60760356118e-05,3.69523393319e-05,-0.000119169160154,0.999999992087,0.0,0.0,0.0,0.0,0.0,0.0
1609045360055291891,267,1609045360055291891,0.00523957095765,-0.00468469552827,0.000848698722634,1.88952557579e-05,4.80155311162e-05,-0.000150427441587,0.999999987355,0.0,0.0,0.0,0.0,0.0,0.0
1609045360158235788,268,1609045360158235788,0.00523957095765,-0.00468469552827,0.000848698722634,1.88952557579e-05,4.80155311162e-05,-0.000150427441587,0.999999987355,0.0,0.0,0.0,0.0,0.0,0.0
1609045360261337519,269,1609045360261337519,0.010298158342,-0.00470321633888,0.0026129520768,4.31522820076e-05,4.46078361839e-05,-0.000153339179383,0.999999986318,0.0,0.0,0.0,0.0,0.0,0.0
1609045360433461189,270,1609045360433461189,0.010298158342,-0.00470321633888,0.0026129520768,4.31522820076e-05,4.46078361839e-05,-0.000153339179383,0.999999986318,0.0,0.0,0.0,0.0,0.0,0.0
1609045360536498308,271,1609045360536498308,0.00305067862345,-0.00551305433574,0.000276752833374,2.80228711306e-05,2.68912351243e-05,-0.000110488987162,0.999999993142,0.0,0.0,0.0,0.0,0.0,0.0
1609045360639825583,272,1609045360639825583,0.00305067862345,-0.00551305433574,0.000276752833374,2.80228711306e-05,2.68912351243e-05,-0.000110488987162,0.999999993142,0.0,0.0,0.0,0.0,0.0,0.0
1609045360742610455,273,1609045360742610455,-0.000163045369476,-0.0043028791365,0.00146718902785,6.01209215217e-05,2.56780111814e-05,-0.000113554243498,0.999999991416,0.0,0.0,0.0,0.0,0.0,0.0
1609045360845783234,274,1609045360845783234,-0.000163045369476,-0.0043028791365,0.00146718902785,6.01209215217e-05,2.56780111814e-05,-0.000113554243498,0.999999991416,0.0,0.0,0.0,0.0,0.0,0.0
1609045360948768616,275,1609045360948768616,0.00449946827282,-0.00519482671966,0.000268983827268,2.15516584782e-05,2.76847122529e-05,-0.000168871545042,0.999999985126,0.0,0.0,0.0,0.0,0.0,0.0
1609045361051918030,276,1609045361051918030,0.00449946827282,-0.00519482671966,0.000268983827268,2.15516584782e-05,2.76847122529e-05,-0.000168871545042,0.999999985126,0.0,0.0,0.0,0.0,0.0,0.0
1609045361154649496,277,1609045361154649496,0.00636400541912,-0.00296720112058,-0.000179019845465,-1.45164571342e-05,2.93016709051e-05,-0.000183634949295,0.999999982604,0.0,0.0,0.0,0.0,0.0,0.0
1609045361257855892,278,1609045361257855892,0.00636400541912,-0.00296720112058,-0.000179019845465,-1.45164571342e-05,2.93016709051e-05,-0.000183634949295,0.999999982604,0.0,0.0,0.0,0.0,0.0,0.0
1609045361360918045,279,1609045361360918045,0.0137705191425,-0.00856049055833,-0.00193068601602,0.000229135219495,0.000110690187382,-0.000237605478295,0.999999939394,0.0,0.0,0.0,0.0,0.0,0.0
1609045361533029079,280,1609045361533029079,0.00982931785458,-0.00512482412639,0.00224714595064,5.03113794709e-05,7.31548354688e-05,-0.00014745801898,0.999999985187,0.0,0.0,0.0,0.0,0.0,0.0
1609045361636012554,281,1609045361636012554,0.003996860983,-0.00497347071578,0.000689678902995,1.692817e-05,3.01717680816e-05,-0.000155603713299,0.999999987295,0.0,0.0,0.0,0.0,0.0,0.0
1609045361739068985,282,1609045361739068985,0.003996860983,-0.00497347071578,0.000689678902995,1.692817e-05,3.01717680816e-05,-0.000155603713299,0.999999987295,0.0,0.0,0.0,0.0,0.0,0.0
1609045361842687130,283,1609045361842687130,0.00291484533267,-0.00398452061382,0.00137877060825,2.94756598163e-05,3.19106446645e-05,-0.000155217806455,0.99999998701,0.0,0.0,0.0,0.0,0.0,0.0
1609045361945674658,284,1609045361945674658,0.00291484533267,-0.00398452061382,0.00137877060825,2.94756598163e-05,3.19106446645e-05,-0.000155217806455,0.99999998701,0.0,0.0,0.0,0.0,0.0,0.0
1609045362048807859,285,1609045362048807859,0.0179039684736,-0.00280635722753,0.00126148614616,0.000330045208881,-0.000399329971503,-0.000823500494116,0.999999526726,0.0,0.0,0.0,0.0,0.0,0.0
1609045362151858568,286,1609045362151858568,0.00755342821244,-0.00625721578581,0.00145520014284,4.26587041024e-05,5.66439075769e-05,-0.000162455848232,0.99999998429,0.0,0.0,0.0,0.0,0.0,0.0
1609045362255241632,287,1609045362255241632,0.00137293833802,-0.00528340078303,0.00202899562591,7.44869259344e-05,4.17370215781e-05,-5.22371049681e-05,0.999999994991,0.0,0.0,0.0,0.0,0.0,0.0
1609045362358287096,288,1609045362358287096,0.00137293833802,-0.00528340078303,0.00202899562591,7.44869259344e-05,4.17370215781e-05,-5.22371049681e-05,0.999999994991,0.0,0.0,0.0,0.0,0.0,0.0
1609045362461383820,289,1609045362461383820,0.00669382965004,-0.00419970717365,0.00145425395921,4.26805843171e-05,4.7544281652e-05,-0.000103330828176,0.99999999262,0.0,0.0,0.0,0.0,0.0,0.0
1609045362633414268,290,1609045362633414268,0.00669382965004,-0.00419970717365,0.00145425395921,4.26805843171e-05,4.7544281652e-05,-0.000103330828176,0.99999999262,0.0,0.0,0.0,0.0,0.0,0.0
1609045362736429691,291,1609045362736429691,0.00303784926474,-0.00522717510904,0.00145683221235,4.44290437527e-05,3.1070855103e-05,-0.000117452204139,0.999999991633,0.0,0.0,0.0,0.0,0.0,0.0
1609045362839648485,292,1609045362839648485,0.00303784926474,-0.00522717510904,0.00145683221235,4.44290437527e-05,3.1070855103e-05,-0.000117452204139,0.999999991633,0.0,0.0,0.0,0.0,0.0,0.0
1609045362942562819,293,1609045362942562819,0.00636727126833,-0.00378657333396,0.000629334401404,7.58217231058e-06,4.57272806739e-05,-0.000132689634221,0.999999990122,0.0,0.0,0.0,0.0,0.0,0.0
1609045363045731306,294,1609045363045731306,0.00636727126833,-0.00378657333396,0.000629334401404,7.58217231058e-06,4.57272806739e-05,-0.000132689634221,0.999999990122,0.0,0.0,0.0,0.0,0.0,0.0
1609045363148877621,295,1609045363148877621,0.0218047015139,0.00496292733208,-0.000263341126696,-0.000577442861823,2.1591310235e-05,-0.000116620220119,0.999999826247,0.0,0.0,0.0,0.0,0.0,0.0
1609045363252388000,296,1609045363252388000,0.00478138802963,-0.00669859694281,0.000750927947591,4.82305347236e-05,4.04016840527e-05,-0.000172493638441,0.999999983144,0.0,0.0,0.0,0.0,0.0,0.0
1609045363355829716,297,1609045363355829716,0.00339984900032,-0.00336718792492,0.0017945852291,4.64056422405e-05,4.45709854312e-05,-5.26224902914e-05,0.999999996545,0.0,0.0,0.0,0.0,0.0,0.0
1609045363457896709,298,1609045363457896709,0.00339984900032,-0.00336718792492,0.0017945852291,4.64056422405e-05,4.45709854312e-05,-5.26224902914e-05,0.999999996545,0.0,0.0,0.0,0.0,0.0,0.0
1609045363561176062,299,1609045363561176062,0.0222137044363,-0.000238032253198,0.00289016139472,-4.15966444241e-07,3.03840741623e-05,-0.000376446291566,0.999999928682,0.0,0.0,0.0,0.0,0.0,0.0
1609045363733346224,300,1609045363733346224,0.00401672327054,-0.00548114618133,0.00149058520675,4.41626654237e-05,5.20321567937e-05,-0.000146088048173,0.999999987,0.0,0.0,0.0,0.0,0.0,0.0
1609045363836479187,301,1609045363836479187,0.00758728330981,-0.00391686361064,0.00156501303558,2.46897799855e-05,6.20704448655e-05,-0.000138503271069,0.999999988177,0.0,0.0,0.0,0.0,0.0,0.0
1609045363939492702,302,1609045363939492702,0.00758728330981,-0.00391686361064,0.00156501303558,2.46897799855e-05,6.20704448655e-05,-0.000138503271069,0.999999988177,0.0,0.0,0.0,0.0,0.0,0.0
1609045364042618275,303,1609045364042618275,0.00374529283146,-0.00525970265662,0.000908068938975,4.37398921504e-05,3.81947981429e-05,-0.000189642776418,0.999999980332,0.0,0.0,0.0,0.0,0.0,0.0
1609045364145671606,304,1609045364145671606,0.00374529283146,-0.00525970265662,0.000908068938975,4.37398921504e-05,3.81947981429e-05,-0.000189642776418,0.999999980332,0.0,0.0,0.0,0.0,0.0,0.0
1609045364248308420,305,1609045364248308420,0.00467173407084,0.00252808608361,0.000551459984998,-0.000871652925621,0.000278801348487,-0.000326933933721,0.999999527802,0.0,0.0,0.0,0.0,0.0,0.0
1609045364352055788,306,1609045364352055788,-0.0019113774704,-0.00438632025949,0.00166858351242,4.20088349995e-05,3.79170333755e-05,-7.95728435796e-05,0.999999995233,0.0,0.0,0.0,0.0,0.0,0.0
1609045364455469131,307,1609045364455469131,0.0047910097621,-0.00481718554689,0.000765986983703,2.96722779164e-05,3.78646809259e-05,-0.000153032811944,0.999999987133,0.0,0.0,0.0,0.0,0.0,0.0
1609045364558759212,308,1609045364558759212,0.0047910097621,-0.00481718554689,0.000765986983703,2.96722779164e-05,3.78646809259e-05,-0.000153032811944,0.999999987133,0.0,0.0,0.0,0.0,0.0,0.0
1609045364661556721,309,1609045364661556721,0.0268007295555,0.00438501144007,0.00611027564441,-0.000409258107483,0.000112483806018,-0.000464174576698,0.999999802199,0.0,0.0,0.0,0.0,0.0,0.0
1609045364833323240,310,1609045364833323240,0.00793294639681,-0.00269431472715,0.000609168605913,-5.79361893872e-06,4.2932897602e-05,-0.000123563202816,0.999999991428,0.0,0.0,0.0,0.0,0.0,0.0
1609045364936540127,311,1609045364936540127,0.00546935889505,-0.0035052838467,0.00112378760339,1.44154940355e-05,6.39388113354e-05,-0.00012210436969,0.999999990397,0.0,0.0,0.0,0.0,0.0,0.0
1609045365038934946,312,1609045365038934946,0.00546935889505,-0.0035052838467,0.00112378760339,1.44154940355e-05,6.39388113354e-05,-0.00012210436969,0.999999990397,0.0,0.0,0.0,0.0,0.0,0.0
1609045365141975403,313,1609045365141975403,0.000650050627403,-0.00750229740221,0.0020924953758,7.48540865629e-05,4.81304051671e-05,-0.000133301726044,0.999999987155,0.0,0.0,0.0,0.0,0.0,0.0
1609045365245730400,314,1609045365245730400,0.000650050627403,-0.00750229740221,0.0020924953758,7.48540865629e-05,4.81304051671e-05,-0.000133301726044,0.999999987155,0.0,0.0,0.0,0.0,0.0,0.0
1609045365348766327,315,1609045365348766327,0.0061879399031,-0.00463580861025,0.00137091514827,3.04658042354e-05,3.22764380764e-05,-0.000182120599393,0.999999982431,0.0,0.0,0.0,0.0,0.0,0.0
1609045365452180862,316,1609045365452180862,0.0061879399031,-0.00463580861025,0.00137091514827,3.04658042354e-05,3.22764380764e-05,-0.000182120599393,0.999999982431,0.0,0.0,0.0,0.0,0.0,0.0
1609045365555227280,317,1609045365555227280,0.0046437289923,-0.00533049227713,0.00248908044611,6.3826498353e-05,5.13369916454e-05,-0.000122633870975,0.999999989126,0.0,0.0,0.0,0.0,0.0,0.0
1609045365658289433,318,1609045365658289433,0.0046437289923,-0.00533049227713,0.00248908044611,6.3826498353e-05,5.13369916454e-05,-0.000122633870975,0.999999989126,0.0,0.0,0.0,0.0,0.0,0.0
1609045365761258364,319,1609045365761258364,0.000339769182991,-0.00159674207172,-0.000972307092163,-7.76939869424e-05,-7.82997871259e-05,-0.000312397118482,0.99999994512,0.0,0.0,0.0,0.0,0.0,0.0
1609045365933325768,320,1609045365933325768,0.00449835685736,-0.00507278615559,0.00209181048376,4.05339274429e-05,4.21318136513e-05,-0.000138343999907,0.999999988721,0.0,0.0,0.0,0.0,0.0,0.0
1609045366036532164,321,1609045366036532164,0.00458405844128,-0.0045749729291,0.00191157150335,3.8480820278e-05,2.90818476497e-05,-0.000120054457202,0.99999999163,0.0,0.0,0.0,0.0,0.0,0.0
1609045366140005350,322,1609045366140005350,0.00458405844128,-0.0045749729291,0.00191157150335,3.8480820278e-05,2.90818476497e-05,-0.000120054457202,0.99999999163,0.0,0.0,0.0,0.0,0.0,0.0
1609045366242765188,323,1609045366242765188,0.0043917232203,-0.00517013419434,0.00152120380101,4.59836719303e-05,4.19320086924e-05,-0.000128612096183,0.999999989793,0.0,0.0,0.0,0.0,0.0,0.0
1609045366345786810,324,1609045366345786810,0.0043917232203,-0.00517013419434,0.00152120380101,4.59836719303e-05,4.19320086924e-05,-0.000128612096183,0.999999989793,0.0,0.0,0.0,0.0,0.0,0.0
1609045366448918104,325,1609045366448918104,0.0191073207561,-0.00707958995613,0.00278352369003,-3.88955575235e-05,5.57708380093e-05,-0.000372079838825,0.999999928467,0.0,0.0,0.0,0.0,0.0,0.0
1609045366551988602,326,1609045366551988602,0.0029770797133,-0.00640485140583,0.00283730247253,7.69979926988e-05,8.28247669302e-05,-0.000125997934122,0.999999985668,0.0,0.0,0.0,0.0,0.0,0.0
1609045366655180216,327,1609045366655180216,0.00676282815039,-0.00379803283469,0.000276189920444,1.40169138748e-05,3.51729416519e-05,-0.000133613362101,0.999999990357,0.0,0.0,0.0,0.0,0.0,0.0
1609045366758187532,328,1609045366758187532,0.00676282815039,-0.00379803283469,0.000276189920444,1.40169138748e-05,3.51729416519e-05,-0.000133613362101,0.999999990357,0.0,0.0,0.0,0.0,0.0,0.0
1609045366861323833,329,1609045366861323833,0.00641318749436,0.00199896351953,-0.00466220377455,-0.000586709723491,-0.000223199762104,0.000211465910204,0.999999780618,0.0,0.0,0.0,0.0,0.0,0.0
1609045367033211946,330,1609045367033211946,0.0034654998638,-0.0040969181374,0.00201174509965,4.69227178884e-05,7.82577639584e-05,-0.000112794271134,0.999999989476,0.0,0.0,0.0,0.0,0.0,0.0
1609045367136453152,331,1609045367136453152,0.00476217839449,-0.00556123187182,0.00293630650818,8.67083975037e-05,5.03766923393e-05,-8.52537299687e-05,0.999999991338,0.0,0.0,0.0,0.0,0.0,0.0
1609045367239051580,332,1609045367239051580,0.00476217839449,-0.00556123187182,0.00293630650818,8.67083975037e-05,5.03766923393e-05,-8.52537299687e-05,0.999999991338,0.0,0.0,0.0,0.0,0.0,0.0
1609045367342326403,333,1609045367342326403,0.00519113894818,-0.00586311642795,0.000142282204948,-6.08482338671e-06,3.61456304633e-05,-0.000195572178779,0.999999980204,0.0,0.0,0.0,0.0,0.0,0.0
1609045367445249319,334,1609045367445249319,0.00519113894818,-0.00586311642795,0.000142282204948,-6.08482338671e-06,3.61456304633e-05,-0.000195572178779,0.999999980204,0.0,0.0,0.0,0.0,0.0,0.0
1609045367548366070,335,1609045367548366070,0.00241676622048,-0.00716097233021,0.0015562481796,6.90753319143e-05,4.39170744346e-05,-0.000122279068213,0.999999989174,0.0,0.0,0.0,0.0,0.0,0.0
1609045367651268005,336,1609045367651268005,0.00241676622048,-0.00716097233021,0.0015562481796,6.90753319143e-05,4.39170744346e-05,-0.000122279068213,0.999999989174,0.0,0.0,0.0,0.0,0.0,0.0
1609045367754429579,337,1609045367754429579,0.005778485892,-0.00505416081968,0.00155533130157,4.02279055267e-05,3.76377979941e-05,-0.00013492512448,0.99999998938,0.0,0.0,0.0,0.0,0.0,0.0
1609045367857505083,338,1609045367857505083,0.005778485892,-0.00505416081968,0.00155533130157,4.02279055267e-05,3.76377979941e-05,-0.00013492512448,0.99999998938,0.0,0.0,0.0,0.0,0.0,0.0
1609045367960665464,339,1609045367960665464,0.022303735253,-0.00750382972683,0.00258418836514,3.06055830848e-05,0.000264692876714,-0.000348344641018,0.999999903828,0.0,0.0,0.0,0.0,0.0,0.0
1609045368132719517,340,1609045368132719517,0.00143587334693,-0.00680797678289,0.00113188352121,3.38705673828e-05,2.17602574326e-05,-0.000141031359226,0.999999989245,0.0,0.0,0.0,0.0,0.0,0.0
1609045368236078501,341,1609045368236078501,0.00447906202314,-0.00461370580856,0.000963897572439,2.92959176015e-05,4.72124379565e-05,-0.000123241475983,0.999999990862,0.0,0.0,0.0,0.0,0.0,0.0
1609045368338953733,342,1609045368338953733,0.00447906202314,-0.00461370580856,0.000963897572439,2.92959176015e-05,4.72124379565e-05,-0.000123241475983,0.999999990862,0.0,0.0,0.0,0.0,0.0,0.0
1609045368442005873,343,1609045368442005873,0.000304100903597,-0.00699463906229,0.00133822613328,6.39016511933e-05,3.24192282823e-05,-9.57887603303e-05,0.999999992845,0.0,0.0,0.0,0.0,0.0,0.0
