%time,field.header.seq,field.header.stamp,field.pose.pose.position.x,field.pose.pose.position.y,field.pose.pose.position.z,field.pose.pose.orientation.x,field.pose.pose.orientation.y,field.pose.pose.orientation.z,field.pose.pose.orientation.w,field.twist.twist.linear.x,field.twist.twist.linear.y,field.twist.twist.linear.z,field.twist.twist.angular.x,field.twist.twist.angular.y,field.twist.twist.angular.z
1609046843501728296,17,1609046843501728296,-0.0140957530619,-0.00547076749406,-0.0077109937994,0.00185709653275,-0.000684758117338,-0.000320238672915,0.999997989871,0.0,0.0,0.0,0.0,0.0,0.0
1609046843572059631,18,1609046843572059631,-0.000533192884811,-0.000183569516367,0.000656907338381,-4.5841988336e-05,-4.54413356679e-05,-4.73874481632e-05,0.999999996794,0.0,0.0,0.0,0.0,0.0,0.0
1609046843673682690,19,1609046843673682690,6.51705255782e-05,-0.000806624281339,5.29705356591e-06,-6.79816467827e-05,-5.37745178382e-05,-6.28378171351e-06,0.999999996224,0.0,0.0,0.0,0.0,0.0,0.0
1609046843776911259,20,1609046843776911259,6.51705255782e-05,-0.000806624281339,5.29705356591e-06,-6.79816467827e-05,-5.37745178382e-05,-6.28378171351e-06,0.999999996224,0.0,0.0,0.0,0.0,0.0,0.0
1609046843879849672,21,1609046843879849672,-0.0011993251308,-0.00124063956252,-0.000455651700783,-6.26993649406e-06,-9.61624067798e-06,-0.000123562731788,0.9999999923,0.0,0.0,0.0,0.0,0.0,0.0
1609046843984355450,22,1609046843984355450,-0.0011993251308,-0.00124063956252,-0.000455651700783,-6.26993649406e-06,-9.61624067798e-06,-0.000123562731788,0.9999999923,0.0,0.0,0.0,0.0,0.0,0.0
1609046844085905075,23,1609046844085905075,0.00200824095186,-0.00218600185356,-0.000322615720749,-5.66175097437e-06,1.09070273685e-06,-1.56800273402e-05,0.99999999986,0.0,0.0,0.0,0.0,0.0,0.0
1609046844189086676,24,1609046844189086676,0.00200824095186,-0.00218600185356,-0.000322615720749,-5.66175097437e-06,1.09070273685e-06,-1.56800273402e-05,0.99999999986,0.0,0.0,0.0,0.0,0.0,0.0
1609046844292747259,25,1609046844292747259,-0.000574061687732,-0.00184827774992,0.000198411610731,-1.21141473518e-05,-2.19473391834e-05,-2.5934531173e-05,0.999999999349,0.0,0.0,0.0,0.0,0.0,0.0
1609046844395283222,26,1609046844395283222,-0.000574061687732,-0.00184827774992,0.000198411610731,-1.21141473518e-05,-2.19473391834e-05,-2.5934531173e-05,0.999999999349,0.0,0.0,0.0,0.0,0.0,0.0
1609046844498527050,27,1609046844498527050,0.000153916100566,-0.000243685407247,0.000255700336246,-3.9597916479e-06,-2.11435261694e-05,-4.55379670476e-05,0.999999998732,0.0,0.0,0.0,0.0,0.0,0.0
1609046844601438999,28,1609046844601438999,0.000153916100566,-0.000243685407247,0.000255700336246,-3.9597916479e-06,-2.11435261694e-05,-4.55379670476e-05,0.999999998732,0.0,0.0,0.0,0.0,0.0,0.0
1609046844671971083,29,1609046844671971083,-0.00352238588342,0.000381742100846,0.000834972221565,-4.82894045236e-05,-5.50008205411e-05,-7.0920161742e-05,0.999999994807,0.0,0.0,0.0,0.0,0.0,0.0
1609046844774305820,30,1609046844774305820,-0.00352238588342,0.000381742100846,0.000834972221565,-4.82894045236e-05,-5.50008205411e-05,-7.0920161742e-05,0.999999994807,0.0,0.0,0.0,0.0,0.0,0.0
1609046844876910925,31,1609046844876910925,-0.00423553738666,-0.000791627583535,0.000581903092136,-4.0642368262e-05,-2.7723606962e-05,-1.6240497486e-05,0.999999998658,0.0,0.0,0.0,0.0,0.0,0.0
1609046844979641438,32,1609046844979641438,-0.00423553738666,-0.000791627583535,0.000581903092136,-4.0642368262e-05,-2.7723606962e-05,-1.6240497486e-05,0.999999998658,0.0,0.0,0.0,0.0,0.0,0.0
1609046845087772608,33,1609046845087772608,-0.00395300398716,-0.00259050919474,0.000604177779086,-3.73482729259e-05,-3.66278725043e-05,-2.54425448943e-05,0.999999998308,0.0,0.0,0.0,0.0,0.0,0.0
1609046845191053152,34,1609046845191053152,-0.00395300398716,-0.00259050919474,0.000604177779086,-3.73482729259e-05,-3.66278725043e-05,-2.54425448943e-05,0.999999998308,0.0,0.0,0.0,0.0,0.0,0.0
1609046845293898582,35,1609046845293898582,-0.00143314961593,0.00244437267225,6.16625569182e-05,-2.13073027912e-05,-3.09854593212e-05,-0.000125060229719,0.999999991473,0.0,0.0,0.0,0.0,0.0,0.0
1609046845396756887,36,1609046845396756887,-0.00143314961593,0.00244437267225,6.16625569182e-05,-2.13073027912e-05,-3.09854593212e-05,-0.000125060229719,0.999999991473,0.0,0.0,0.0,0.0,0.0,0.0
1609046845500083208,37,1609046845500083208,-0.00277174623179,0.00167332118172,0.000396049479756,-4.6810025672e-05,-3.6197989552e-05,-9.9718479574e-05,0.999999993277,0.0,0.0,0.0,0.0,0.0,0.0
1609046845572151423,38,1609046845572151423,-0.00277174623179,0.00167332118172,0.000396049479756,-4.6810025672e-05,-3.6197989552e-05,-9.9718479574e-05,0.999999993277,0.0,0.0,0.0,0.0,0.0,0.0
1609046845672154188,39,1609046845672154188,0.0030540746279,0.00215018686574,0.000812879184334,-4.42763035217e-05,-9.06852205759e-06,-4.34316490231e-05,0.999999998036,0.0,0.0,0.0,0.0,0.0,0.0
1609046845775036573,40,1609046845775036573,0.0030540746279,0.00215018686574,0.000812879184334,-4.42763035217e-05,-9.06852205759e-06,-4.34316490231e-05,0.999999998036,0.0,0.0,0.0,0.0,0.0,0.0
1609046845877982140,41,1609046845877982140,-0.00264267055945,0.000959885785791,0.0012660391162,-4.6641858623e-05,-1.99321136316e-05,-7.39299110492e-05,0.999999995981,0.0,0.0,0.0,0.0,0.0,0.0
1609046845980954409,42,1609046845980954409,-0.00264267055945,0.000959885785791,0.0012660391162,-4.6641858623e-05,-1.99321136316e-05,-7.39299110492e-05,0.999999995981,0.0,0.0,0.0,0.0,0.0,0.0
1609046846084257603,43,1609046846084257603,0.00127606717459,0.00154022811159,0.0010836571738,-5.67156213172e-05,-1.46838981886e-06,-3.96640191173e-05,0.999999997604,0.0,0.0,0.0,0.0,0.0,0.0
1609046846187910557,44,1609046846187910557,0.00127606717459,0.00154022811159,0.0010836571738,-5.67156213172e-05,-1.46838981886e-06,-3.96640191173e-05,0.999999997604,0.0,0.0,0.0,0.0,0.0,0.0
1609046846290307045,45,1609046846290307045,-0.00363508998575,-0.00202135842926,-0.000589842381012,2.53487126663e-05,-9.52589461303e-06,-4.05728037121e-05,0.99999999881,0.0,0.0,0.0,0.0,0.0,0.0
1609046846393627167,46,1609046846393627167,-0.00363508998575,-0.00202135842926,-0.000589842381012,2.53487126663e-05,-9.52589461303e-06,-4.05728037121e-05,0.99999999881,0.0,0.0,0.0,0.0,0.0,0.0
1609046846497103453,47,1609046846497103453,-0.00594302293784,0.0019429588254,0.000598040214921,-9.67608824872e-05,-8.08132740292e-05,-0.00011072084199,0.999999985924,0.0,0.0,0.0,0.0,0.0,0.0
1609046846600000381,48,1609046846600000381,-0.00594302293784,0.0019429588254,0.000598040214921,-9.67608824872e-05,-8.08132740292e-05,-0.00011072084199,0.999999985924,0.0,0.0,0.0,0.0,0.0,0.0
1609046846672477961,49,1609046846672477961,-0.00123013163848,-0.000515829947912,-0.000281631029553,-3.30679980149e-05,-4.89387556839e-05,-2.08748334079e-05,0.999999998038,0.0,0.0,0.0,0.0,0.0,0.0
1609046846772044897,50,1609046846772044897,-0.00123013163848,-0.000515829947912,-0.000281631029553,-3.30679980149e-05,-4.89387556839e-05,-2.08748334079e-05,0.999999998038,0.0,0.0,0.0,0.0,0.0,0.0
1609046846875285625,51,1609046846875285625,-0.0012931163948,-0.000515401401688,0.00108277624861,-5.67501302462e-05,-3.76439625033e-05,-0.000103564560211,0.999999992318,0.0,0.0,0.0,0.0,0.0,0.0
1609046846983413935,52,1609046846983413935,-0.0012931163948,-0.000515401401688,0.00108277624861,-5.67501302462e-05,-3.76439625033e-05,-0.000103564560211,0.999999992318,0.0,0.0,0.0,0.0,0.0,0.0
1609046847084388256,53,1609046847084388256,0.000668008754221,-0.00166659040639,-2.98502545137e-05,-3.76018863332e-05,-4.91746246696e-05,-2.28474617509e-05,0.999999997823,0.0,0.0,0.0,0.0,0.0,0.0
1609046847187813282,54,1609046847187813282,0.000668008754221,-0.00166659040639,-2.98502545137e-05,-3.76018863332e-05,-4.91746246696e-05,-2.28474617509e-05,0.999999997823,0.0,0.0,0.0,0.0,0.0,0.0
1609046847291962624,55,1609046847291962624,-0.00302876306613,-0.00102972071103,0.000141755162124,5.98081191935e-06,-4.4262879e-06,-0.000121153092973,0.999999992633,0.0,0.0,0.0,0.0,0.0,0.0
1609046847393856525,56,1609046847393856525,-0.00302876306613,-0.00102972071103,0.000141755162124,5.98081191935e-06,-4.4262879e-06,-0.000121153092973,0.999999992633,0.0,0.0,0.0,0.0,0.0,0.0
1609046847497085810,57,1609046847497085810,-0.00360468435998,-0.0019990432427,-0.000525148503219,3.38974865927e-05,-5.26771932241e-06,-2.43627619896e-05,0.999999999115,0.0,0.0,0.0,0.0,0.0,0.0
1609046847599806547,58,1609046847599806547,-0.00360468435998,-0.0019990432427,-0.000525148503219,3.38974865927e-05,-5.26771932241e-06,-2.43627619896e-05,0.999999999115,0.0,0.0,0.0,0.0,0.0,0.0
1609046847671875477,59,1609046847671875477,-0.00130280724117,-0.000973444424012,-0.000229499268021,1.50182258231e-05,-5.03399223275e-06,-9.31685906589e-05,0.999999995534,0.0,0.0,0.0,0.0,0.0,0.0
1609046847772095680,60,1609046847772095680,-0.00130280724117,-0.000973444424012,-0.000229499268021,1.50182258231e-05,-5.03399223275e-06,-9.31685906589e-05,0.999999995534,0.0,0.0,0.0,0.0,0.0,0.0
1609046847875608683,61,1609046847875608683,0.0033875407218,0.00157337869467,-0.000205740444699,6.19799436063e-06,-7.80085780626e-06,7.87700497032e-06,0.999999999919,0.0,0.0,0.0,0.0,0.0,0.0
1609046847978022099,62,1609046847978022099,0.0033875407218,0.00157337869467,-0.000205740444699,6.19799436063e-06,-7.80085780626e-06,7.87700497032e-06,0.999999999919,0.0,0.0,0.0,0.0,0.0,0.0
1609046848081429005,63,1609046848081429005,0.00172453107831,0.000995756209448,0.000143406490173,-2.10041661394e-05,-1.73073304449e-05,-1.93168325333e-05,0.999999999443,0.0,0.0,0.0,0.0,0.0,0.0
1609046848184927940,64,1609046848184927940,0.00172453107831,0.000995756209448,0.000143406490173,-2.10041661394e-05,-1.73073304449e-05,-1.93168325333e-05,0.999999999443,0.0,0.0,0.0,0.0,0.0,0.0
1609046848296851397,65,1609046848296851397,-0.00291431469023,-0.00203081183511,0.000417383941715,-1.62844625093e-05,-1.12783677833e-05,-5.21212354267e-05,0.999999998445,0.0,0.0,0.0,0.0,0.0,0.0
1609046848400095463,66,1609046848400095463,-0.00291431469023,-0.00203081183511,0.000417383941715,-1.62844625093e-05,-1.12783677833e-05,-5.21212354267e-05,0.999999998445,0.0,0.0,0.0,0.0,0.0,0.0
1609046848501193047,67,1609046848501193047,-0.00148331526822,-0.001772078973,0.000663775404932,-4.21011564632e-05,-2.57586797981e-05,-8.19261956675e-06,0.999999998748,0.0,0.0,0.0,0.0,0.0,0.0
1609046848571957111,68,1609046848571957111,-0.00148331526822,-0.001772078973,0.000663775404932,-4.21011564632e-05,-2.57586797981e-05,-8.19261956675e-06,0.999999998748,0.0,0.0,0.0,0.0,0.0,0.0
1609046848673169613,69,1609046848673169613,0.00233489290932,-5.70381649423e-05,-0.000291111539324,-4.9513197678e-06,1.61261321342e-05,3.99666887509e-06,0.99999999985,0.0,0.0,0.0,0.0,0.0,0.0
1609046848777867794,70,1609046848777867794,0.00233489290932,-5.70381649423e-05,-0.000291111539324,-4.9513197678e-06,1.61261321342e-05,3.99666887509e-06,0.99999999985,0.0,0.0,0.0,0.0,0.0,0.0
1609046848881298065,71,1609046848881298065,-0.00127448131955,-0.00114440608202,0.000805175931657,-3.19012647216e-05,3.17981104495e-06,1.32788998033e-06,0.999999999485,0.0,0.0,0.0,0.0,0.0,0.0
1609046848982772350,72,1609046848982772350,-0.00127448131955,-0.00114440608202,0.000805175931657,-3.19012647216e-05,3.17981104495e-06,1.32788998033e-06,0.999999999485,0.0,0.0,0.0,0.0,0.0,0.0
1609046849085796118,73,1609046849085796118,-0.00107301863849,-0.0009260259787,0.00149209012229,-6.27767195649e-05,-2.93313926654e-05,-4.70737734858e-05,0.999999996491,0.0,0.0,0.0,0.0,0.0,0.0
1609046849188966751,74,1609046849188966751,-0.00107301863849,-0.0009260259787,0.00149209012229,-6.27767195649e-05,-2.93313926654e-05,-4.70737734858e-05,0.999999996491,0.0,0.0,0.0,0.0,0.0,0.0
1609046849292664289,75,1609046849292664289,0.00220700401023,0.000285593963409,0.000715072656275,-1.85355788043e-05,9.922391372e-07,-9.16454324688e-06,0.999999999786,0.0,0.0,0.0,0.0,0.0,0.0
1609046849395053864,76,1609046849395053864,0.00220700401023,0.000285593963409,0.000715072656275,-1.85355788043e-05,9.922391372e-07,-9.16454324688e-06,0.999999999786,0.0,0.0,0.0,0.0,0.0,0.0
1609046849498718739,77,1609046849498718739,0.00196555050859,-0.000296266175442,0.000902008555709,-3.07729532565e-05,-1.98221474938e-05,-5.3412878675e-05,0.999999997904,0.0,0.0,0.0,0.0,0.0,0.0
1609046849601204157,78,1609046849601204157,0.00196555050859,-0.000296266175442,0.000902008555709,-3.07729532565e-05,-1.98221474938e-05,-5.3412878675e-05,0.999999997904,0.0,0.0,0.0,0.0,0.0,0.0
1609046849671424627,79,1609046849671424627,-0.0018108979719,-0.000613078103993,0.000631270300872,-1.84706724207e-05,-2.66163163759e-06,-7.93383137822e-05,0.999999996679,0.0,0.0,0.0,0.0,0.0,0.0
1609046849773547411,80,1609046849773547411,-0.0018108979719,-0.000613078103993,0.000631270300872,-1.84706724207e-05,-2.66163163759e-06,-7.93383137822e-05,0.999999996679,0.0,0.0,0.0,0.0,0.0,0.0
1609046849876348972,81,1609046849876348972,-0.000580796380948,-0.000589170743891,0.000216687950092,-3.8903862175e-05,-4.69564112378e-05,-5.9982183186e-05,0.999999996342,0.0,0.0,0.0,0.0,0.0,0.0
1609046849979423761,82,1609046849979423761,-0.000580796380948,-0.000589170743891,0.000216687950092,-3.8903862175e-05,-4.69564112378e-05,-5.9982183186e-05,0.999999996342,0.0,0.0,0.0,0.0,0.0,0.0
1609046850082615614,83,1609046850082615614,-0.00178739159537,-0.00148651460562,0.00117089680304,-5.38042209467e-05,-3.17453758646e-05,-2.84032197246e-05,0.999999997645,0.0,0.0,0.0,0.0,0.0,0.0
1609046850185678720,84,1609046850185678720,-0.00178739159537,-0.00148651460562,0.00117089680304,-5.38042209467e-05,-3.17453758646e-05,-2.84032197246e-05,0.999999997645,0.0,0.0,0.0,0.0,0.0,0.0
1609046850288942575,85,1609046850288942575,0.000613197388747,-0.00145613761409,-4.23197424347e-05,-2.20827545062e-06,-2.29446644312e-05,-9.91893748893e-06,0.999999999685,0.0,0.0,0.0,0.0,0.0,0.0
1609046850392298698,86,1609046850392298698,0.000613197388747,-0.00145613761409,-4.23197424347e-05,-2.20827545062e-06,-2.29446644312e-05,-9.91893748893e-06,0.999999999685,0.0,0.0,0.0,0.0,0.0,0.0
1609046850495137453,87,1609046850495137453,-0.00288162246406,-0.000991614474093,-3.27646005159e-06,-3.44396752149e-06,6.51849826924e-06,-6.08345458981e-05,0.999999998122,0.0,0.0,0.0,0.0,0.0,0.0
1609046850598149061,88,1609046850598149061,-0.00288162246406,-0.000991614474093,-3.27646005159e-06,-3.44396752149e-06,6.51849826924e-06,-6.08345458981e-05,0.999999998122,0.0,0.0,0.0,0.0,0.0,0.0
1609046850701236486,89,1609046850701236486,0.00254281935377,0.00229185762784,-4.83531742698e-05,-6.41188204411e-05,-2.82003408236e-05,-7.79930136579e-05,0.999999994505,0.0,0.0,0.0,0.0,0.0,0.0
1609046850771607161,90,1609046850771607161,0.00254281935377,0.00229185762784,-4.83531742698e-05,-6.41188204411e-05,-2.82003408236e-05,-7.79930136579e-05,0.999999994505,0.0,0.0,0.0,0.0,0.0,0.0
1609046850873324871,91,1609046850873324871,-0.000459597907493,-0.000813095998301,0.000617842516011,-5.16036829816e-05,-1.09727383524e-05,-5.4389948175e-05,0.999999997129,0.0,0.0,0.0,0.0,0.0,0.0
1609046850976317406,92,1609046850976317406,-0.000459597907493,-0.000813095998301,0.000617842516011,-5.16036829816e-05,-1.09727383524e-05,-5.4389948175e-05,0.999999997129,0.0,0.0,0.0,0.0,0.0,0.0
1609046851079416513,93,1609046851079416513,-0.00015970164723,-0.0010965515077,0.000903787285426,-3.56243494042e-05,-1.98611238051e-05,-0.000144883876234,0.999999988673,0.0,0.0,0.0,0.0,0.0,0.0
1609046851183229685,94,1609046851183229685,-0.00015970164723,-0.0010965515077,0.000903787285426,-3.56243494042e-05,-1.98611238051e-05,-0.000144883876234,0.999999988673,0.0,0.0,0.0,0.0,0.0,0.0
1609046851285019875,95,1609046851285019875,0.00288929261184,-0.00224236645449,-0.00145988119049,3.33155536038e-05,-1.02959601541e-06,4.62392059914e-05,0.999999998375,0.0,0.0,0.0,0.0,0.0,0.0
1609046851388114214,96,1609046851388114214,0.00288929261184,-0.00224236645449,-0.00145988119049,3.33155536038e-05,-1.02959601541e-06,4.62392059914e-05,0.999999998375,0.0,0.0,0.0,0.0,0.0,0.0
1609046851491568804,97,1609046851491568804,0.00333383808569,8.98924938505e-05,-0.000174997476691,-2.20275357388e-05,-2.34493130014e-05,-6.66660435156e-05,0.99999999726,0.0,0.0,0.0,0.0,0.0,0.0
1609046851594684839,98,1609046851594684839,0.00333383808569,8.98924938505e-05,-0.000174997476691,-2.20275357388e-05,-2.34493130014e-05,-6.66660435156e-05,0.99999999726,0.0,0.0,0.0,0.0,0.0,0.0
1609046851697880507,99,1609046851697880507,-0.00279357630522,-0.00235573674761,0.000896509785075,-4.442234957e-05,-4.29778118171e-05,-6.85213176563e-05,0.999999995742,0.0,0.0,0.0,0.0,0.0,0.0
1609046851800915956,100,1609046851800915956,-0.00279357630522,-0.00235573674761,0.000896509785075,-4.442234957e-05,-4.29778118171e-05,-6.85213176563e-05,0.999999995742,0.0,0.0,0.0,0.0,0.0,0.0
1609046851871320963,101,1609046851871320963,-0.000286076545791,-0.000275893278408,0.000472402117375,-2.46019611387e-05,-2.20392856164e-05,-6.45554628766e-05,0.999999997371,0.0,0.0,0.0,0.0,0.0,0.0
1609046851973047495,102,1609046851973047495,-0.000286076545791,-0.000275893278408,0.000472402117375,-2.46019611387e-05,-2.20392856164e-05,-6.45554628766e-05,0.999999997371,0.0,0.0,0.0,0.0,0.0,0.0
1609046852076071501,103,1609046852076071501,0.00126427536306,-0.00109925289998,-0.000823170229363,-3.58180889345e-06,-2.61576518691e-05,-1.83317225151e-05,0.999999999483,0.0,0.0,0.0,0.0,0.0,0.0
1609046852179152250,104,1609046852179152250,0.00126427536306,-0.00109925289998,-0.000823170229363,-3.58180889345e-06,-2.61576518691e-05,-1.83317225151e-05,0.999999999483,0.0,0.0,0.0,0.0,0.0,0.0
1609046852282329321,105,1609046852282329321,0.00071252762479,0.00011243978803,0.000856902301997,-2.11554577516e-05,-3.38242042597e-06,-0.000126505000605,0.999999991769,0.0,0.0,0.0,0.0,0.0,0.0
1609046852384957314,106,1609046852384957314,0.00071252762479,0.00011243978803,0.000856902301997,-2.11554577516e-05,-3.38242042597e-06,-0.000126505000605,0.999999991769,0.0,0.0,0.0,0.0,0.0,0.0
1609046852488520622,107,1609046852488520622,0.000566458737784,-0.000557814546599,-0.000799247923446,3.53152445154e-06,-1.10137911802e-05,-6.11145219801e-05,0.999999998066,0.0,0.0,0.0,0.0,0.0,0.0
1609046852591594219,108,1609046852591594219,0.000566458737784,-0.000557814546599,-0.000799247923446,3.53152445154e-06,-1.10137911802e-05,-6.11145219801e-05,0.999999998066,0.0,0.0,0.0,0.0,0.0,0.0
1609046852694822311,109,1609046852694822311,-0.00240511354382,-0.000531444179036,-0.000247998094418,-1.0024561371e-05,-2.99353292652e-05,-0.000126477040536,0.999999991503,0.0,0.0,0.0,0.0,0.0,0.0
1609046852797986269,110,1609046852797986269,-0.00240511354382,-0.000531444179036,-0.000247998094418,-1.0024561371e-05,-2.99353292652e-05,-0.000126477040536,0.999999991503,0.0,0.0,0.0,0.0,0.0,0.0
1609046852901259899,111,1609046852901259899,-3.6410986092e-05,-0.00149700329299,0.000317632786031,-1.84685552347e-05,-1.18863683802e-05,-6.5970749031e-05,0.999999997583,0.0,0.0,0.0,0.0,0.0,0.0
1609046852971366405,112,1609046852971366405,-3.6410986092e-05,-0.00149700329299,0.000317632786031,-1.84685552347e-05,-1.18863683802e-05,-6.5970749031e-05,0.999999997583,0.0,0.0,0.0,0.0,0.0,0.0
1609046853073413610,113,1609046853073413610,0.000242519719173,-0.00103281885911,-0.000153682192382,-1.1174903341e-05,-2.50498083735e-05,-5.0624003396e-05,0.999999998342,0.0,0.0,0.0,0.0,0.0,0.0
1609046853176168919,114,1609046853176168919,0.000242519719173,-0.00103281885911,-0.000153682192382,-1.1174903341e-05,-2.50498083735e-05,-5.0624003396e-05,0.999999998342,0.0,0.0,0.0,0.0,0.0,0.0
1609046853279094458,115,1609046853279094458,0.00215645548264,0.000361885184732,0.000222264625717,-3.75755386976e-05,-4.49347076999e-05,-8.95995225795e-05,0.99999999427,0.0,0.0,0.0,0.0,0.0,0.0
1609046853381848097,116,1609046853381848097,0.00215645548264,0.000361885184732,0.000222264625717,-3.75755386976e-05,-4.49347076999e-05,-8.95995225795e-05,0.99999999427,0.0,0.0,0.0,0.0,0.0,0.0
1609046853485204458,117,1609046853485204458,0.00221210190881,-0.00112537633551,-0.000322631209158,-1.81095394782e-05,-2.26671602738e-05,-7.73903752589e-05,0.999999996584,0.0,0.0,0.0,0.0,0.0,0.0
1609046853588275433,118,1609046853588275433,0.00221210190881,-0.00112537633551,-0.000322631209158,-1.81095394782e-05,-2.26671602738e-05,-7.73903752589e-05,0.999999996584,0.0,0.0,0.0,0.0,0.0,0.0
1609046853691444874,119,1609046853691444874,-0.000734724081902,-0.00105135497853,0.000527207506564,-2.34793684592e-05,-1.75410329365e-05,-0.000103277903237,0.999999994237,0.0,0.0,0.0,0.0,0.0,0.0
1609046853794646025,120,1609046853794646025,-0.000734724081902,-0.00105135497853,0.000527207506564,-2.34793684592e-05,-1.75410329365e-05,-0.000103277903237,0.999999994237,0.0,0.0,0.0,0.0,0.0,0.0
1609046853897840738,121,1609046853897840738,-0.00118066566992,-0.00112544136876,-0.000825405963567,-3.86333452366e-05,-6.58145521478e-05,-0.000116007623247,0.999999990359,0.0,0.0,0.0,0.0,0.0,0.0
1609046854001017094,122,1609046854001017094,-0.00118066566992,-0.00112544136876,-0.000825405963567,-3.86333452366e-05,-6.58145521478e-05,-0.000116007623247,0.999999990359,0.0,0.0,0.0,0.0,0.0,0.0
1609046854071305275,123,1609046854071305275,0.00182337009507,-0.000424263607791,-0.000318554724397,-1.4335931624e-05,-1.56539225155e-05,-4.78280977172e-05,0.999999998631,0.0,0.0,0.0,0.0,0.0,0.0
1609046854173077583,124,1609046854173077583,0.00182337009507,-0.000424263607791,-0.000318554724397,-1.4335931624e-05,-1.56539225155e-05,-4.78280977172e-05,0.999999998631,0.0,0.0,0.0,0.0,0.0,0.0
1609046854276171684,125,1609046854276171684,0.00137770250868,-0.00130502168049,0.00076452611096,-3.00704728103e-05,1.04533459982e-07,-4.53770707297e-05,0.999999998518,0.0,0.0,0.0,0.0,0.0,0.0
1609046854379001379,126,1609046854379001379,0.00137770250868,-0.00130502168049,0.00076452611096,-3.00704728103e-05,1.04533459982e-07,-4.53770707297e-05,0.999999998518,0.0,0.0,0.0,0.0,0.0,0.0
1609046854482342958,127,1609046854482342958,-0.00449596737711,-0.00126679879844,2.22462952536e-05,-2.60019588484e-05,-2.80779819071e-05,-0.000152758354584,0.9999999876,0.0,0.0,0.0,0.0,0.0,0.0
1609046854585064888,128,1609046854585064888,-0.00449596737711,-0.00126679879844,2.22462952536e-05,-2.60019588484e-05,-2.80779819071e-05,-0.000152758354584,0.9999999876,0.0,0.0,0.0,0.0,0.0,0.0
1609046854688234806,129,1609046854688234806,-0.0031003995666,-0.00189645849773,-0.000814339372786,1.59557460764e-05,-6.30012633293e-06,-8.57727768583e-05,0.999999996174,0.0,0.0,0.0,0.0,0.0,0.0
1609046854791399956,130,1609046854791399956,-0.0031003995666,-0.00189645849773,-0.000814339372786,1.59557460764e-05,-6.30012633293e-06,-8.57727768583e-05,0.999999996174,0.0,0.0,0.0,0.0,0.0,0.0
1609046854894348621,131,1609046854894348621,0.00010309606533,-3.44676682403e-05,-0.000235051377153,-1.0161784817e-05,-9.1733853731e-06,-6.69310285556e-05,0.999999997666,0.0,0.0,0.0,0.0,0.0,0.0
1609046854998707056,132,1609046854998707056,0.00010309606533,-3.44676682403e-05,-0.000235051377153,-1.0161784817e-05,-9.1733853731e-06,-6.69310285556e-05,0.999999997666,0.0,0.0,0.0,0.0,0.0,0.0
1609046855101145506,133,1609046855101145506,-0.00398961461267,-0.0070066761266,0.00139981302569,0.0012695821755,9.1744344976e-05,-0.00023751637325,0.999999161665,0.0,0.0,0.0,0.0,0.0,0.0
1609046855171255827,134,1609046855171255827,-0.000493177866315,-0.00278715816671,0.000574570782741,2.0314377433e-07,-3.55957083011e-05,2.2069555266e-06,0.999999999364,0.0,0.0,0.0,0.0,0.0,0.0
1609046855273828268,135,1609046855273828268,-0.00303375802498,-0.00261041484396,0.000785373437465,-2.2670542362e-05,-1.29355606833e-05,-0.000128344277499,0.999999991423,0.0,0.0,0.0,0.0,0.0,0.0
1609046855376131296,136,1609046855376131296,-0.00303375802498,-0.00261041484396,0.000785373437465,-2.2670542362e-05,-1.29355606833e-05,-0.000128344277499,0.999999991423,0.0,0.0,0.0,0.0,0.0,0.0
1609046855479208469,137,1609046855479208469,0.00366369114932,-0.00137790232667,-0.000310328829396,-1.27969425773e-06,-1.83209812596e-05,-2.89447965527e-05,0.999999999412,0.0,0.0,0.0,0.0,0.0,0.0
1609046855582283020,138,1609046855582283020,0.00366369114932,-0.00137790232667,-0.000310328829396,-1.27969425773e-06,-1.83209812596e-05,-2.89447965527e-05,0.999999999412,0.0,0.0,0.0,0.0,0.0,0.0
1609046855685334921,139,1609046855685334921,-0.00432557052478,-0.00100845732733,0.000775650889491,-2.96931828633e-05,-2.10065421975e-05,-0.000112237290722,0.99999999304,0.0,0.0,0.0,0.0,0.0,0.0
1609046855788450480,140,1609046855788450480,-0.00432557052478,-0.00100845732733,0.000775650889491,-2.96931828633e-05,-2.10065421975e-05,-0.000112237290722,0.99999999304,0.0,0.0,0.0,0.0,0.0,0.0
1609046855891535044,141,1609046855891535044,-0.00183728572774,0.000521162477292,0.000426798711318,-3.0879813009e-05,-4.13322851614e-05,-0.000127237193509,0.999999990574,0.0,0.0,0.0,0.0,0.0,0.0
1609046855994340181,142,1609046855994340181,-0.00183728572774,0.000521162477292,0.000426798711318,-3.0879813009e-05,-4.13322851614e-05,-0.000127237193509,0.999999990574,0.0,0.0,0.0,0.0,0.0,0.0
1609046856097698927,143,1609046856097698927,3.12277069264e-06,-0.000748730287411,0.000787725170369,-7.02328821123e-05,-6.85258637894e-06,-9.6788254297e-05,0.999999992826,0.0,0.0,0.0,0.0,0.0,0.0
1609046856200646877,144,1609046856200646877,3.12277069264e-06,-0.000748730287411,0.000787725170369,-7.02328821123e-05,-6.85258637894e-06,-9.6788254297e-05,0.999999992826,0.0,0.0,0.0,0.0,0.0,0.0
1609046856270874262,145,1609046856270874262,-0.00124628298785,-0.00123562909936,-0.000583622856267,1.94898567192e-05,-2.37158953318e-05,-9.00650509717e-05,0.999999995473,0.0,0.0,0.0,0.0,0.0,0.0
1609046856373088121,146,1609046856373088121,-0.00124628298785,-0.00123562909936,-0.000583622856267,1.94898567192e-05,-2.37158953318e-05,-9.00650509717e-05,0.999999995473,0.0,0.0,0.0,0.0,0.0,0.0
1609046856475932360,147,1609046856475932360,0.000860924729687,-0.00024213321695,0.000504736969934,-4.29398189966e-05,-2.37810274068e-05,-0.00011073115395,0.999999992665,0.0,0.0,0.0,0.0,0.0,0.0
1609046856578944206,148,1609046856578944206,0.000860924729687,-0.00024213321695,0.000504736969934,-4.29398189966e-05,-2.37810274068e-05,-0.00011073115395,0.999999992665,0.0,0.0,0.0,0.0,0.0,0.0
1609046856682237148,149,1609046856682237148,-0.000397284046731,-0.00160833182855,-0.000426534853426,7.37883395824e-06,-4.08243288991e-05,-7.12471075974e-05,0.999999996601,0.0,0.0,0.0,0.0,0.0,0.0
1609046856785253286,150,1609046856785253286,-0.000397284046731,-0.00160833182855,-0.000426534853426,7.37883395824e-06,-4.08243288991e-05,-7.12471075974e-05,0.999999996601,0.0,0.0,0.0,0.0,0.0,0.0
1609046856888509989,151,1609046856888509989,-0.0013677488588,-0.00358600199181,0.000165990367878,1.55323878495e-05,-7.5232497148e-06,-0.000114944506804,0.999999993245,0.0,0.0,0.0,0.0,0.0,0.0
1609046856991461277,152,1609046856991461277,-0.0013677488588,-0.00358600199181,0.000165990367878,1.55323878495e-05,-7.5232497148e-06,-0.000114944506804,0.999999993245,0.0,0.0,0.0,0.0,0.0,0.0
1609046857094422340,153,1609046857094422340,-0.000848951419277,-0.00131137571327,0.000814998687393,-6.36556128305e-05,-5.94776222253e-05,-2.48748613059e-05,0.999999995896,0.0,0.0,0.0,0.0,0.0,0.0
1609046857197767019,154,1609046857197767019,-0.000848951419277,-0.00131137571327,0.000814998687393,-6.36556128305e-05,-5.94776222253e-05,-2.48748613059e-05,0.999999995896,0.0,0.0,0.0,0.0,0.0,0.0
1609046857300457954,155,1609046857300457954,-0.0175592731179,-0.0067346495422,0.00201967935575,-0.000366241430878,-0.000259354811432,0.000158523653792,0.999999886736,0.0,0.0,0.0,0.0,0.0,0.0
1609046857370843410,156,1609046857370843410,-0.00202550485032,-0.00200752347212,-0.000509232151294,3.34458890029e-06,-1.80129424552e-05,-0.000108813575618,0.999999993912,0.0,0.0,0.0,0.0,0.0,0.0
1609046857472904444,157,1609046857472904444,-0.00245201709341,-0.00131386750866,0.00117644731426,-6.51356000556e-05,-4.35194174773e-05,-6.14314277539e-05,0.999999995045,0.0,0.0,0.0,0.0,0.0,0.0
1609046857575943708,158,1609046857575943708,-0.00245201709341,-0.00131386750866,0.00117644731426,-6.51356000556e-05,-4.35194174773e-05,-6.14314277539e-05,0.999999995045,0.0,0.0,0.0,0.0,0.0,0.0
1609046857679066896,159,1609046857679066896,-0.00184038193508,-0.000564777714123,0.0012954257459,-3.52346048922e-05,-1.14563059761e-05,-0.000157665621149,0.999999986884,0.0,0.0,0.0,0.0,0.0,0.0
1609046857782416105,160,1609046857782416105,-0.00184038193508,-0.000564777714123,0.0012954257459,-3.52346048922e-05,-1.14563059761e-05,-0.000157665621149,0.999999986884,0.0,0.0,0.0,0.0,0.0,0.0
1609046857885345697,161,1609046857885345697,-2.47539859821e-06,0.00035002676923,0.000233695917425,-2.97483633483e-05,-2.29184015751e-05,-0.000157578426929,0.999999986879,0.0,0.0,0.0,0.0,0.0,0.0
1609046857988800764,162,1609046857988800764,-2.47539859821e-06,0.00035002676923,0.000233695917425,-2.97483633483e-05,-2.29184015751e-05,-0.000157578426929,0.999999986879,0.0,0.0,0.0,0.0,0.0,0.0
1609046858091836929,163,1609046858091836929,-0.000508241351459,-0.00270944783047,0.000265740322155,-1.83613842886e-05,-2.84346159376e-05,-5.02118439339e-05,0.999999998167,0.0,0.0,0.0,0.0,0.0,0.0
1609046858194612265,164,1609046858194612265,-0.000508241351459,-0.00270944783047,0.000265740322155,-1.83613842886e-05,-2.84346159376e-05,-5.02118439339e-05,0.999999998167,0.0,0.0,0.0,0.0,0.0,0.0
1609046858298383713,165,1609046858298383713,-0.000970489441735,-0.000558131219213,5.57084364961e-05,-1.61680968873e-05,-4.58566870671e-05,-9.38566267614e-05,0.999999994413,0.0,0.0,0.0,0.0,0.0,0.0
1609046858400810719,166,1609046858400810719,-0.000970489441735,-0.000558131219213,5.57084364961e-05,-1.61680968873e-05,-4.58566870671e-05,-9.38566267614e-05,0.999999994413,0.0,0.0,0.0,0.0,0.0,0.0
1609046858471033335,167,1609046858471033335,0.00233430469185,0.00117083114566,0.00092155736696,-4.8900358191e-05,-2.70420493917e-05,-8.55449755158e-05,0.99999999478,0.0,0.0,0.0,0.0,0.0,0.0
1609046858572797775,168,1609046858572797775,0.00233430469185,0.00117083114566,0.00092155736696,-4.8900358191e-05,-2.70420493917e-05,-8.55449755158e-05,0.99999999478,0.0,0.0,0.0,0.0,0.0,0.0
1609046858675834417,169,1609046858675834417,0.00114392543553,-0.000694273667049,-0.000626034961087,-1.70766542645e-05,-4.38282874566e-05,-7.52998004903e-05,0.999999996059,0.0,0.0,0.0,0.0,0.0,0.0
1609046858778877735,170,1609046858778877735,0.00114392543553,-0.000694273667049,-0.000626034961087,-1.70766542645e-05,-4.38282874566e-05,-7.52998004903e-05,0.999999996059,0.0,0.0,0.0,0.0,0.0,0.0
1609046858882261753,171,1609046858882261753,-0.00135201397291,-0.00276371489284,0.00020012505229,-3.83239797727e-06,-4.68782940138e-06,-6.4265239269e-05,0.999999997917,0.0,0.0,0.0,0.0,0.0,0.0
1609046858984929800,172,1609046858984929800,-0.00135201397291,-0.00276371489284,0.00020012505229,-3.83239797727e-06,-4.68782940138e-06,-6.4265239269e-05,0.999999997917,0.0,0.0,0.0,0.0,0.0,0.0
1609046859088097572,173,1609046859088097572,-0.00137320695122,-0.00069367955396,3.36987089468e-05,1.02078861907e-05,-9.94746466518e-06,-7.14558146541e-05,0.999999997345,0.0,0.0,0.0,0.0,0.0,0.0
1609046859191257477,174,1609046859191257477,-0.00137320695122,-0.00069367955396,3.36987089468e-05,1.02078861907e-05,-9.94746466518e-06,-7.14558146541e-05,0.999999997345,0.0,0.0,0.0,0.0,0.0,0.0
1609046859294385672,175,1609046859294385672,0.000228054637206,-0.000509835462804,0.00102381898126,-3.55518191913e-05,-1.52627323034e-05,-9.69606246799e-05,0.999999994551,0.0,0.0,0.0,0.0,0.0,0.0
1609046859397656202,176,1609046859397656202,0.000228054637206,-0.000509835462804,0.00102381898126,-3.55518191913e-05,-1.52627323034e-05,-9.69606246799e-05,0.999999994551,0.0,0.0,0.0,0.0,0.0,0.0
1609046859500774622,177,1609046859500774622,-0.000856281186621,-0.00306538246505,-0.000485160971704,6.04758099595e-06,-1.49594865598e-05,-6.2845465286e-05,0.999999997895,0.0,0.0,0.0,0.0,0.0,0.0
1609046859571021557,178,1609046859571021557,-0.000856281186621,-0.00306538246505,-0.000485160971704,6.04758099595e-06,-1.49594865598e-05,-6.2845465286e-05,0.999999997895,0.0,0.0,0.0,0.0,0.0,0.0
1609046859672726393,179,1609046859672726393,-0.000908212151847,0.00035258801844,0.00151560483929,-5.68423884692e-05,-1.51817660829e-05,-8.54839994962e-05,0.999999994615,0.0,0.0,0.0,0.0,0.0,0.0
1609046859776108265,180,1609046859776108265,-0.000908212151847,0.00035258801844,0.00151560483929,-5.68423884692e-05,-1.51817660829e-05,-8.54839994962e-05,0.999999994615,0.0,0.0,0.0,0.0,0.0,0.0
1609046859879061699,181,1609046859879061699,0.00239252013301,-0.00119468037217,0.000609840006754,-1.5614687461e-05,-5.9193048105e-06,-9.78093773578e-05,0.999999995077,0.0,0.0,0.0,0.0,0.0,0.0
1609046859982322693,182,1609046859982322693,0.00239252013301,-0.00119468037217,0.000609840006754,-1.5614687461e-05,-5.9193048105e-06,-9.78093773578e-05,0.999999995077,0.0,0.0,0.0,0.0,0.0,0.0
1609046860085167170,183,1609046860085167170,-0.00205279699092,-0.000879219681428,0.000638114702037,-4.61398849949e-05,-4.59601171528e-05,-3.45844200382e-05,0.999999997281,0.0,0.0,0.0,0.0,0.0,0.0
1609046860188185930,184,1609046860188185930,-0.00205279699092,-0.000879219681428,0.000638114702037,-4.61398849949e-05,-4.59601171528e-05,-3.45844200382e-05,0.999999997281,0.0,0.0,0.0,0.0,0.0,0.0
1609046860291242361,185,1609046860291242361,0.00367841024803,-0.00155677437773,-0.000363788173189,3.83084352084e-05,7.89312387565e-06,-6.94336101725e-05,0.999999996825,0.0,0.0,0.0,0.0,0.0,0.0
1609046860394419670,186,1609046860394419670,0.00367841024803,-0.00155677437773,-0.000363788173189,3.83084352084e-05,7.89312387565e-06,-6.94336101725e-05,0.999999996825,0.0,0.0,0.0,0.0,0.0,0.0
1609046860497514486,187,1609046860497514486,-0.000465186893854,-0.00399352151396,0.00178553505036,-2.76844260127e-05,6.44427506217e-06,-9.18162978332e-05,0.999999995381,0.0,0.0,0.0,0.0,0.0,0.0
1609046860600615501,188,1609046860600615501,-0.000465186893854,-0.00399352151396,0.00178553505036,-2.76844260127e-05,6.44427506217e-06,-9.18162978332e-05,0.999999995381,0.0,0.0,0.0,0.0,0.0,0.0
1609046860670919895,189,1609046860670919895,-5.47582339771e-05,0.000160626515639,0.000969181063225,-3.65527701658e-05,-2.25522542249e-05,-0.000157019284294,0.99999998675,0.0,0.0,0.0,0.0,0.0,0.0
1609046860773055792,190,1609046860773055792,-5.47582339771e-05,0.000160626515639,0.000969181063225,-3.65527701658e-05,-2.25522542249e-05,-0.000157019284294,0.99999998675,0.0,0.0,0.0,0.0,0.0,0.0
1609046860875856161,191,1609046860875856161,0.000328106516968,-0.00234576668288,-2.03446116949e-06,-1.78069555321e-05,-3.5740817807e-05,-2.54510809071e-05,0.999999998879,0.0,0.0,0.0,0.0,0.0,0.0
1609046860979003668,192,1609046860979003668,0.000328106516968,-0.00234576668288,-2.03446116949e-06,-1.78069555321e-05,-3.5740817807e-05,-2.54510809071e-05,0.999999998879,0.0,0.0,0.0,0.0,0.0,0.0
1609046861082153320,193,1609046861082153320,0.00150174893089,-0.000392890212764,0.0014421145229,-5.48945865567e-05,-2.21035755186e-05,-9.3330134887e-05,0.999999993894,0.0,0.0,0.0,0.0,0.0,0.0
1609046861185218811,194,1609046861185218811,0.00150174893089,-0.000392890212764,0.0014421145229,-5.48945865567e-05,-2.21035755186e-05,-9.3330134887e-05,0.999999993894,0.0,0.0,0.0,0.0,0.0,0.0
1609046861288495064,195,1609046861288495064,-0.0016542065918,-0.00183469900343,0.00043982012572,-4.39112602004e-05,-2.79735160704e-05,-8.01207586985e-05,0.999999995435,0.0,0.0,0.0,0.0,0.0,0.0
1609046861391306162,196,1609046861391306162,-0.0016542065918,-0.00183469900343,0.00043982012572,-4.39112602004e-05,-2.79735160704e-05,-8.01207586985e-05,0.999999995435,0.0,0.0,0.0,0.0,0.0,0.0
1609046861494316578,197,1609046861494316578,0.000806304919523,-0.000768288135435,0.000182177029788,-2.19941189026e-05,-3.35434709831e-05,-0.000121328638943,0.999999991835,0.0,0.0,0.0,0.0,0.0,0.0
1609046861597460032,198,1609046861597460032,0.000806304919523,-0.000768288135435,0.000182177029788,-2.19941189026e-05,-3.35434709831e-05,-0.000121328638943,0.999999991835,0.0,0.0,0.0,0.0,0.0,0.0
1609046861700460911,199,1609046861700460911,0.000750980016787,-0.000893753240339,0.000239190020843,-5.12293026123e-05,-3.84490773111e-05,-7.34468241492e-05,0.999999995251,0.0,0.0,0.0,0.0,0.0,0.0
1609046861770995855,200,1609046861770995855,0.000750980016787,-0.000893753240339,0.000239190020843,-5.12293026123e-05,-3.84490773111e-05,-7.34468241492e-05,0.999999995251,0.0,0.0,0.0,0.0,0.0,0.0
1609046861872781992,201,1609046861872781992,-8.17995727462e-05,-0.000388172915185,0.00112656822012,-3.99917122587e-05,-1.17082796486e-05,-0.000165536152002,0.999999985431,0.0,0.0,0.0,0.0,0.0,0.0
1609046861975788116,202,1609046861975788116,-8.17995727462e-05,-0.000388172915185,0.00112656822012,-3.99917122587e-05,-1.17082796486e-05,-0.000165536152002,0.999999985431,0.0,0.0,0.0,0.0,0.0,0.0
1609046862078939438,203,1609046862078939438,0.00133848065873,-0.00266498392233,0.00137757744977,-3.75137140112e-05,-9.97568353773e-06,-4.50183034444e-05,0.999999998233,0.0,0.0,0.0,0.0,0.0,0.0
1609046862182152987,204,1609046862182152987,0.00133848065873,-0.00266498392233,0.00137757744977,-3.75137140112e-05,-9.97568353773e-06,-4.50183034444e-05,0.999999998233,0.0,0.0,0.0,0.0,0.0,0.0
1609046862285255909,205,1609046862285255909,0.000226313869792,-0.00214943260469,0.00105650598567,-2.25269076718e-05,2.25646033465e-06,-8.91233439114e-05,0.999999995772,0.0,0.0,0.0,0.0,0.0,0.0
1609046862388201237,206,1609046862388201237,0.000226313869792,-0.00214943260469,0.00105650598567,-2.25269076718e-05,2.25646033465e-06,-8.91233439114e-05,0.999999995772,0.0,0.0,0.0,0.0,0.0,0.0
1609046862491432428,207,1609046862491432428,0.00298929866743,-0.00291591993161,0.000859467591682,1.55195158667e-05,3.14575114472e-05,-3.90859897687e-07,0.999999999385,0.0,0.0,0.0,0.0,0.0,0.0
1609046862594545603,208,1609046862594545603,0.00298929866743,-0.00291591993161,0.000859467591682,1.55195158667e-05,3.14575114472e-05,-3.90859897687e-07,0.999999999385,0.0,0.0,0.0,0.0,0.0,0.0
1609046862697530270,209,1609046862697530270,0.00170883114131,-0.0017901469405,0.00130810138028,-2.19649532902e-05,1.77188597573e-05,-7.12210748468e-05,0.999999997066,0.0,0.0,0.0,0.0,0.0,0.0
1609046862800507307,210,1609046862800507307,0.00170883114131,-0.0017901469405,0.00130810138028,-2.19649532902e-05,1.77188597573e-05,-7.12210748468e-05,0.999999997066,0.0,0.0,0.0,0.0,0.0,0.0
1609046862870868683,211,1609046862870868683,0.000964758006691,-0.00175227876778,0.00114703242,-2.80505592155e-05,3.11090169505e-06,-1.24357504995e-05,0.999999999524,0.0,0.0,0.0,0.0,0.0,0.0
1609046862973068476,212,1609046862973068476,0.000964758006691,-0.00175227876778,0.00114703242,-2.80505592155e-05,3.11090169505e-06,-1.24357504995e-05,0.999999999524,0.0,0.0,0.0,0.0,0.0,0.0
1609046863075634241,213,1609046863075634241,0.000863858584482,-0.00112906927306,0.000771784463068,-6.11153353375e-06,1.31451094188e-05,1.2438128253e-06,0.999999999894,0.0,0.0,0.0,0.0,0.0,0.0
1609046863178802729,214,1609046863178802729,0.000863858584482,-0.00112906927306,0.000771784463068,-6.11153353375e-06,1.31451094188e-05,1.2438128253e-06,0.999999999894,0.0,0.0,0.0,0.0,0.0,0.0
1609046863281921864,215,1609046863281921864,0.00191992962474,-0.00183671996363,-5.34778220205e-05,-1.24993299579e-06,-6.346625416e-07,-5.4026908005e-05,0.99999999854,0.0,0.0,0.0,0.0,0.0,0.0
1609046863384902716,216,1609046863384902716,0.00191992962474,-0.00183671996363,-5.34778220205e-05,-1.24993299579e-06,-6.346625416e-07,-5.4026908005e-05,0.99999999854,0.0,0.0,0.0,0.0,0.0,0.0
1609046863487659931,217,1609046863487659931,0.00199310625823,-0.00226952962762,-0.000261797711437,2.98833962262e-05,1.27221502436e-05,-4.6078850654e-05,0.999999998411,0.0,0.0,0.0,0.0,0.0,0.0
1609046863591070652,218,1609046863591070652,0.00199310625823,-0.00226952962762,-0.000261797711437,2.98833962262e-05,1.27221502436e-05,-4.6078850654e-05,0.999999998411,0.0,0.0,0.0,0.0,0.0,0.0
1609046863694291115,219,1609046863694291115,0.00311483569666,-0.00088485375466,-0.000533635744598,1.71530218321e-07,-5.13811696054e-06,-6.30800413747e-05,0.999999997997,0.0,0.0,0.0,0.0,0.0,0.0
1609046863797416210,220,1609046863797416210,0.00311483569666,-0.00088485375466,-0.000533635744598,1.71530218321e-07,-5.13811696054e-06,-6.30800413747e-05,0.999999997997,0.0,0.0,0.0,0.0,0.0,0.0
1609046863900552511,221,1609046863900552511,0.0170433032052,-0.00934369113584,-0.00242145920767,0.00104391032288,0.000507667301494,0.000400314212295,0.999999246137,0.0,0.0,0.0,0.0,0.0,0.0
1609046863970772028,222,1609046863970772028,0.00225863686332,-0.00145872854788,0.000118285252789,8.05170825097e-07,3.66821806506e-06,-6.32922586036e-05,0.99999999799,0.0,0.0,0.0,0.0,0.0,0.0
1609046864072424650,223,1609046864072424650,0.00316882292798,-0.0032023313999,0.000209366189964,-6.47338411225e-06,-2.78397825558e-06,-2.02906231612e-05,0.999999999769,0.0,0.0,0.0,0.0,0.0,0.0
1609046864175596237,224,1609046864175596237,0.00316882292798,-0.0032023313999,0.000209366189964,-6.47338411225e-06,-2.78397825558e-06,-2.02906231612e-05,0.999999999769,0.0,0.0,0.0,0.0,0.0,0.0
1609046864278694153,225,1609046864278694153,0.0030634138681,-8.87192714691e-05,0.00114076817326,-4.15958354891e-05,-1.47455719299e-06,-6.12582616364e-05,0.999999997258,0.0,0.0,0.0,0.0,0.0,0.0
1609046864382097960,226,1609046864382097960,0.0030634138681,-8.87192714691e-05,0.00114076817326,-4.15958354891e-05,-1.47455719299e-06,-6.12582616364e-05,0.999999997258,0.0,0.0,0.0,0.0,0.0,0.0
1609046864484856844,227,1609046864484856844,0.00727899607112,-0.00125292460247,0.000257689700768,-3.17468009066e-05,-4.97659073488e-06,-2.26010248826e-05,0.999999999228,0.0,0.0,0.0,0.0,0.0,0.0
1609046864588232517,228,1609046864588232517,0.00727899607112,-0.00125292460247,0.000257689700768,-3.17468009066e-05,-4.97659073488e-06,-2.26010248826e-05,0.999999999228,0.0,0.0,0.0,0.0,0.0,0.0
1609046864690949917,229,1609046864690949917,0.00305127951106,-0.00196007844984,0.00134751964841,-1.46987515044e-05,2.08048847717e-05,2.59711539088e-06,0.999999999672,0.0,0.0,0.0,0.0,0.0,0.0
1609046864793971539,230,1609046864793971539,0.00305127951106,-0.00196007844984,0.00134751964841,-1.46987515044e-05,2.08048847717e-05,2.59711539088e-06,0.999999999672,0.0,0.0,0.0,0.0,0.0,0.0
1609046864898176908,231,1609046864898176908,0.00626802200035,-0.00147712366356,-0.00143301332892,4.53972856935e-05,2.82577102587e-06,5.6276652849e-05,0.999999997382,0.0,0.0,0.0,0.0,0.0,0.0
1609046865000480890,232,1609046865000480890,0.00626802200035,-0.00147712366356,-0.00143301332892,4.53972856935e-05,2.82577102587e-06,5.6276652849e-05,0.999999997382,0.0,0.0,0.0,0.0,0.0,0.0
1609046865070817232,233,1609046865070817232,0.00483559973068,-0.00116062670569,-0.000470899694035,2.35833364876e-05,-5.15631421128e-06,-2.98643662022e-05,0.999999999263,0.0,0.0,0.0,0.0,0.0,0.0
1609046865172594070,234,1609046865172594070,0.00483559973068,-0.00116062670569,-0.000470899694035,2.35833364876e-05,-5.15631421128e-06,-2.98643662022e-05,0.999999999263,0.0,0.0,0.0,0.0,0.0,0.0
1609046865275635719,235,1609046865275635719,-5.49514685034e-05,-0.0016747121701,0.000131373934595,-1.57311418594e-05,-3.31779700717e-05,-7.48506349336e-05,0.999999996525,0.0,0.0,0.0,0.0,0.0,0.0
1609046865378703117,236,1609046865378703117,-5.49514685034e-05,-0.0016747121701,0.000131373934595,-1.57311418594e-05,-3.31779700717e-05,-7.48506349336e-05,0.999999996525,0.0,0.0,0.0,0.0,0.0,0.0
1609046865481900930,237,1609046865481900930,0.000129961240853,-0.00265862997004,-0.00046524409398,-2.84885848018e-06,-3.08641697977e-05,-2.50197175747e-05,0.999999999207,0.0,0.0,0.0,0.0,0.0,0.0
1609046865584841251,238,1609046865584841251,0.000129961240853,-0.00265862997004,-0.00046524409398,-2.84885848018e-06,-3.08641697977e-05,-2.50197175747e-05,0.999999999207,0.0,0.0,0.0,0.0,0.0,0.0
1609046865688065052,239,1609046865688065052,0.00101170604489,-0.00291955897106,0.000488351960665,-2.14805991321e-05,-5.25372749343e-06,-2.50601427607e-05,0.999999999441,0.0,0.0,0.0,0.0,0.0,0.0
1609046865790968895,240,1609046865790968895,0.00101170604489,-0.00291955897106,0.000488351960665,-2.14805991321e-05,-5.25372749343e-06,-2.50601427607e-05,0.999999999441,0.0,0.0,0.0,0.0,0.0,0.0
1609046865894009829,241,1609046865894009829,0.000607873931483,-0.000928347406388,0.000116086190233,1.26455664608e-05,8.08989821738e-06,-9.13884116825e-05,0.999999995711,0.0,0.0,0.0,0.0,0.0,0.0
1609046865997380495,242,1609046865997380495,0.000607873931483,-0.000928347406388,0.000116086190233,1.26455664608e-05,8.08989821738e-06,-9.13884116825e-05,0.999999995711,0.0,0.0,0.0,0.0,0.0,0.0
1609046866100607634,243,1609046866100607634,0.00429417806205,-0.0022462064409,0.000792392433768,-2.62005053611e-07,1.35483110603e-05,-3.58402950999e-06,0.999999999902,0.0,0.0,0.0,0.0,0.0,0.0
1609046866170928717,244,1609046866170928717,0.00429417806205,-0.0022462064409,0.000792392433768,-2.62005053611e-07,1.35483110603e-05,-3.58402950999e-06,0.999999999902,0.0,0.0,0.0,0.0,0.0,0.0
1609046866272918463,245,1609046866272918463,-0.00247673724574,-0.0020059375826,0.00107903713705,-3.69584814434e-05,-2.14712266017e-05,-1.41524793757e-05,0.999999998986,0.0,0.0,0.0,0.0,0.0,0.0
1609046866376024961,246,1609046866376024961,-0.00247673724574,-0.0020059375826,0.00107903713705,-3.69584814434e-05,-2.14712266017e-05,-1.41524793757e-05,0.999999998986,0.0,0.0,0.0,0.0,0.0,0.0
1609046866479067564,247,1609046866479067564,0.00332404732904,-0.00239471608161,-0.000322495465189,2.91787336656e-05,3.41352498682e-05,3.71209299967e-06,0.999999998985,0.0,0.0,0.0,0.0,0.0,0.0
1609046866581962109,248,1609046866581962109,0.00332404732904,-0.00239471608161,-0.000322495465189,2.91787336656e-05,3.41352498682e-05,3.71209299967e-06,0.999999998985,0.0,0.0,0.0,0.0,0.0,0.0
1609046866685087919,249,1609046866685087919,-0.000579616608696,-0.000720647127297,0.00172396031234,-4.524612023e-05,-3.68987157282e-06,-8.61422645673e-05,0.999999995259,0.0,0.0,0.0,0.0,0.0,0.0
1609046866788161278,250,1609046866788161278,-0.000579616608696,-0.000720647127297,0.00172396031234,-4.524612023e-05,-3.68987157282e-06,-8.61422645673e-05,0.999999995259,0.0,0.0,0.0,0.0,0.0,0.0
1609046866891152382,251,1609046866891152382,0.000788891923311,-0.00142510714478,0.00170873299207,-5.94832746223e-05,-1.932231358e-06,-0.000111885378541,0.99999999197,0.0,0.0,0.0,0.0,0.0,0.0
1609046866994258642,252,1609046866994258642,0.000788891923311,-0.00142510714478,0.00170873299207,-5.94832746223e-05,-1.932231358e-06,-0.000111885378541,0.99999999197,0.0,0.0,0.0,0.0,0.0,0.0
1609046867097453356,253,1609046867097453356,0.00143491821162,-0.00149489382813,0.00103665529872,-2.3507499056e-05,8.78992365241e-06,-7.71378944461e-05,0.99999999671,0.0,0.0,0.0,0.0,0.0,0.0
1609046867200194836,254,1609046867200194836,0.00143491821162,-0.00149489382813,0.00103665529872,-2.3507499056e-05,8.78992365241e-06,-7.71378944461e-05,0.99999999671,0.0,0.0,0.0,0.0,0.0,0.0
1609046867270612240,255,1609046867270612240,-0.000982135287812,0.000435310181242,0.00201851788624,-7.48477729684e-05,-8.28236434368e-06,-6.6087153193e-05,0.999999994981,0.0,0.0,0.0,0.0,0.0,0.0
1609046867372594833,256,1609046867372594833,-0.000982135287812,0.000435310181242,0.00201851788624,-7.48477729684e-05,-8.28236434368e-06,-6.6087153193e-05,0.999999994981,0.0,0.0,0.0,0.0,0.0,0.0
1609046867475284100,257,1609046867475284100,0.00327065465844,-0.0023143221286,-0.000411409602551,7.97670638399e-06,-1.467014205e-05,4.95709832644e-07,0.99999999986,0.0,0.0,0.0,0.0,0.0,0.0
1609046867578359365,258,1609046867578359365,0.00327065465844,-0.0023143221286,-0.000411409602551,7.97670638399e-06,-1.467014205e-05,4.95709832644e-07,0.99999999986,0.0,0.0,0.0,0.0,0.0,0.0
1609046867681569576,259,1609046867681569576,0.00252245550726,-0.00192706469104,0.000821873271635,-9.21608654945e-06,2.55246253382e-05,1.34409961876e-05,0.999999999541,0.0,0.0,0.0,0.0,0.0,0.0
1609046867784730673,260,1609046867784730673,0.00252245550726,-0.00192706469104,0.000821873271635,-9.21608654945e-06,2.55246253382e-05,1.34409961876e-05,0.999999999541,0.0,0.0,0.0,0.0,0.0,0.0
1609046867887934685,261,1609046867887934685,0.00168665309895,-0.00210557943893,0.000586266906437,-1.21762953614e-05,-1.42900572274e-05,1.37395336217e-05,0.999999999729,0.0,0.0,0.0,0.0,0.0,0.0
1609046867991075516,262,1609046867991075516,0.00168665309895,-0.00210557943893,0.000586266906437,-1.21762953614e-05,-1.42900572274e-05,1.37395336217e-05,0.999999999729,0.0,0.0,0.0,0.0,0.0,0.0
1609046868094160080,263,1609046868094160080,0.000544689131617,-0.00138977693896,0.00096755601364,-1.87034695774e-05,-4.54027538773e-07,-7.15652325701e-05,0.999999997264,0.0,0.0,0.0,0.0,0.0,0.0
1609046868197501183,264,1609046868197501183,0.000544689131617,-0.00138977693896,0.00096755601364,-1.87034695774e-05,-4.54027538773e-07,-7.15652325701e-05,0.999999997264,0.0,0.0,0.0,0.0,0.0,0.0
1609046868300450563,265,1609046868300450563,0.00115372291566,-0.00200961950136,0.000618512764507,4.21732952655e-06,2.62605627792e-05,7.17617948682e-06,0.999999999621,0.0,0.0,0.0,0.0,0.0,0.0
1609046868370687008,266,1609046868370687008,0.00115372291566,-0.00200961950136,0.000618512764507,4.21732952655e-06,2.62605627792e-05,7.17617948682e-06,0.999999999621,0.0,0.0,0.0,0.0,0.0,0.0
1609046868472593546,267,1609046868472593546,0.00282861788922,-0.000813069891864,0.00126613461426,-1.29219727392e-05,1.25748178037e-05,-5.62876056456e-05,0.999999998253,0.0,0.0,0.0,0.0,0.0,0.0
1609046868575545788,268,1609046868575545788,0.00282861788922,-0.000813069891864,0.00126613461426,-1.29219727392e-05,1.25748178037e-05,-5.62876056456e-05,0.999999998253,0.0,0.0,0.0,0.0,0.0,0.0
1609046868678578377,269,1609046868678578377,0.000910646833003,-0.00110188165353,-0.000548012812781,-2.31145935793e-05,-3.5935382303e-05,-3.76651172761e-05,0.999999998378,0.0,0.0,0.0,0.0,0.0,0.0
1609046868781983376,270,1609046868781983376,0.000910646833003,-0.00110188165353,-0.000548012812781,-2.31145935793e-05,-3.5935382303e-05,-3.76651172761e-05,0.999999998378,0.0,0.0,0.0,0.0,0.0,0.0
1609046868884860277,271,1609046868884860277,0.00208247360706,-0.00330816940675,0.000909486963248,5.77863356541e-06,2.12579137407e-05,2.40963586536e-05,0.999999999467,0.0,0.0,0.0,0.0,0.0,0.0
1609046868987967014,272,1609046868987967014,0.00208247360706,-0.00330816940675,0.000909486963248,5.77863356541e-06,2.12579137407e-05,2.40963586536e-05,0.999999999467,0.0,0.0,0.0,0.0,0.0,0.0
1609046869090998173,273,1609046869090998173,2.49526401473e-05,-0.00148272820683,0.000824402562256,-4.5325585036e-05,-5.76545933597e-06,-5.89849808578e-05,0.999999997217,0.0,0.0,0.0,0.0,0.0,0.0
1609046869194227219,274,1609046869194227219,2.49526401473e-05,-0.00148272820683,0.000824402562256,-4.5325585036e-05,-5.76545933597e-06,-5.89849808578e-05,0.999999997217,0.0,0.0,0.0,0.0,0.0,0.0
1609046869297960281,275,1609046869297960281,0.00223653671429,-0.000417254453977,0.000978756279551,1.16779020452e-05,1.4537799064e-05,-2.15311450556e-05,0.999999999594,0.0,0.0,0.0,0.0,0.0,0.0
1609046869400494814,276,1609046869400494814,0.00223653671429,-0.000417254453977,0.000978756279551,1.16779020452e-05,1.4537799064e-05,-2.15311450556e-05,0.999999999594,0.0,0.0,0.0,0.0,0.0,0.0
1609046869470755339,277,1609046869470755339,0.00491305043594,-0.00246444668922,-0.000709212199971,5.59786206299e-05,1.63297423202e-05,-9.27784921075e-06,0.999999998257,0.0,0.0,0.0,0.0,0.0,0.0
1609046869572643518,278,1609046869572643518,0.00491305043594,-0.00246444668922,-0.000709212199971,5.59786206299e-05,1.63297423202e-05,-9.27784921075e-06,0.999999998257,0.0,0.0,0.0,0.0,0.0,0.0
1609046869675712109,279,1609046869675712109,0.00359171958342,-0.00244514995583,0.000533254900649,6.88166480746e-06,1.14814590207e-05,5.22189895704e-05,0.999999998547,0.0,0.0,0.0,0.0,0.0,0.0
1609046869778297901,280,1609046869778297901,0.00359171958342,-0.00244514995583,0.000533254900649,6.88166480746e-06,1.14814590207e-05,5.22189895704e-05,0.999999998547,0.0,0.0,0.0,0.0,0.0,0.0
1609046869882037878,281,1609046869882037878,0.0023210521004,-0.000825105805535,0.000441077016491,1.20270735179e-05,4.17666764362e-05,-8.30972433524e-05,0.999999995603,0.0,0.0,0.0,0.0,0.0,0.0
1609046869985094547,282,1609046869985094547,0.0023210521004,-0.000825105805535,0.000441077016491,1.20270735179e-05,4.17666764362e-05,-8.30972433524e-05,0.999999995603,0.0,0.0,0.0,0.0,0.0,0.0
1609046870088393211,283,1609046870088393211,0.00445753272098,-0.00165314780263,0.00134276454972,-5.2920419174e-05,9.49564307565e-06,-1.89028887388e-05,0.999999998376,0.0,0.0,0.0,0.0,0.0,0.0
1609046870191456318,284,1609046870191456318,0.00445753272098,-0.00165314780263,0.00134276454972,-5.2920419174e-05,9.49564307565e-06,-1.89028887388e-05,0.999999998376,0.0,0.0,0.0,0.0,0.0,0.0
1609046870294465303,285,1609046870294465303,0.00115248405675,-0.00244299873227,0.000116891490824,7.77246153881e-06,-2.23594735467e-06,-4.38691566331e-05,0.999999999005,0.0,0.0,0.0,0.0,0.0,0.0
1609046870397612810,286,1609046870397612810,0.00115248405675,-0.00244299873227,0.000116891490824,7.77246153881e-06,-2.23594735467e-06,-4.38691566331e-05,0.999999999005,0.0,0.0,0.0,0.0,0.0,0.0
1609046870500520945,287,1609046870500520945,0.000402784650345,-0.00139414724025,0.000357530447797,1.24214768453e-05,1.07943983367e-05,-7.67528296988e-05,0.999999996919,0.0,0.0,0.0,0.0,0.0,0.0
1609046870570791006,288,1609046870570791006,0.000402784650345,-0.00139414724025,0.000357530447797,1.24214768453e-05,1.07943983367e-05,-7.67528296988e-05,0.999999996919,0.0,0.0,0.0,0.0,0.0,0.0
1609046870672641754,289,1609046870672641754,0.00274004861312,-0.000721423757323,0.000967049745989,-4.41039828512e-05,-2.6981245401e-05,-4.6827644727e-05,0.999999997567,0.0,0.0,0.0,0.0,0.0,0.0
1609046870775317669,290,1609046870775317669,0.00274004861312,-0.000721423757323,0.000967049745989,-4.41039828512e-05,-2.6981245401e-05,-4.6827644727e-05,0.999999997567,0.0,0.0,0.0,0.0,0.0,0.0
1609046870878636837,291,1609046870878636837,0.00286783753105,-0.00134618331445,0.00136136766491,-2.45768909922e-05,-3.78916710853e-06,-3.85720643621e-05,0.999999998947,0.0,0.0,0.0,0.0,0.0,0.0
1609046870982064724,292,1609046870982064724,0.00286783753105,-0.00134618331445,0.00136136766491,-2.45768909922e-05,-3.78916710853e-06,-3.85720643621e-05,0.999999998947,0.0,0.0,0.0,0.0,0.0,0.0
1609046871084966898,293,1609046871084966898,0.00211509135336,-0.00235892136984,0.00218573568348,-2.65542181138e-05,1.74012285855e-05,-1.62211234464e-05,0.999999999364,0.0,0.0,0.0,0.0,0.0,0.0
1609046871188114166,294,1609046871188114166,0.00211509135336,-0.00235892136984,0.00218573568348,-2.65542181138e-05,1.74012285855e-05,-1.62211234464e-05,0.999999999364,0.0,0.0,0.0,0.0,0.0,0.0
1609046871291294813,295,1609046871291294813,-0.00297645246922,-0.00256639505876,0.000910219650562,-9.45129871327e-06,4.6760708855e-06,-6.47276219204e-05,0.99999999785,0.0,0.0,0.0,0.0,0.0,0.0
1609046871394364595,296,1609046871394364595,-0.00297645246922,-0.00256639505876,0.000910219650562,-9.45129871327e-06,4.6760708855e-06,-6.47276219204e-05,0.99999999785,0.0,0.0,0.0,0.0,0.0,0.0
1609046871497316837,297,1609046871497316837,0.00121982562608,-0.000716342208844,0.0014628544319,-3.86954711405e-05,1.20752393354e-05,-0.000105995101579,0.999999993561,0.0,0.0,0.0,0.0,0.0,0.0
1609046871600325823,298,1609046871600325823,0.00121982562608,-0.000716342208844,0.0014628544319,-3.86954711405e-05,1.20752393354e-05,-0.000105995101579,0.999999993561,0.0,0.0,0.0,0.0,0.0,0.0
1609046871670673609,299,1609046871670673609,-0.00137218773699,-0.00383046688348,0.000586769164704,1.9184539971e-05,8.29791907629e-07,-5.9774297661e-05,0.999999998029,0.0,0.0,0.0,0.0,0.0,0.0
1609046871772479534,300,1609046871772479534,-0.00137218773699,-0.00383046688348,0.000586769164704,1.9184539971e-05,8.29791907629e-07,-5.9774297661e-05,0.999999998029,0.0,0.0,0.0,0.0,0.0,0.0
1609046871875357151,301,1609046871875357151,-0.000410124768665,-0.0022561686948,0.00178205191117,-3.42486129703e-05,2.97769653651e-05,2.04769052198e-05,0.999999998761,0.0,0.0,0.0,0.0,0.0,0.0
1609046871978432178,302,1609046871978432178,-0.000410124768665,-0.0022561686948,0.00178205191117,-3.42486129703e-05,2.97769653651e-05,2.04769052198e-05,0.999999998761,0.0,0.0,0.0,0.0,0.0,0.0
1609046872081956148,303,1609046872081956148,-0.00148017410914,-0.00360572045891,0.000997821543194,8.9867441173e-06,7.5379197433e-07,-6.60601251288e-05,0.999999997777,0.0,0.0,0.0,0.0,0.0,0.0
1609046872184604168,304,1609046872184604168,-0.00148017410914,-0.00360572045891,0.000997821543194,8.9867441173e-06,7.5379197433e-07,-6.60601251288e-05,0.999999997777,0.0,0.0,0.0,0.0,0.0,0.0
1609046872287814617,305,1609046872287814617,-0.000589630086842,-0.00199838674761,0.00123952185476,-5.85545791245e-05,-2.08862786469e-05,-4.85743931201e-05,0.999999996888,0.0,0.0,0.0,0.0,0.0,0.0
1609046872391087055,306,1609046872391087055,-0.000589630086842,-0.00199838674761,0.00123952185476,-5.85545791245e-05,-2.08862786469e-05,-4.85743931201e-05,0.999999996888,0.0,0.0,0.0,0.0,0.0,0.0
1609046872494340420,307,1609046872494340420,0.00549440648968,-0.00250146001572,0.000227098664952,3.78954938474e-06,-1.29012758679e-05,3.52286632595e-05,0.999999999289,0.0,0.0,0.0,0.0,0.0,0.0
1609046872598186255,308,1609046872598186255,0.00549440648968,-0.00250146001572,0.000227098664952,3.78954938474e-06,-1.29012758679e-05,3.52286632595e-05,0.999999999289,0.0,0.0,0.0,0.0,0.0,0.0
1609046872700405836,309,1609046872700405836,-0.00221098062637,-0.00572676650203,0.00218179757098,0.00077272830989,-0.000235772181436,0.000395887141131,0.999999595288,0.0,0.0,0.0,0.0,0.0,0.0
1609046872770752430,310,1609046872770752430,0.00253428578882,-0.00203542787418,0.000324935271782,1.0119383905e-06,5.94791900148e-06,-2.75967877428e-05,0.999999999601,0.0,0.0,0.0,0.0,0.0,0.0
1609046872873307705,311,1609046872873307705,0.00287118840526,-0.000508044882754,0.000786636484172,-5.56083744325e-05,3.13505255226e-06,-3.32134468827e-05,0.999999997897,0.0,0.0,0.0,0.0,0.0,0.0
1609046872975540161,312,1609046872975540161,0.00287118840526,-0.000508044882754,0.000786636484172,-5.56083744325e-05,3.13505255226e-06,-3.32134468827e-05,0.999999997897,0.0,0.0,0.0,0.0,0.0,0.0
1609046873078626156,313,1609046873078626156,0.00168298902852,-0.00294079495578,1.17548105471e-05,4.25122485447e-05,3.09167725985e-05,2.51042355871e-06,0.999999998615,0.0,0.0,0.0,0.0,0.0,0.0
1609046873181701660,314,1609046873181701660,0.00168298902852,-0.00294079495578,1.17548105471e-05,4.25122485447e-05,3.09167725985e-05,2.51042355871e-06,0.999999998615,0.0,0.0,0.0,0.0,0.0,0.0
1609046873284642935,315,1609046873284642935,0.00482362676247,-0.00199286922275,-0.000477206804162,2.64933442738e-05,-2.04148868773e-06,2.58648448509e-06,0.999999999644,0.0,0.0,0.0,0.0,0.0,0.0
1609046873387748480,316,1609046873387748480,0.00482362676247,-0.00199286922275,-0.000477206804162,2.64933442738e-05,-2.04148868773e-06,2.58648448509e-06,0.999999999644,0.0,0.0,0.0,0.0,0.0,0.0
1609046873491244078,317,1609046873491244078,0.00298142510084,-0.00108600382677,0.00130180131673,4.28815648781e-07,4.18985886717e-05,-6.93798733431e-05,0.999999996715,0.0,0.0,0.0,0.0,0.0,0.0
1609046873593942642,318,1609046873593942642,0.00298142510084,-0.00108600382677,0.00130180131673,4.28815648781e-07,4.18985886717e-05,-6.93798733431e-05,0.999999996715,0.0,0.0,0.0,0.0,0.0,0.0
1609046873697649479,319,1609046873697649479,-0.000774202481037,-0.00150300987208,0.00118954579546,-6.33964731592e-06,2.55368228082e-05,-6.9532494036e-05,0.999999997236,0.0,0.0,0.0,0.0,0.0,0.0
1609046873800377131,320,1609046873800377131,-0.000774202481037,-0.00150300987208,0.00118954579546,-6.33964731592e-06,2.55368228082e-05,-6.9532494036e-05,0.999999997236,0.0,0.0,0.0,0.0,0.0,0.0
1609046873870646000,321,1609046873870646000,-0.0016058210431,-0.00158160475727,0.000659750813419,-1.87118314833e-05,1.66498561643e-05,-8.46032049638e-05,0.999999996107,0.0,0.0,0.0,0.0,0.0,0.0
1609046873972507000,322,1609046873972507000,-0.0016058210431,-0.00158160475727,0.000659750813419,-1.87118314833e-05,1.66498561643e-05,-8.46032049638e-05,0.999999996107,0.0,0.0,0.0,0.0,0.0,0.0
1609046874075507641,323,1609046874075507641,0.00174283867816,-0.0023712554146,0.0011880219758,-5.62937726176e-06,2.87253886868e-05,-3.27684452311e-05,0.999999999035,0.0,0.0,0.0,0.0,0.0,0.0
1609046874178455114,324,1609046874178455114,0.00174283867816,-0.0023712554146,0.0011880219758,-5.62937726176e-06,2.87253886868e-05,-3.27684452311e-05,0.999999999035,0.0,0.0,0.0,0.0,0.0,0.0
1609046874281796217,325,1609046874281796217,0.00152493780005,-0.0018262876807,0.00116239172276,-3.36178309653e-05,-6.2039269316e-07,-5.41479883462e-05,0.999999997969,0.0,0.0,0.0,0.0,0.0,0.0
1609046874384667873,326,1609046874384667873,0.00152493780005,-0.0018262876807,0.00116239172276,-3.36178309653e-05,-6.2039269316e-07,-5.41479883462e-05,0.999999997969,0.0,0.0,0.0,0.0,0.0,0.0
