%time,field.header.seq,field.header.stamp,field.pose.pose.position.x,field.pose.pose.position.y,field.pose.pose.position.z,field.pose.pose.orientation.x,field.pose.pose.orientation.y,field.pose.pose.orientation.z,field.pose.pose.orientation.w,field.twist.twist.linear.x,field.twist.twist.linear.y,field.twist.twist.linear.z,field.twist.twist.angular.x,field.twist.twist.angular.y,field.twist.twist.angular.z
1609059612350527048,49,1609059612350527048,-0.00643549258352,-0.00532184526627,-0.000275420214923,9.47410711886e-06,-5.33206527047e-06,-9.13727965317e-05,0.999999995766,0.0,0.0,0.0,0.0,0.0,0.0
1609059612444316149,50,1609059612444316149,-0.00643549258352,-0.00532184526627,-0.000275420214923,9.47410711886e-06,-5.33206527047e-06,-9.13727965317e-05,0.999999995766,0.0,0.0,0.0,0.0,0.0,0.0
1609059612539931536,51,1609059612539931536,-0.00801728473964,-0.00511279473657,0.000743211919423,-8.43990187835e-06,6.48555821227e-06,-9.17350863836e-05,0.999999995736,0.0,0.0,0.0,0.0,0.0,0.0
1609059612650884390,52,1609059612650884390,-0.00801728473964,-0.00511279473657,0.000743211919423,-8.43990187835e-06,6.48555821227e-06,-9.17350863836e-05,0.999999995736,0.0,0.0,0.0,0.0,0.0,0.0
1609059612745012522,53,1609059612745012522,-0.0151628027256,-0.00834261013708,1.30472703503e-05,7.5654665002e-06,-1.7584939459e-05,-0.00010691437423,0.999999994101,0.0,0.0,0.0,0.0,0.0,0.0
1609059612840616703,54,1609059612840616703,-0.0151628027256,-0.00834261013708,1.30472703503e-05,7.5654665002e-06,-1.7584939459e-05,-0.00010691437423,0.999999994101,0.0,0.0,0.0,0.0,0.0,0.0
1609059612950987577,55,1609059612950987577,-0.00844615500503,-0.00536143356371,0.000949384459847,-1.38261817512e-05,2.8676663884e-06,-8.74220687398e-05,0.999999996079,0.0,0.0,0.0,0.0,0.0,0.0
1609059613044886351,56,1609059613044886351,-0.00844615500503,-0.00536143356371,0.000949384459847,-1.38261817512e-05,2.8676663884e-06,-8.74220687398e-05,0.999999996079,0.0,0.0,0.0,0.0,0.0,0.0
1609059613140022993,57,1609059613140022993,-0.00863783023114,-0.00514683183647,0.000328894414241,-8.42327441632e-06,-1.27050846653e-06,-8.96846206611e-05,0.999999995942,0.0,0.0,0.0,0.0,0.0,0.0
1609059613251049280,58,1609059613251049280,-0.00863783023114,-0.00514683183647,0.000328894414241,-8.42327441632e-06,-1.27050846653e-06,-8.96846206611e-05,0.999999995942,0.0,0.0,0.0,0.0,0.0,0.0
1609059613345152140,59,1609059613345152140,-0.00580721250012,-0.00491532186902,0.000214782918902,-5.59915759841e-06,-2.4895226722e-06,-0.000110258876703,0.999999993903,0.0,0.0,0.0,0.0,0.0,0.0
1609059613439872503,60,1609059613439872503,-0.00580721250012,-0.00491532186902,0.000214782918902,-5.59915759841e-06,-2.4895226722e-06,-0.000110258876703,0.999999993903,0.0,0.0,0.0,0.0,0.0,0.0
1609059613550514698,61,1609059613550514698,-0.0108820577596,-0.00493783353539,0.000744036674545,-9.83166604559e-06,-5.3600118571e-06,-6.81995428014e-05,0.999999997612,0.0,0.0,0.0,0.0,0.0,0.0
1609059613645120621,62,1609059613645120621,-0.0108820577596,-0.00493783353539,0.000744036674545,-9.83166604559e-06,-5.3600118571e-06,-6.81995428014e-05,0.999999997612,0.0,0.0,0.0,0.0,0.0,0.0
1609059613739439487,63,1609059613739439487,-0.0103981695994,-0.00351829967007,-0.000157891707062,7.5920563075e-06,-9.40554012918e-06,-6.97845379614e-05,0.999999997492,0.0,0.0,0.0,0.0,0.0,0.0
1609059613850419521,64,1609059613850419521,-0.0103981695994,-0.00351829967007,-0.000157891707062,7.5920563075e-06,-9.40554012918e-06,-6.97845379614e-05,0.999999997492,0.0,0.0,0.0,0.0,0.0,0.0
1609059613944536924,65,1609059613944536924,-0.00400722731424,-0.00708722144504,0.000815043388481,-1.15435843313e-05,1.2588037628e-05,-9.88431617292e-05,0.999999994969,0.0,0.0,0.0,0.0,0.0,0.0
1609059614039515734,66,1609059614039515734,-0.00400722731424,-0.00708722144504,0.000815043388481,-1.15435843313e-05,1.2588037628e-05,-9.88431617292e-05,0.999999994969,0.0,0.0,0.0,0.0,0.0,0.0
1609059614150661469,67,1609059614150661469,-0.00456322245694,-0.00643438670861,0.00144629110021,-2.37159240269e-05,8.86253152831e-06,-8.53363395415e-05,0.999999996038,0.0,0.0,0.0,0.0,0.0,0.0
1609059614244650364,68,1609059614244650364,-0.00456322245694,-0.00643438670861,0.00144629110021,-2.37159240269e-05,8.86253152831e-06,-8.53363395415e-05,0.999999996038,0.0,0.0,0.0,0.0,0.0,0.0
1609059614341736794,69,1609059614341736794,-0.00438983244536,-0.00238228953947,-0.000661269691663,1.26743087092e-05,-1.08410461154e-05,-3.6069113156e-05,0.99999999921,0.0,0.0,0.0,0.0,0.0,0.0
1609059614451108694,70,1609059614451108694,-0.00438983244536,-0.00238228953947,-0.000661269691663,1.26743087092e-05,-1.08410461154e-05,-3.6069113156e-05,0.99999999921,0.0,0.0,0.0,0.0,0.0,0.0
1609059614545197248,71,1609059614545197248,-0.00557681335483,-0.00642456314369,-0.0010385524785,2.53684477647e-05,-1.41223876551e-05,-8.04625030441e-05,0.999999996341,0.0,0.0,0.0,0.0,0.0,0.0
1609059614639674425,72,1609059614639674425,-0.00557681335483,-0.00642456314369,-0.0010385524785,2.53684477647e-05,-1.41223876551e-05,-8.04625030441e-05,0.999999996341,0.0,0.0,0.0,0.0,0.0,0.0
1609059614750735521,73,1609059614750735521,-0.0079340073016,-0.0148817429642,-0.000883502007247,3.33425328366e-05,-6.79641843046e-07,-0.00016904544848,0.999999985156,0.0,0.0,0.0,0.0,0.0,0.0
1609059614845012665,74,1609059614845012665,-0.0079340073016,-0.0148817429642,-0.000883502007247,3.33425328366e-05,-6.79641843046e-07,-0.00016904544848,0.999999985156,0.0,0.0,0.0,0.0,0.0,0.0
1609059614939806700,75,1609059614939806700,0.00183142837437,-0.00519235251941,0.000195975302192,6.68956396806e-06,1.37972031444e-05,-6.04219626005e-05,0.999999998057,0.0,0.0,0.0,0.0,0.0,0.0
1609059615050611973,76,1609059615050611973,0.00183142837437,-0.00519235251941,0.000195975302192,6.68956396806e-06,1.37972031444e-05,-6.04219626005e-05,0.999999998057,0.0,0.0,0.0,0.0,0.0,0.0
1609059615144959450,77,1609059615144959450,-0.00723365390681,-0.0039399437131,0.00145947746898,-2.39338085329e-05,4.90657798227e-06,-8.96517150697e-05,0.999999995683,0.0,0.0,0.0,0.0,0.0,0.0
1609059615239545107,78,1609059615239545107,-0.00723365390681,-0.0039399437131,0.00145947746898,-2.39338085329e-05,4.90657798227e-06,-8.96517150697e-05,0.999999995683,0.0,0.0,0.0,0.0,0.0,0.0
1609059615350768805,79,1609059615350768805,-0.00801746240037,-0.0122651213373,0.000160258145148,1.38954669587e-05,-1.91907107971e-06,-0.000111109845049,0.999999993729,0.0,0.0,0.0,0.0,0.0,0.0
1609059615444312334,80,1609059615444312334,-0.00801746240037,-0.0122651213373,0.000160258145148,1.38954669587e-05,-1.91907107971e-06,-0.000111109845049,0.999999993729,0.0,0.0,0.0,0.0,0.0,0.0
1609059615539756775,81,1609059615539756775,-0.00897525849582,-0.00947069274882,0.000422834954349,1.37595151835e-05,7.2355973867e-06,-8.32345422285e-05,0.999999996415,0.0,0.0,0.0,0.0,0.0,0.0
1609059615651205063,82,1609059615651205063,-0.00897525849582,-0.00947069274882,0.000422834954349,1.37595151835e-05,7.2355973867e-06,-8.32345422285e-05,0.999999996415,0.0,0.0,0.0,0.0,0.0,0.0
1609059615744613647,83,1609059615744613647,-0.00829380510382,-0.00599897057815,0.00186474100323,-2.63861521066e-05,1.47957282924e-05,-7.41347367825e-05,0.999999996794,0.0,0.0,0.0,0.0,0.0,0.0
1609059615840117455,84,1609059615840117455,-0.00829380510382,-0.00599897057815,0.00186474100323,-2.63861521066e-05,1.47957282924e-05,-7.41347367825e-05,0.999999996794,0.0,0.0,0.0,0.0,0.0,0.0
1609059615950735807,85,1609059615950735807,-0.00773672254497,-0.000914920787383,0.000285618644241,-1.07901820959e-05,-6.86390831423e-06,-6.54733171441e-05,0.999999997775,0.0,0.0,0.0,0.0,0.0,0.0
1609059616044845581,86,1609059616044845581,-0.00773672254497,-0.000914920787383,0.000285618644241,-1.07901820959e-05,-6.86390831423e-06,-6.54733171441e-05,0.999999997775,0.0,0.0,0.0,0.0,0.0,0.0
1609059616139888048,87,1609059616139888048,-0.00178783722427,-0.00598503618815,0.000268268855732,4.74987579055e-07,1.14938744801e-05,-0.000112082782486,0.999999993653,0.0,0.0,0.0,0.0,0.0,0.0
1609059616250955105,88,1609059616250955105,-0.00178783722427,-0.00598503618815,0.000268268855732,4.74987579055e-07,1.14938744801e-05,-0.000112082782486,0.999999993653,0.0,0.0,0.0,0.0,0.0,0.0
1609059616344603777,89,1609059616344603777,-0.00833501134929,-0.00263390269158,0.00041621260569,-9.49561340765e-06,-5.8352992251e-06,-2.63017067843e-05,0.999999999592,0.0,0.0,0.0,0.0,0.0,0.0
1609059616439706564,90,1609059616439706564,-0.00833501134929,-0.00263390269158,0.00041621260569,-9.49561340765e-06,-5.8352992251e-06,-2.63017067843e-05,0.999999999592,0.0,0.0,0.0,0.0,0.0,0.0
1609059616550727606,91,1609059616550727606,-0.00224820412523,-0.00698753208116,0.000772615031202,-6.24697171185e-06,5.9630326773e-06,-7.64094464595e-05,0.999999997044,0.0,0.0,0.0,0.0,0.0,0.0
1609059616644537687,92,1609059616644537687,-0.00224820412523,-0.00698753208116,0.000772615031202,-6.24697171185e-06,5.9630326773e-06,-7.64094464595e-05,0.999999997044,0.0,0.0,0.0,0.0,0.0,0.0
1609059616740008116,93,1609059616740008116,-0.00556885256939,-0.00084997247172,-1.72410208248e-05,-4.43325472393e-06,-1.8753767305e-06,-7.57671629576e-05,0.999999997118,0.0,0.0,0.0,0.0,0.0,0.0
1609059616850827694,94,1609059616850827694,-0.00556885256939,-0.00084997247172,-1.72410208248e-05,-4.43325472393e-06,-1.8753767305e-06,-7.57671629576e-05,0.999999997118,0.0,0.0,0.0,0.0,0.0,0.0
1609059616944585800,95,1609059616944585800,-0.00286121712866,-0.00236408986364,-0.000202369263194,3.74508606737e-07,-1.7109364967e-06,-4.97173998573e-05,0.999999998763,0.0,0.0,0.0,0.0,0.0,0.0
1609059617039831638,96,1609059617039831638,-0.00286121712866,-0.00236408986364,-0.000202369263194,3.74508606737e-07,-1.7109364967e-06,-4.97173998573e-05,0.999999998763,0.0,0.0,0.0,0.0,0.0,0.0
1609059617152529001,97,1609059617152529001,-0.00806855740471,-0.00490530362203,-0.000497410027163,1.07657619669e-05,-1.60316721337e-05,-6.51114244969e-05,0.999999997694,0.0,0.0,0.0,0.0,0.0,0.0
1609059617244947433,98,1609059617244947433,-0.00806855740471,-0.00490530362203,-0.000497410027163,1.07657619669e-05,-1.60316721337e-05,-6.51114244969e-05,0.999999997694,0.0,0.0,0.0,0.0,0.0,0.0
1609059617340040445,99,1609059617340040445,-0.00557960127104,-0.00040658188642,5.14270551806e-05,-4.6011919864e-06,3.01160310141e-06,-5.90554094139e-05,0.999999998241,0.0,0.0,0.0,0.0,0.0,0.0
1609059617451854229,100,1609059617451854229,-0.00557960127104,-0.00040658188642,5.14270551806e-05,-4.6011919864e-06,3.01160310141e-06,-5.90554094139e-05,0.999999998241,0.0,0.0,0.0,0.0,0.0,0.0
1609059617544720888,101,1609059617544720888,-0.0114119891278,-0.00553376168514,-0.000710055892425,1.65875618406e-05,-1.91904414272e-05,-7.31695146297e-05,0.999999997001,0.0,0.0,0.0,0.0,0.0,0.0
1609059617640109301,102,1609059617640109301,-0.0114119891278,-0.00553376168514,-0.000710055892425,1.65875618406e-05,-1.91904414272e-05,-7.31695146297e-05,0.999999997001,0.0,0.0,0.0,0.0,0.0,0.0
1609059617751121283,103,1609059617751121283,-0.0049290873207,-0.00289348399115,0.000646545892049,-8.95447478436e-06,1.11466714273e-05,-1.93877825068e-05,0.99999999971,0.0,0.0,0.0,0.0,0.0,0.0
1609059617844768047,104,1609059617844768047,-0.0049290873207,-0.00289348399115,0.000646545892049,-8.95447478436e-06,1.11466714273e-05,-1.93877825068e-05,0.99999999971,0.0,0.0,0.0,0.0,0.0,0.0
1609059617940230131,105,1609059617940230131,-0.00274314738414,-0.00293191084108,-0.000283556138059,1.16626603864e-05,1.05512880558e-06,-4.53131934736e-05,0.999999998905,0.0,0.0,0.0,0.0,0.0,0.0
1609059618051217318,106,1609059618051217318,-0.00274314738414,-0.00293191084108,-0.000283556138059,1.16626603864e-05,1.05512880558e-06,-4.53131934736e-05,0.999999998905,0.0,0.0,0.0,0.0,0.0,0.0
1609059618145310402,107,1609059618145310402,-0.0107284316159,-0.00505665011369,0.00011165424657,3.51697241326e-06,-3.60915995505e-06,-4.15738630892e-05,0.999999999123,0.0,0.0,0.0,0.0,0.0,0.0
1609059618241776466,108,1609059618241776466,-0.0107284316159,-0.00505665011369,0.00011165424657,3.51697241326e-06,-3.60915995505e-06,-4.15738630892e-05,0.999999999123,0.0,0.0,0.0,0.0,0.0,0.0
1609059618351482153,109,1609059618351482153,-0.0121547498489,-0.000872003964692,0.000343818758404,-1.0587472963e-05,-4.07989431794e-06,-4.86469815506e-05,0.999999998752,0.0,0.0,0.0,0.0,0.0,0.0
1609059618445366383,110,1609059618445366383,-0.0121547498489,-0.000872003964692,0.000343818758404,-1.0587472963e-05,-4.07989431794e-06,-4.86469815506e-05,0.999999998752,0.0,0.0,0.0,0.0,0.0,0.0
1609059618540445566,111,1609059618540445566,-0.00185376733069,0.00641533997576,0.00102869600563,-2.83127213087e-05,2.01771694534e-05,-7.12229644336e-06,0.99999999937,0.0,0.0,0.0,0.0,0.0,0.0
1609059618651310444,112,1609059618651310444,-0.00185376733069,0.00641533997576,0.00102869600563,-2.83127213087e-05,2.01771694534e-05,-7.12229644336e-06,0.99999999937,0.0,0.0,0.0,0.0,0.0,0.0
1609059618745106936,113,1609059618745106936,-0.00235198248344,-0.00395905941108,-0.00109701677781,2.10401164953e-05,-3.62514538436e-06,-3.038600409e-05,0.99999999931,0.0,0.0,0.0,0.0,0.0,0.0
1609059618840212822,114,1609059618840212822,-0.00235198248344,-0.00395905941108,-0.00109701677781,2.10401164953e-05,-3.62514538436e-06,-3.038600409e-05,0.99999999931,0.0,0.0,0.0,0.0,0.0,0.0
1609059618951279879,115,1609059618951279879,-0.0074911202011,-0.0055313627631,0.000306813033129,8.52168761278e-06,-4.33420243589e-06,-4.95631699995e-05,0.999999998726,0.0,0.0,0.0,0.0,0.0,0.0
1609059619046012402,116,1609059619046012402,-0.0074911202011,-0.0055313627631,0.000306813033129,8.52168761278e-06,-4.33420243589e-06,-4.95631699995e-05,0.999999998726,0.0,0.0,0.0,0.0,0.0,0.0
1609059619140285254,117,1609059619140285254,-0.00381067665029,-0.00263968442759,0.000162543814454,-3.44952858434e-06,1.20897171045e-05,-0.000103628909967,0.999999994551,0.0,0.0,0.0,0.0,0.0,0.0
1609059619252959967,118,1609059619252959967,-0.00381067665029,-0.00263968442759,0.000162543814454,-3.44952858434e-06,1.20897171045e-05,-0.000103628909967,0.999999994551,0.0,0.0,0.0,0.0,0.0,0.0
1609059619440510035,119,1609059619440510035,-0.00529886261211,-0.00303001651236,-0.000530711094131,6.78653242774e-06,-1.65778462558e-06,-7.46818518769e-05,0.999999997187,0.0,0.0,0.0,0.0,0.0,0.0
1609059619554473639,120,1609059619554473639,-0.00529886261211,-0.00303001651236,-0.000530711094131,6.78653242774e-06,-1.65778462558e-06,-7.46818518769e-05,0.999999997187,0.0,0.0,0.0,0.0,0.0,0.0
1609059619649059534,121,1609059619649059534,-0.0044326209452,0.00612152118027,9.1965242777e-05,-1.63026933494e-05,4.17831963966e-06,1.44003268126e-05,0.999999999755,0.0,0.0,0.0,0.0,0.0,0.0
1609059619743403912,122,1609059619743403912,-0.0044326209452,0.00612152118027,9.1965242777e-05,-1.63026933494e-05,4.17831963966e-06,1.44003268126e-05,0.999999999755,0.0,0.0,0.0,0.0,0.0,0.0
1609059619948391914,123,1609059619948391914,-0.00217755779319,0.000982807967538,-0.000138287907583,1.0688512172e-06,1.07995480974e-05,3.21260157504e-05,0.999999999425,0.0,0.0,0.0,0.0,0.0,0.0
1609059620041976213,124,1609059620041976213,-0.00217755779319,0.000982807967538,-0.000138287907583,1.0688512172e-06,1.07995480974e-05,3.21260157504e-05,0.999999999425,0.0,0.0,0.0,0.0,0.0,0.0
1609059620154183149,125,1609059620154183149,-0.00808857572062,-0.00295228637767,0.000198025783847,-7.73738781379e-09,-8.75350358673e-06,-1.82565440923e-05,0.999999999795,0.0,0.0,0.0,0.0,0.0,0.0
1609059620248071909,126,1609059620248071909,-0.00808857572062,-0.00295228637767,0.000198025783847,-7.73738781379e-09,-8.75350358673e-06,-1.82565440923e-05,0.999999999795,0.0,0.0,0.0,0.0,0.0,0.0
1609059620341902494,127,1609059620341902494,-0.0107978294754,0.000400537836494,0.00106069578796,-2.25270230866e-05,5.65252064063e-07,-5.28764240539e-05,0.999999998348,0.0,0.0,0.0,0.0,0.0,0.0
1609059620548113585,128,1609059620548113585,-0.0107978294754,0.000400537836494,0.00106069578796,-2.25270230866e-05,5.65252064063e-07,-5.28764240539e-05,0.999999998348,0.0,0.0,0.0,0.0,0.0,0.0
1609059620642411470,129,1609059620642411470,-0.010027108328,0.0101302207991,0.0010897584035,-4.76152214925e-05,-2.50250050394e-07,5.6550323734e-05,0.999999997267,0.0,0.0,0.0,0.0,0.0,0.0
1609059620755493402,130,1609059620755493402,-0.010027108328,0.0101302207991,0.0010897584035,-4.76152214925e-05,-2.50250050394e-07,5.6550323734e-05,0.999999997267,0.0,0.0,0.0,0.0,0.0,0.0
1609059620942099094,131,1609059620942099094,-0.010347516904,0.00514860980526,-0.00116358356305,5.22332781834e-06,-1.87832842529e-05,2.38417619005e-05,0.999999999526,0.0,0.0,0.0,0.0,0.0,0.0
1609059621054895401,132,1609059621054895401,-0.010347516904,0.00514860980526,-0.00116358356305,5.22332781834e-06,-1.87832842529e-05,2.38417619005e-05,0.999999999526,0.0,0.0,0.0,0.0,0.0,0.0
1609059621148100376,133,1609059621148100376,-0.00145075621296,0.00591398725115,0.000388243653258,-1.68050130457e-05,1.05604125512e-05,8.24473110505e-05,0.999999996404,0.0,0.0,0.0,0.0,0.0,0.0
1609059621241881371,134,1609059621241881371,-0.00145075621296,0.00591398725115,0.000388243653258,-1.68050130457e-05,1.05604125512e-05,8.24473110505e-05,0.999999996404,0.0,0.0,0.0,0.0,0.0,0.0
1609059621354220390,135,1609059621354220390,-0.00421238033155,0.00568684638474,0.00200506481126,-4.25328683049e-05,2.78315589376e-05,7.09953315671e-05,0.999999996188,0.0,0.0,0.0,0.0,0.0,0.0
1609059621543064833,136,1609059621543064833,-0.00421238033155,0.00568684638474,0.00200506481126,-4.25328683049e-05,2.78315589376e-05,7.09953315671e-05,0.999999996188,0.0,0.0,0.0,0.0,0.0,0.0
1609059621641418219,137,1609059621641418219,-0.00416547686729,0.00219054268071,-0.000320606045166,3.80149029906e-06,-4.95584311928e-06,5.26006111364e-05,0.999999998597,0.0,0.0,0.0,0.0,0.0,0.0
1609059621749258280,138,1609059621749258280,-0.00416547686729,0.00219054268071,-0.000320606045166,3.80149029906e-06,-4.95584311928e-06,5.26006111364e-05,0.999999998597,0.0,0.0,0.0,0.0,0.0,0.0
1609059621843134642,139,1609059621843134642,-0.00802219494627,0.00249248321813,0.00209848082651,-4.27073423142e-05,1.25035413332e-05,1.78251546955e-05,0.999999998851,0.0,0.0,0.0,0.0,0.0,0.0
1609059621939890146,140,1609059621939890146,-0.00802219494627,0.00249248321813,0.00209848082651,-4.27073423142e-05,1.25035413332e-05,1.78251546955e-05,0.999999998851,0.0,0.0,0.0,0.0,0.0,0.0
1609059622050305843,141,1609059622050305843,-0.00369556527877,0.00385515943145,0.000769565045071,-2.4536945957e-05,1.17281078395e-05,1.52184110934e-06,0.999999999629,0.0,0.0,0.0,0.0,0.0,0.0
1609059622143744230,142,1609059622143744230,-0.00369556527877,0.00385515943145,0.000769565045071,-2.4536945957e-05,1.17281078395e-05,1.52184110934e-06,0.999999999629,0.0,0.0,0.0,0.0,0.0,0.0
1609059622241899490,143,1609059622241899490,-0.00315462039065,0.0109525142341,0.00100657985377,-4.19573536466e-05,1.16618144945e-05,7.72159998826e-05,0.999999996071,0.0,0.0,0.0,0.0,0.0,0.0
1609059622349622726,144,1609059622349622726,-0.00315462039065,0.0109525142341,0.00100657985377,-4.19573536466e-05,1.16618144945e-05,7.72159998826e-05,0.999999996071,0.0,0.0,0.0,0.0,0.0,0.0
1609059622443579912,145,1609059622443579912,-0.00330411248471,0.00557027513994,0.000536738007264,-2.71181094202e-05,-3.95620925499e-07,6.74319472489e-05,0.999999997359,0.0,0.0,0.0,0.0,0.0,0.0
1609059622540438890,146,1609059622540438890,-0.00330411248471,0.00557027513994,0.000536738007264,-2.71181094202e-05,-3.95620925499e-07,6.74319472489e-05,0.999999997359,0.0,0.0,0.0,0.0,0.0,0.0
1609059622649741650,147,1609059622649741650,0.0064458814814,0.00728138411686,0.00177960382599,-4.15016226842e-05,4.462631385e-05,6.28752877933e-05,0.999999996166,0.0,0.0,0.0,0.0,0.0,0.0
1609059622743291378,148,1609059622743291378,0.0064458814814,0.00728138411686,0.00177960382599,-4.15016226842e-05,4.462631385e-05,6.28752877933e-05,0.999999996166,0.0,0.0,0.0,0.0,0.0,0.0
1609059622840158701,149,1609059622840158701,-0.00103422449746,0.00861811898008,0.000931304809855,-3.16368148108e-05,1.17186109145e-05,6.94883126228e-05,0.999999997017,0.0,0.0,0.0,0.0,0.0,0.0
1609059622949543238,150,1609059622949543238,-0.00103422449746,0.00861811898008,0.000931304809855,-3.16368148108e-05,1.17186109145e-05,6.94883126228e-05,0.999999997017,0.0,0.0,0.0,0.0,0.0,0.0
1609059623043590307,151,1609059623043590307,-0.00367571924851,0.000748438974122,0.00105921620615,-2.24898901495e-05,8.34224607942e-06,-6.12146883544e-05,0.999999997839,0.0,0.0,0.0,0.0,0.0,0.0
1609059623141092539,152,1609059623141092539,-0.00367571924851,0.000748438974122,0.00105921620615,-2.24898901495e-05,8.34224607942e-06,-6.12146883544e-05,0.999999997839,0.0,0.0,0.0,0.0,0.0,0.0
1609059623249552488,153,1609059623249552488,-0.000933739565162,0.00129386892953,0.00100211968065,-1.52544854547e-05,1.55326857852e-05,2.98995856237e-05,0.999999999316,0.0,0.0,0.0,0.0,0.0,0.0
1609059623343284130,154,1609059623343284130,-0.000933739565162,0.00129386892953,0.00100211968065,-1.52544854547e-05,1.55326857852e-05,2.98995856237e-05,0.999999999316,0.0,0.0,0.0,0.0,0.0,0.0
1609059623440180540,155,1609059623440180540,-0.00524936792266,0.00352260521917,0.0015696937935,-4.10180295394e-05,1.36318308543e-05,1.33042972288e-05,0.999999998977,0.0,0.0,0.0,0.0,0.0,0.0
1609059623549568653,156,1609059623549568653,-0.00524936792266,0.00352260521917,0.0015696937935,-4.10180295394e-05,1.36318308543e-05,1.33042972288e-05,0.999999998977,0.0,0.0,0.0,0.0,0.0,0.0
1609059623643646240,157,1609059623643646240,-0.00374452945276,-0.00141901941905,0.000261156065123,-5.89059701066e-06,1.31241063744e-05,1.27796775433e-05,0.999999999815,0.0,0.0,0.0,0.0,0.0,0.0
1609059623741259813,158,1609059623741259813,-0.00374452945276,-0.00141901941905,0.000261156065123,-5.89059701066e-06,1.31241063744e-05,1.27796775433e-05,0.999999999815,0.0,0.0,0.0,0.0,0.0,0.0
1609059623850082636,159,1609059623850082636,0.00102512500675,0.00485508276843,0.00123077327898,-2.86627772561e-05,2.23627770261e-05,8.05746635383e-05,0.999999996093,0.0,0.0,0.0,0.0,0.0,0.0
1609059623944103241,160,1609059623944103241,0.00102512500675,0.00485508276843,0.00123077327898,-2.86627772561e-05,2.23627770261e-05,8.05746635383e-05,0.999999996093,0.0,0.0,0.0,0.0,0.0,0.0
1609059624040393829,161,1609059624040393829,-0.0019574744418,0.000267710527638,0.000778740650078,-2.22159103073e-05,8.60694026492e-06,-3.50337656976e-05,0.999999999103,0.0,0.0,0.0,0.0,0.0,0.0
1609059624150387049,162,1609059624150387049,-0.0019574744418,0.000267710527638,0.000778740650078,-2.22159103073e-05,8.60694026492e-06,-3.50337656976e-05,0.999999999103,0.0,0.0,0.0,0.0,0.0,0.0
1609059624243723631,163,1609059624243723631,-0.00263682545458,0.00268089595054,0.000133103590437,-8.92988440893e-06,-5.09189573091e-06,4.51892102081e-05,0.999999998926,0.0,0.0,0.0,0.0,0.0,0.0
1609059624342013121,164,1609059624342013121,-0.00263682545458,0.00268089595054,0.000133103590437,-8.92988440893e-06,-5.09189573091e-06,4.51892102081e-05,0.999999998926,0.0,0.0,0.0,0.0,0.0,0.0
1609059624451016188,165,1609059624451016188,-0.0020050529312,-0.00167282095399,0.00149639457346,-2.76368450785e-05,1.53516482632e-05,-4.51112752921e-05,0.999999998483,0.0,0.0,0.0,0.0,0.0,0.0
1609059624541338682,166,1609059624541338682,-0.0020050529312,-0.00167282095399,0.00149639457346,-2.76368450785e-05,1.53516482632e-05,-4.51112752921e-05,0.999999998483,0.0,0.0,0.0,0.0,0.0,0.0
1609059624646738529,167,1609059624646738529,-0.00103344115067,-0.00220580892241,0.000239560160906,-4.35700955955e-06,5.84477493785e-06,-2.78220955615e-05,0.999999999586,0.0,0.0,0.0,0.0,0.0,0.0
1609059624749919653,168,1609059624749919653,-0.00103344115067,-0.00220580892241,0.000239560160906,-4.35700955955e-06,5.84477493785e-06,-2.78220955615e-05,0.999999999586,0.0,0.0,0.0,0.0,0.0,0.0
1609059624853056908,169,1609059624853056908,-0.00120017806033,-0.00164288113281,0.00100645879277,-1.33712378649e-05,1.73985284695e-05,9.25821465337e-06,0.999999999716,0.0,0.0,0.0,0.0,0.0,0.0
1609059624955962181,170,1609059624955962181,-0.00120017806033,-0.00164288113281,0.00100645879277,-1.33712378649e-05,1.73985284695e-05,9.25821465337e-06,0.999999999716,0.0,0.0,0.0,0.0,0.0,0.0
1609059625059198380,171,1609059625059198380,-0.00370417027706,-0.00175225384461,0.00167929666806,-2.74943893914e-05,1.81819371968e-05,-5.22689513989e-05,0.999999998091,0.0,0.0,0.0,0.0,0.0,0.0
1609059625162179232,172,1609059625162179232,-0.00370417027706,-0.00175225384461,0.00167929666806,-2.74943893914e-05,1.81819371968e-05,-5.22689513989e-05,0.999999998091,0.0,0.0,0.0,0.0,0.0,0.0
1609059625266400099,173,1609059625266400099,0.00242241300713,-0.00304365081378,9.77790941795e-05,-1.7611096706e-06,4.23045133503e-06,-4.59031085216e-05,0.999999998936,0.0,0.0,0.0,0.0,0.0,0.0
1609059625368346930,174,1609059625368346930,0.00242241300713,-0.00304365081378,9.77790941795e-05,-1.7611096706e-06,4.23045133503e-06,-4.59031085216e-05,0.999999998936,0.0,0.0,0.0,0.0,0.0,0.0
1609059625471310616,175,1609059625471310616,0.00326587032929,0.00209696154991,0.000832657139748,-2.7099772284e-05,1.74454677619e-05,3.51385740265e-05,0.999999998863,0.0,0.0,0.0,0.0,0.0,0.0
1609059625644007444,176,1609059625644007444,0.00326587032929,0.00209696154991,0.000832657139748,-2.7099772284e-05,1.74454677619e-05,3.51385740265e-05,0.999999998863,0.0,0.0,0.0,0.0,0.0,0.0
1609059625749497175,177,1609059625749497175,0.00112480375579,-0.000846536241895,0.0010980705222,-2.55258792606e-05,1.83617122931e-05,-1.92034824434e-05,0.999999999321,0.0,0.0,0.0,0.0,0.0,0.0
1609059625850284100,178,1609059625850284100,0.00112480375579,-0.000846536241895,0.0010980705222,-2.55258792606e-05,1.83617122931e-05,-1.92034824434e-05,0.999999999321,0.0,0.0,0.0,0.0,0.0,0.0
1609059625954216003,179,1609059625954216003,0.0035958044294,0.00288352640896,0.00123269468222,-2.50322839786e-05,2.42278191155e-05,5.77340504879e-06,0.999999999377,0.0,0.0,0.0,0.0,0.0,0.0
1609059626054726124,180,1609059626054726124,0.0035958044294,0.00288352640896,0.00123269468222,-2.50322839786e-05,2.42278191155e-05,5.77340504879e-06,0.999999999377,0.0,0.0,0.0,0.0,0.0,0.0
1609059626158308506,181,1609059626158308506,-0.00179946113421,-0.000769994535619,0.00174794589302,-3.10856865099e-05,2.16371985032e-05,-2.94927793664e-05,0.999999998848,0.0,0.0,0.0,0.0,0.0,0.0
1609059626261777639,182,1609059626261777639,-0.00179946113421,-0.000769994535619,0.00174794589302,-3.10856865099e-05,2.16371985032e-05,-2.94927793664e-05,0.999999998848,0.0,0.0,0.0,0.0,0.0,0.0
1609059626366475821,183,1609059626366475821,-0.000343268739495,-0.00393749815916,0.0024656989425,-4.13086670468e-05,3.15015546045e-05,-3.40651732729e-05,0.99999999807,0.0,0.0,0.0,0.0,0.0,0.0
1609059626468487263,184,1609059626468487263,-0.000343268739495,-0.00393749815916,0.0024656989425,-4.13086670468e-05,3.15015546045e-05,-3.40651732729e-05,0.99999999807,0.0,0.0,0.0,0.0,0.0,0.0
1609059626571579695,185,1609059626571579695,-0.0058080821109,0.00125788538399,0.000896235682192,-2.72063059607e-05,-7.99788682581e-06,-3.06274493879e-05,0.999999999129,0.0,0.0,0.0,0.0,0.0,0.0
1609059626743574381,186,1609059626743574381,-0.0058080821109,0.00125788538399,0.000896235682192,-2.72063059607e-05,-7.99788682581e-06,-3.06274493879e-05,0.999999999129,0.0,0.0,0.0,0.0,0.0,0.0
1609059626846412897,187,1609059626846412897,-0.0055544773559,-0.00139926284971,0.000558237586025,-1.3798550836e-05,2.87113801188e-07,-5.23918960175e-05,0.999999998532,0.0,0.0,0.0,0.0,0.0,0.0
1609059626949452877,188,1609059626949452877,-0.0055544773559,-0.00139926284971,0.000558237586025,-1.3798550836e-05,2.87113801188e-07,-5.23918960175e-05,0.999999998532,0.0,0.0,0.0,0.0,0.0,0.0
1609059627050997496,189,1609059627050997496,-0.00406292744993,0.00015818279606,0.0011636082261,-2.28669375469e-05,1.21815794474e-05,-2.03159995775e-05,0.999999999458,0.0,0.0,0.0,0.0,0.0,0.0
1609059627154438019,190,1609059627154438019,-0.00406292744993,0.00015818279606,0.0011636082261,-2.28669375469e-05,1.21815794474e-05,-2.03159995775e-05,0.999999999458,0.0,0.0,0.0,0.0,0.0,0.0
1609059627258007288,191,1609059627258007288,-0.0103981283961,0.00067798365533,0.0022335543032,-4.82319430606e-05,4.99253526265e-06,-5.88416901159e-05,0.999999997093,0.0,0.0,0.0,0.0,0.0,0.0
1609059627361147881,192,1609059627361147881,-0.0103981283961,0.00067798365533,0.0022335543032,-4.82319430606e-05,4.99253526265e-06,-5.88416901159e-05,0.999999997093,0.0,0.0,0.0,0.0,0.0,0.0
1609059627464278698,193,1609059627464278698,-0.0119393182202,0.00327379520883,0.00159549933692,-4.31796307141e-05,-2.10444526887e-06,-4.72214108087e-05,0.999999997951,0.0,0.0,0.0,0.0,0.0,0.0
1609059627567514420,194,1609059627567514420,-0.0119393182202,0.00327379520883,0.00159549933692,-4.31796307141e-05,-2.10444526887e-06,-4.72214108087e-05,0.999999997951,0.0,0.0,0.0,0.0,0.0,0.0
1609059627670237541,195,1609059627670237541,-0.00342014146003,0.00174126240795,0.00179686237502,-3.86535154784e-05,1.26499582767e-05,3.97601796595e-05,0.999999998383,0.0,0.0,0.0,0.0,0.0,0.0
1609059627842521191,196,1609059627842521191,-0.00342014146003,0.00174126240795,0.00179686237502,-3.86535154784e-05,1.26499582767e-05,3.97601796595e-05,0.999999998383,0.0,0.0,0.0,0.0,0.0,0.0
1609059627946083069,197,1609059627946083069,-0.0130110156723,-0.000103900170037,0.00127434269753,-3.02660365435e-05,-6.0744292873e-06,-1.01124947459e-06,0.999999999523,0.0,0.0,0.0,0.0,0.0,0.0
1609059628048667669,198,1609059628048667669,-0.0130110156723,-0.000103900170037,0.00127434269753,-3.02660365435e-05,-6.0744292873e-06,-1.01124947459e-06,0.999999999523,0.0,0.0,0.0,0.0,0.0,0.0
1609059628151597738,199,1609059628151597738,0.000284647327781,-0.0150266232008,0.00316826563849,0.00026245640806,0.000104666949729,5.76447738252e-05,0.999999958419,0.0,0.0,0.0,0.0,0.0,0.0
1609059628254879236,200,1609059628254879236,-0.00593818932766,0.00272231581175,0.0019684640915,-4.74837071575e-05,1.35177012841e-05,-2.4477741074e-05,0.999999998482,0.0,0.0,0.0,0.0,0.0,0.0
1609059628358010530,201,1609059628358010530,-0.00905988501913,-0.00111936708135,0.00105662804175,-1.95330387831e-05,1.24555320688e-06,-1.88817374272e-05,0.99999999963,0.0,0.0,0.0,0.0,0.0,0.0
1609059628461334229,202,1609059628461334229,-0.00905988501913,-0.00111936708135,0.00105662804175,-1.95330387831e-05,1.24555320688e-06,-1.88817374272e-05,0.99999999963,0.0,0.0,0.0,0.0,0.0,0.0
1609059628564254999,203,1609059628564254999,-0.0082807097461,0.00115823847851,0.00154919111916,-3.84753652449e-05,5.87342918271e-06,-2.39454920698e-05,0.999999998956,0.0,0.0,0.0,0.0,0.0,0.0
1609059628667524815,204,1609059628667524815,-0.0082807097461,0.00115823847851,0.00154919111916,-3.84753652449e-05,5.87342918271e-06,-2.39454920698e-05,0.999999998956,0.0,0.0,0.0,0.0,0.0,0.0
1609059628770237207,205,1609059628770237207,0.00234836365732,0.0142999046061,0.00579156698207,-5.15632803966e-05,-1.0065749928e-05,-0.000173118594708,0.999999983635,0.0,0.0,0.0,0.0,0.0,0.0
1609059628942599297,206,1609059628942599297,-0.0103036729428,0.000613933588213,0.000945021212903,-2.20622730729e-05,-5.00272621946e-06,-4.33176819826e-05,0.999999998806,0.0,0.0,0.0,0.0,0.0,0.0
1609059629045954227,207,1609059629045954227,-0.0105698356764,-0.00291308051862,0.00128982810196,-2.61456889912e-05,-3.55421148131e-06,-6.19078835529e-05,0.999999997736,0.0,0.0,0.0,0.0,0.0,0.0
1609059629148391008,208,1609059629148391008,-0.0105698356764,-0.00291308051862,0.00128982810196,-2.61456889912e-05,-3.55421148131e-06,-6.19078835529e-05,0.999999997736,0.0,0.0,0.0,0.0,0.0,0.0
1609059629251374006,209,1609059629251374006,-0.00454043499099,-0.00303767265805,0.00183558914666,-3.31017000303e-05,8.2803321173e-06,-2.87540890796e-06,0.999999999414,0.0,0.0,0.0,0.0,0.0,0.0
1609059629354388237,210,1609059629354388237,-0.00454043499099,-0.00303767265805,0.00183558914666,-3.31017000303e-05,8.2803321173e-06,-2.87540890796e-06,0.999999999414,0.0,0.0,0.0,0.0,0.0,0.0
1609059629457515001,211,1609059629457515001,-0.0014405563955,0.00370120094002,0.00113759356211,-2.56789715607e-05,1.44652761886e-05,4.02417956342e-05,0.999999998756,0.0,0.0,0.0,0.0,0.0,0.0
1609059629561185837,212,1609059629561185837,-0.0014405563955,0.00370120094002,0.00113759356211,-2.56789715607e-05,1.44652761886e-05,4.02417956342e-05,0.999999998756,0.0,0.0,0.0,0.0,0.0,0.0
1609059629663714170,213,1609059629663714170,-0.00624246364655,0.00599543756527,0.00142538873939,-3.72039023791e-05,7.96299795173e-06,3.14231845221e-05,0.999999998783,0.0,0.0,0.0,0.0,0.0,0.0
1609059629766873121,214,1609059629766873121,-0.00624246364655,0.00599543756527,0.00142538873939,-3.72039023791e-05,7.96299795173e-06,3.14231845221e-05,0.999999998783,0.0,0.0,0.0,0.0,0.0,0.0
1609059629870262384,215,1609059629870262384,-0.00724913598162,-0.000634187372193,0.000523721708268,-1.55022059126e-05,-1.34239149413e-06,-6.58639307186e-05,0.99999999771,0.0,0.0,0.0,0.0,0.0,0.0
1609059630042287350,216,1609059630042287350,-0.00724913598162,-0.000634187372193,0.000523721708268,-1.55022059126e-05,-1.34239149413e-06,-6.58639307186e-05,0.99999999771,0.0,0.0,0.0,0.0,0.0,0.0
1609059630145982265,217,1609059630145982265,-0.00504463964326,-0.00514472400825,0.000336298291052,-9.50816231357e-06,-7.19087543095e-06,-8.75386686741e-05,0.999999996097,0.0,0.0,0.0,0.0,0.0,0.0
1609059630248558521,218,1609059630248558521,-0.00504463964326,-0.00514472400825,0.000336298291052,-9.50816231357e-06,-7.19087543095e-06,-8.75386686741e-05,0.999999996097,0.0,0.0,0.0,0.0,0.0,0.0
1609059630351599932,219,1609059630351599932,-0.0170625480204,0.00042295969447,0.00151053662495,-3.49513306264e-05,-8.53183300775e-06,-5.07847319047e-05,0.999999998063,0.0,0.0,0.0,0.0,0.0,0.0
1609059630454874277,220,1609059630454874277,-0.0170625480204,0.00042295969447,0.00151053662495,-3.49513306264e-05,-8.53183300775e-06,-5.07847319047e-05,0.999999998063,0.0,0.0,0.0,0.0,0.0,0.0
1609059630557589531,221,1609059630557589531,-0.0172513493586,9.70582523634e-05,0.00111107458425,-2.67448562389e-05,-1.39412138018e-05,-2.51661104411e-05,0.999999999229,0.0,0.0,0.0,0.0,0.0,0.0
1609059630660714865,222,1609059630660714865,-0.0172513493586,9.70582523634e-05,0.00111107458425,-2.67448562389e-05,-1.39412138018e-05,-2.51661104411e-05,0.999999999229,0.0,0.0,0.0,0.0,0.0,0.0
1609059630764342546,223,1609059630764342546,-0.0116043299114,-0.00597381534921,-2.69718499649e-06,4.28689542472e-06,-1.14431539463e-05,-6.32667937629e-05,0.999999997924,0.0,0.0,0.0,0.0,0.0,0.0
1609059630867688179,224,1609059630867688179,-0.0116043299114,-0.00597381534921,-2.69718499649e-06,4.28689542472e-06,-1.14431539463e-05,-6.32667937629e-05,0.999999997924,0.0,0.0,0.0,0.0,0.0,0.0
1609059630969963789,225,1609059630969963789,-0.00876285626865,-0.00542769615972,-0.00146784183772,-6.54159293885e-05,0.000159322778211,2.26727305913e-05,0.999999984911,0.0,0.0,0.0,0.0,0.0,0.0
1609059631142629862,226,1609059631142629862,-0.0128400623575,-0.00391454213811,0.000543186241969,-1.17072319056e-05,-1.14143835262e-05,-4.52718079572e-05,0.999999998842,0.0,0.0,0.0,0.0,0.0,0.0
1609059631245857239,227,1609059631245857239,-0.0126501116357,-0.00128364189527,0.00102185800172,-1.73290516529e-05,7.17021165653e-07,-3.33981765759e-05,0.999999999292,0.0,0.0,0.0,0.0,0.0,0.0
1609059631348634243,228,1609059631348634243,-0.0126501116357,-0.00128364189527,0.00102185800172,-1.73290516529e-05,7.17021165653e-07,-3.33981765759e-05,0.999999999292,0.0,0.0,0.0,0.0,0.0,0.0
1609059631451478004,229,1609059631451478004,-0.0194793807189,-0.00538808132988,7.713400161e-05,3.7067924668e-06,-2.19523669997e-05,-0.00011521068901,0.999999993115,0.0,0.0,0.0,0.0,0.0,0.0
1609059631554595709,230,1609059631554595709,-0.0194793807189,-0.00538808132988,7.713400161e-05,3.7067924668e-06,-2.19523669997e-05,-0.00011521068901,0.999999993115,0.0,0.0,0.0,0.0,0.0,0.0
1609059631657731056,231,1609059631657731056,-0.0144260845517,-0.00108535638869,0.00107614268384,-2.22820749864e-05,2.74195742986e-06,-7.39559716242e-05,0.999999997013,0.0,0.0,0.0,0.0,0.0,0.0
1609059631761119604,232,1609059631761119604,-0.0144260845517,-0.00108535638869,0.00107614268384,-2.22820749864e-05,2.74195742986e-06,-7.39559716242e-05,0.999999997013,0.0,0.0,0.0,0.0,0.0,0.0
1609059631863940001,233,1609059631863940001,-0.00672883016656,-0.003160539652,-0.000211104393014,8.41936792152e-06,4.57735221809e-07,-6.56438263928e-05,0.99999999781,0.0,0.0,0.0,0.0,0.0,0.0
1609059631967845440,234,1609059631967845440,-0.00672883016656,-0.003160539652,-0.000211104393014,8.41936792152e-06,4.57735221809e-07,-6.56438263928e-05,0.99999999781,0.0,0.0,0.0,0.0,0.0,0.0
1609059632070766211,235,1609059632070766211,0.00384002083187,0.00580621973796,0.0022622614561,0.000283121612996,0.000422087496473,-0.000214722066005,0.999999847789,0.0,0.0,0.0,0.0,0.0,0.0
1609059632243268013,236,1609059632243268013,-0.00578751224577,-0.00559297044768,0.000925984920349,-1.4992877721e-05,1.1266673378e-05,-0.000116041562242,0.999999993091,0.0,0.0,0.0,0.0,0.0,0.0
1609059632344876528,237,1609059632344876528,-0.0128862867507,-0.00384838987298,0.000373642023973,-4.5610114291e-06,-1.19932862389e-05,-4.14950127602e-05,0.999999999057,0.0,0.0,0.0,0.0,0.0,0.0
1609059632448350430,238,1609059632448350430,-0.0128862867507,-0.00384838987298,0.000373642023973,-4.5610114291e-06,-1.19932862389e-05,-4.14950127602e-05,0.999999999057,0.0,0.0,0.0,0.0,0.0,0.0
1609059632550857306,239,1609059632550857306,-0.01344366702,-0.00436754280963,-0.000432054415476,1.29284321791e-05,-1.84196672811e-05,-6.05687682206e-05,0.999999997912,0.0,0.0,0.0,0.0,0.0,0.0
1609059632654719114,240,1609059632654719114,-0.01344366702,-0.00436754280963,-0.000432054415476,1.29284321791e-05,-1.84196672811e-05,-6.05687682206e-05,0.999999997912,0.0,0.0,0.0,0.0,0.0,0.0
1609059632757835388,241,1609059632757835388,-0.00899057296092,-0.00718509145365,-0.000768720865692,2.21803823084e-05,-1.51609241512e-05,-7.34474920892e-05,0.999999996942,0.0,0.0,0.0,0.0,0.0,0.0
1609059632861136913,242,1609059632861136913,-0.00899057296092,-0.00718509145365,-0.000768720865692,2.21803823084e-05,-1.51609241512e-05,-7.34474920892e-05,0.999999996942,0.0,0.0,0.0,0.0,0.0,0.0
1609059632964036703,243,1609059632964036703,-0.0128018905402,-0.00806282651189,0.000976121744869,-1.6279011729e-05,-5.68887865888e-06,-0.000189622115064,0.999999981873,0.0,0.0,0.0,0.0,0.0,0.0
1609059633067565918,244,1609059633067565918,-0.0128018905402,-0.00806282651189,0.000976121744869,-1.6279011729e-05,-5.68887865888e-06,-0.000189622115064,0.999999981873,0.0,0.0,0.0,0.0,0.0,0.0
1609059633171382904,245,1609059633171382904,-0.000657429934289,-0.0131350004414,0.00372897612507,0.000485672540254,0.000462307194102,-0.00013581216487,0.999999765975,0.0,0.0,0.0,0.0,0.0,0.0
1609059633342576981,246,1609059633342576981,-0.0107273629572,-0.00264031551152,0.000422491197072,-1.30183755603e-05,-9.29726366341e-06,-7.33783852173e-05,0.99999999718,0.0,0.0,0.0,0.0,0.0,0.0
1609059633444869518,247,1609059633444869518,-0.00833348200987,-0.00764372022723,0.00130711748338,-1.94913988245e-05,5.61086204136e-06,-0.000196624386195,0.999999980464,0.0,0.0,0.0,0.0,0.0,0.0
1609059633548509598,248,1609059633548509598,-0.00833348200987,-0.00764372022723,0.00130711748338,-1.94913988245e-05,5.61086204136e-06,-0.000196624386195,0.999999980464,0.0,0.0,0.0,0.0,0.0,0.0
1609059633651117802,249,1609059633651117802,-0.0155592727126,-0.00845578827747,0.00145692469694,-1.73545197359e-05,-5.04824138376e-06,-0.000124182135107,0.999999992126,0.0,0.0,0.0,0.0,0.0,0.0
1609059633756008387,250,1609059633756008387,-0.0155592727126,-0.00845578827747,0.00145692469694,-1.73545197359e-05,-5.04824138376e-06,-0.000124182135107,0.999999992126,0.0,0.0,0.0,0.0,0.0,0.0
1609059633857959270,251,1609059633857959270,-0.0100614123593,-0.0141308377421,-0.000215472669582,1.83257510376e-05,-1.22042844929e-05,-0.000175571349015,0.999999984345,0.0,0.0,0.0,0.0,0.0,0.0
1609059633961118698,252,1609059633961118698,-0.0100614123593,-0.0141308377421,-0.000215472669582,1.83257510376e-05,-1.22042844929e-05,-0.000175571349015,0.999999984345,0.0,0.0,0.0,0.0,0.0,0.0
1609059634064155817,253,1609059634064155817,-0.00985923411941,-0.00377115879128,0.000410431707606,-5.77104892571e-06,-4.4872671329e-06,-2.94049295006e-05,0.999999999541,0.0,0.0,0.0,0.0,0.0,0.0
1609059634167503595,254,1609059634167503595,-0.00985923411941,-0.00377115879128,0.000410431707606,-5.77104892571e-06,-4.4872671329e-06,-2.94049295006e-05,0.999999999541,0.0,0.0,0.0,0.0,0.0,0.0
1609059634270431280,255,1609059634270431280,0.000267940432609,-0.00650949113993,0.00125582759323,0.000169616673425,-0.000152635670758,6.01988116116e-05,0.999999972154,0.0,0.0,0.0,0.0,0.0,0.0
1609059634443070412,256,1609059634443070412,-0.00684121649113,-0.0132163605165,0.00100692042904,7.07570679902e-07,7.04394173039e-06,-0.000153326136446,0.99999998822,0.0,0.0,0.0,0.0,0.0,0.0
1609059634546288729,257,1609059634546288729,-0.00633778940624,-0.0027296586801,0.000976045122165,-1.20391181567e-05,8.2230573892e-06,6.53765888239e-06,0.999999999872,0.0,0.0,0.0,0.0,0.0,0.0
1609059634648950338,258,1609059634648950338,-0.00633778940624,-0.0027296586801,0.000976045122165,-1.20391181567e-05,8.2230573892e-06,6.53765888239e-06,0.999999999872,0.0,0.0,0.0,0.0,0.0,0.0
1609059634751736164,259,1609059634751736164,-0.00484283275102,-0.0028687385631,0.00134138018397,-3.01645628001e-05,5.78300127875e-06,-0.000114950456584,0.999999992922,0.0,0.0,0.0,0.0,0.0,0.0
1609059634854748726,260,1609059634854748726,-0.00484283275102,-0.0028687385631,0.00134138018397,-3.01645628001e-05,5.78300127875e-06,-0.000114950456584,0.999999992922,0.0,0.0,0.0,0.0,0.0,0.0
1609059634956871748,261,1609059634956871748,-0.0143323279714,-0.00488273990646,0.00214878249035,-4.25098248793e-05,3.26114630954e-06,-0.0001183202582,0.999999992091,0.0,0.0,0.0,0.0,0.0,0.0
1609059635061185837,262,1609059635061185837,-0.0143323279714,-0.00488273990646,0.00214878249035,-4.25098248793e-05,3.26114630954e-06,-0.0001183202582,0.999999992091,0.0,0.0,0.0,0.0,0.0,0.0
1609059635163706064,263,1609059635163706064,-0.0156597814346,-0.00544178856374,0.000409942729983,-1.97133440707e-06,-1.67632123564e-05,-9.9119793365e-05,0.999999994945,0.0,0.0,0.0,0.0,0.0,0.0
1609059635267838955,264,1609059635267838955,-0.0156597814346,-0.00544178856374,0.000409942729983,-1.97133440707e-06,-1.67632123564e-05,-9.9119793365e-05,0.999999994945,0.0,0.0,0.0,0.0,0.0,0.0
1609059635370737076,265,1609059635370737076,-0.0158292388168,-0.0232111400012,0.000909574011564,0.000432631905789,3.30317448277e-05,-0.000217149491456,0.999999882292,0.0,0.0,0.0,0.0,0.0,0.0
1609059635542498350,266,1609059635542498350,-0.0129126420783,-0.0105980473028,0.000623589652674,-1.10830308669e-06,-1.05353170538e-05,-0.000156893140243,0.999999987636,0.0,0.0,0.0,0.0,0.0,0.0
1609059635645349026,267,1609059635645349026,-0.00448479262044,-0.00682261439958,0.0019796222419,-2.9981900751e-05,1.37999860822e-05,-0.000115467606847,0.999999992789,0.0,0.0,0.0,0.0,0.0,0.0
1609059635748491764,268,1609059635748491764,-0.00448479262044,-0.00682261439958,0.0019796222419,-2.9981900751e-05,1.37999860822e-05,-0.000115467606847,0.999999992789,0.0,0.0,0.0,0.0,0.0,0.0
1609059635851588488,269,1609059635851588488,-0.0115535350673,0.00204243216002,0.00204752174552,-4.4602666969e-05,5.87447760023e-06,-5.37901326099e-05,0.999999997541,0.0,0.0,0.0,0.0,0.0,0.0
1609059635954748392,270,1609059635954748392,-0.0115535350673,0.00204243216002,0.00204752174552,-4.4602666969e-05,5.87447760023e-06,-5.37901326099e-05,0.999999997541,0.0,0.0,0.0,0.0,0.0,0.0
1609059636057807684,271,1609059636057807684,-0.0115273215115,-0.0108062354482,0.00150712273203,-2.37206496049e-05,-1.23161057208e-06,-0.00014705952803,0.999999988905,0.0,0.0,0.0,0.0,0.0,0.0
1609059636160921812,272,1609059636160921812,-0.0115273215115,-0.0108062354482,0.00150712273203,-2.37206496049e-05,-1.23161057208e-06,-0.00014705952803,0.999999988905,0.0,0.0,0.0,0.0,0.0,0.0
1609059636263975620,273,1609059636263975620,-0.00865155645638,0.00125630357136,0.00189468154335,-4.14504179818e-05,9.74984984282e-06,-5.14177001241e-05,0.999999997772,0.0,0.0,0.0,0.0,0.0,0.0
1609059636367682934,274,1609059636367682934,-0.00865155645638,0.00125630357136,0.00189468154335,-4.14504179818e-05,9.74984984282e-06,-5.14177001241e-05,0.999999997772,0.0,0.0,0.0,0.0,0.0,0.0
1609059636470263958,275,1609059636470263958,-0.0103612648805,-0.00122802276903,0.00156529609781,-3.46693170615e-05,6.25017154467e-06,-8.88033533503e-05,0.999999995436,0.0,0.0,0.0,0.0,0.0,0.0
1609059636642848253,276,1609059636642848253,-0.0103612648805,-0.00122802276903,0.00156529609781,-3.46693170615e-05,6.25017154467e-06,-8.88033533503e-05,0.999999995436,0.0,0.0,0.0,0.0,0.0,0.0
1609059636745905638,277,1609059636745905638,-0.0135713865224,-0.00210235616456,0.00138686389574,-2.50080948444e-05,-3.11870220255e-06,-2.26408462493e-05,0.999999999426,0.0,0.0,0.0,0.0,0.0,0.0
1609059636848819256,278,1609059636848819256,-0.0135713865224,-0.00210235616456,0.00138686389574,-2.50080948444e-05,-3.11870220255e-06,-2.26408462493e-05,0.999999999426,0.0,0.0,0.0,0.0,0.0,0.0
1609059636951866388,279,1609059636951866388,-0.00710280444959,-0.00100549681734,0.000516520515335,-5.93826482997e-06,5.51276612903e-06,-3.45438343513e-05,0.999999999371,0.0,0.0,0.0,0.0,0.0,0.0
1609059637054830313,280,1609059637054830313,-0.00710280444959,-0.00100549681734,0.000516520515335,-5.93826482997e-06,5.51276612903e-06,-3.45438343513e-05,0.999999999371,0.0,0.0,0.0,0.0,0.0,0.0
1609059637157818079,281,1609059637157818079,-0.00483957738532,-0.00071729734363,0.000792734863939,-1.44031176085e-05,1.37024438322e-05,-6.35959448328e-07,0.999999999802,0.0,0.0,0.0,0.0,0.0,0.0
1609059637261689186,282,1609059637261689186,-0.00483957738532,-0.00071729734363,0.000792734863939,-1.44031176085e-05,1.37024438322e-05,-6.35959448328e-07,0.999999999802,0.0,0.0,0.0,0.0,0.0,0.0
1609059637363964558,283,1609059637363964558,-0.00764263139845,-0.00289946291031,0.000191905493008,-3.03581063173e-06,-5.16174243208e-06,-6.44633611324e-05,0.999999997904,0.0,0.0,0.0,0.0,0.0,0.0
1609059637467119455,284,1609059637467119455,-0.00764263139845,-0.00289946291031,0.000191905493008,-3.03581063173e-06,-5.16174243208e-06,-6.44633611324e-05,0.999999997904,0.0,0.0,0.0,0.0,0.0,0.0
1609059637570128679,285,1609059637570128679,-0.00337722859523,0.00269017888201,0.00139708488741,-3.55561285961e-05,1.93239096309e-05,-3.69471325935e-05,0.999999998499,0.0,0.0,0.0,0.0,0.0,0.0
1609059637742368698,286,1609059637742368698,-0.00337722859523,0.00269017888201,0.00139708488741,-3.55561285961e-05,1.93239096309e-05,-3.69471325935e-05,0.999999998499,0.0,0.0,0.0,0.0,0.0,0.0
1609059637845342875,287,1609059637845342875,-0.0080802480069,0.00182713276366,0.0014009065346,-3.34447988391e-05,3.69029607546e-06,-1.40498132373e-05,0.999999999335,0.0,0.0,0.0,0.0,0.0,0.0
1609059637948607206,288,1609059637948607206,-0.0080802480069,0.00182713276366,0.0014009065346,-3.34447988391e-05,3.69029607546e-06,-1.40498132373e-05,0.999999999335,0.0,0.0,0.0,0.0,0.0,0.0
1609059638051672220,289,1609059638051672220,-0.00473157220189,0.00256645060975,0.00207985325621,-5.17108496061e-05,1.24103143701e-05,-1.91920789287e-05,0.999999998402,0.0,0.0,0.0,0.0,0.0,0.0
1609059638155035257,290,1609059638155035257,-0.00473157220189,0.00256645060975,0.00207985325621,-5.17108496061e-05,1.24103143701e-05,-1.91920789287e-05,0.999999998402,0.0,0.0,0.0,0.0,0.0,0.0
1609059638257940531,291,1609059638257940531,-0.00298282117193,0.00174893428623,0.00128102309079,-3.8088285406e-05,8.66657272097e-06,-7.93316661389e-05,0.99999999609,0.0,0.0,0.0,0.0,0.0,0.0
1609059638361246347,292,1609059638361246347,-0.00298282117193,0.00174893428623,0.00128102309079,-3.8088285406e-05,8.66657272097e-06,-7.93316661389e-05,0.99999999609,0.0,0.0,0.0,0.0,0.0,0.0
1609059638464171886,293,1609059638464171886,-0.0161361225265,0.00373975357354,0.00177568463474,-4.66432068592e-05,-7.83648103995e-06,-5.60287447327e-05,0.999999997312,0.0,0.0,0.0,0.0,0.0,0.0
1609059638567869425,294,1609059638567869425,-0.0161361225265,0.00373975357354,0.00177568463474,-4.66432068592e-05,-7.83648103995e-06,-5.60287447327e-05,0.999999997312,0.0,0.0,0.0,0.0,0.0,0.0
1609059638669744492,295,1609059638669744492,-0.00512602354704,0.00902005422844,0.0014579587403,-4.93087646139e-05,-3.79605444675e-06,6.92040135894e-05,0.999999996383,0.0,0.0,0.0,0.0,0.0,0.0
1609059638843070984,296,1609059638843070984,-0.00512602354704,0.00902005422844,0.0014579587403,-4.93087646139e-05,-3.79605444675e-06,6.92040135894e-05,0.999999996383,0.0,0.0,0.0,0.0,0.0,0.0
1609059638945852041,297,1609059638945852041,-0.00504290398676,0.00984666603453,0.000846640685306,-3.74233128762e-05,5.63909367865e-06,1.50491793303e-05,0.999999999171,0.0,0.0,0.0,0.0,0.0,0.0
1609059639048739433,298,1609059639048739433,-0.00504290398676,0.00984666603453,0.000846640685306,-3.74233128762e-05,5.63909367865e-06,1.50491793303e-05,0.999999999171,0.0,0.0,0.0,0.0,0.0,0.0
1609059639151747704,299,1609059639151747704,-0.00808691626751,0.00499532064252,0.000366543394794,-2.2229666107e-05,-9.21769530433e-06,1.321447451e-05,0.999999999623,0.0,0.0,0.0,0.0,0.0,0.0
1609059639254476786,300,1609059639254476786,-0.00808691626751,0.00499532064252,0.000366543394794,-2.2229666107e-05,-9.21769530433e-06,1.321447451e-05,0.999999999623,0.0,0.0,0.0,0.0,0.0,0.0
1609059639357740641,301,1609059639357740641,-0.00208719408162,0.00672531638928,0.0020806751729,-5.43482855625e-05,2.16612243616e-05,1.154206408e-05,0.999999998222,0.0,0.0,0.0,0.0,0.0,0.0
1609059639460936308,302,1609059639460936308,-0.00208719408162,0.00672531638928,0.0020806751729,-5.43482855625e-05,2.16612243616e-05,1.154206408e-05,0.999999998222,0.0,0.0,0.0,0.0,0.0,0.0
1609059639564024687,303,1609059639564024687,-0.00364643357216,0.00779887130521,0.000726136390991,-3.10478733866e-05,1.40763420666e-06,6.6668990915e-05,0.999999997295,0.0,0.0,0.0,0.0,0.0,0.0
1609059639667537451,304,1609059639667537451,-0.00364643357216,0.00779887130521,0.000726136390991,-3.10478733866e-05,1.40763420666e-06,6.6668990915e-05,0.999999997295,0.0,0.0,0.0,0.0,0.0,0.0
1609059639770946264,305,1609059639770946264,-0.00556827164101,0.00640911264182,0.000845035019169,-3.07941071988e-05,8.79581016471e-06,3.28819558517e-06,0.999999999482,0.0,0.0,0.0,0.0,0.0,0.0
1609059639942510843,306,1609059639942510843,-0.00556827164101,0.00640911264182,0.000845035019169,-3.07941071988e-05,8.79581016471e-06,3.28819558517e-06,0.999999999482,0.0,0.0,0.0,0.0,0.0,0.0
1609059640045302391,307,1609059640045302391,-0.0137095816018,0.00793631546154,-0.00028744499087,-1.33874095567e-05,-1.97200537179e-05,7.95949377746e-06,0.999999999684,0.0,0.0,0.0,0.0,0.0,0.0
1609059640148955822,308,1609059640148955822,-0.0137095816018,0.00793631546154,-0.00028744499087,-1.33874095567e-05,-1.97200537179e-05,7.95949377746e-06,0.999999999684,0.0,0.0,0.0,0.0,0.0,0.0
1609059640251667738,309,1609059640251667738,-0.0119905747059,0.00914545219577,0.00135591329926,-3.7884687451e-05,-3.17261148936e-06,4.6205386848e-05,0.99999999821,0.0,0.0,0.0,0.0,0.0,0.0
1609059640355035305,310,1609059640355035305,-0.0119905747059,0.00914545219577,0.00135591329926,-3.7884687451e-05,-3.17261148936e-06,4.6205386848e-05,0.99999999821,0.0,0.0,0.0,0.0,0.0,0.0
1609059640457949162,311,1609059640457949162,-0.00715341822669,0.00929654030151,0.000787387952434,-3.08637907581e-05,1.84565477892e-06,6.21103286076e-05,0.999999997593,0.0,0.0,0.0,0.0,0.0,0.0
1609059640561670780,312,1609059640561670780,-0.00715341822669,0.00929654030151,0.000787387952434,-3.08637907581e-05,1.84565477892e-06,6.21103286076e-05,0.999999997593,0.0,0.0,0.0,0.0,0.0,0.0
1609059640664230347,313,1609059640664230347,-0.00302332447227,0.00740709010679,0.00122852481693,-4.54848442303e-05,8.51101321238e-06,-1.12655484345e-05,0.999999998866,0.0,0.0,0.0,0.0,0.0,0.0
1609059640767337322,314,1609059640767337322,-0.00302332447227,0.00740709010679,0.00122852481693,-4.54848442303e-05,8.51101321238e-06,-1.12655484345e-05,0.999999998866,0.0,0.0,0.0,0.0,0.0,0.0
1609059640870260715,315,1609059640870260715,-0.00750636102588,0.0151634442737,0.00213275711426,-7.3050587889e-05,1.14556319824e-05,0.000101092409003,0.999999992156,0.0,0.0,0.0,0.0,0.0,0.0
1609059641042613745,316,1609059641042613745,-0.00750636102588,0.0151634442737,0.00213275711426,-7.3050587889e-05,1.14556319824e-05,0.000101092409003,0.999999992156,0.0,0.0,0.0,0.0,0.0,0.0
1609059641145589590,317,1609059641145589590,-0.0049979581547,0.0119907685956,0.00127647367822,-4.79439516552e-05,1.04062123534e-05,6.34207644049e-05,0.999999996785,0.0,0.0,0.0,0.0,0.0,0.0
1609059641248315334,318,1609059641248315334,-0.0049979581547,0.0119907685956,0.00127647367822,-4.79439516552e-05,1.04062123534e-05,6.34207644049e-05,0.999999996785,0.0,0.0,0.0,0.0,0.0,0.0
1609059641351305962,319,1609059641351305962,-0.00929351255331,0.016943428103,0.00136270147725,-5.32170393054e-05,-8.05422333049e-07,0.00011077852811,0.999999992448,0.0,0.0,0.0,0.0,0.0,0.0
1609059641454667330,320,1609059641454667330,-0.00929351255331,0.016943428103,0.00136270147725,-5.32170393054e-05,-8.05422333049e-07,0.00011077852811,0.999999992448,0.0,0.0,0.0,0.0,0.0,0.0
1609059641557387829,321,1609059641557387829,-0.0154182633459,0.013562016472,0.00024609409905,-3.17250591634e-05,-1.69220894326e-05,8.98667151347e-05,0.999999995316,0.0,0.0,0.0,0.0,0.0,0.0
1609059641660469294,322,1609059641660469294,-0.0154182633459,0.013562016472,0.00024609409905,-3.17250591634e-05,-1.69220894326e-05,8.98667151347e-05,0.999999995316,0.0,0.0,0.0,0.0,0.0,0.0
1609059641763750792,323,1609059641763750792,-0.00403672652286,0.00915112806484,0.00186001623408,-5.92189651035e-05,9.27414691672e-06,3.47569220545e-05,0.9999999976,0.0,0.0,0.0,0.0,0.0,0.0
1609059641866935253,324,1609059641866935253,-0.00403672652286,0.00915112806484,0.00186001623408,-5.92189651035e-05,9.27414691672e-06,3.47569220545e-05,0.9999999976,0.0,0.0,0.0,0.0,0.0,0.0
1609059641970881939,325,1609059641970881939,0.000527851086172,0.0125960802312,0.000761148995971,-3.40058154733e-05,1.43264705253e-05,7.77213917915e-05,0.999999996299,0.0,0.0,0.0,0.0,0.0,0.0
1609059642142550468,326,1609059642142550468,0.000527851086172,0.0125960802312,0.000761148995971,-3.40058154733e-05,1.43264705253e-05,7.77213917915e-05,0.999999996299,0.0,0.0,0.0,0.0,0.0,0.0
1609059642245106220,327,1609059642245106220,-0.00437953221492,0.00706130312059,0.000621292730697,-2.24215958017e-05,7.71549056153e-06,6.52666497091e-05,0.999999997589,0.0,0.0,0.0,0.0,0.0,0.0
1609059642348171473,328,1609059642348171473,-0.00437953221492,0.00706130312059,0.000621292730697,-2.24215958017e-05,7.71549056153e-06,6.52666497091e-05,0.999999997589,0.0,0.0,0.0,0.0,0.0,0.0
1609059642451626778,329,1609059642451626778,-0.00276627477807,0.00981050673953,0.00119315685066,-4.34925460312e-05,1.68158642132e-05,1.31715207952e-05,0.999999998826,0.0,0.0,0.0,0.0,0.0,0.0
1609059642554716825,330,1609059642554716825,-0.00276627477807,0.00981050673953,0.00119315685066,-4.34925460312e-05,1.68158642132e-05,1.31715207952e-05,0.999999998826,0.0,0.0,0.0,0.0,0.0,0.0
1609059642657505989,331,1609059642657505989,-0.00400522190978,0.0154700889123,0.00197486981663,-5.57724094658e-05,1.79184716742e-05,0.00016156981788,0.999999985232,0.0,0.0,0.0,0.0,0.0,0.0
1609059642761380911,332,1609059642761380911,-0.00400522190978,0.0154700889123,0.00197486981663,-5.57724094658e-05,1.79184716742e-05,0.00016156981788,0.999999985232,0.0,0.0,0.0,0.0,0.0,0.0
1609059642863876343,333,1609059642863876343,-0.00733635190382,0.0131006911538,0.00167725410108,-5.89864719335e-05,-7.29923716713e-07,5.09616313951e-05,0.999999996961,0.0,0.0,0.0,0.0,0.0,0.0
1609059642967548847,334,1609059642967548847,-0.00733635190382,0.0131006911538,0.00167725410108,-5.89864719335e-05,-7.29923716713e-07,5.09616313951e-05,0.999999996961,0.0,0.0,0.0,0.0,0.0,0.0
1609059643070142984,335,1609059643070142984,-5.4357606444e-05,0.00436945093822,0.000189559555271,-2.53562902932e-05,2.26615190692e-06,-5.0940080859e-05,0.999999998379,0.0,0.0,0.0,0.0,0.0,0.0
1609059643241876841,336,1609059643241876841,-5.4357606444e-05,0.00436945093822,0.000189559555271,-2.53562902932e-05,2.26615190692e-06,-5.0940080859e-05,0.999999998379,0.0,0.0,0.0,0.0,0.0,0.0
1609059643345610857,337,1609059643345610857,-6.74037948821e-05,0.00914974115558,-0.000156320343752,-1.49507877998e-05,-8.53013542097e-07,5.6773887676e-05,0.999999998276,0.0,0.0,0.0,0.0,0.0,0.0
1609059643447978735,338,1609059643447978735,-6.74037948821e-05,0.00914974115558,-0.000156320343752,-1.49507877998e-05,-8.53013542097e-07,5.6773887676e-05,0.999999998276,0.0,0.0,0.0,0.0,0.0,0.0
1609059643550931454,339,1609059643550931454,-0.0106172168079,0.0122304571384,0.00194089686674,-6.08543452019e-05,9.31857976717e-06,4.65132640527e-05,0.999999997023,0.0,0.0,0.0,0.0,0.0,0.0
1609059643654123783,340,1609059643654123783,-0.0106172168079,0.0122304571384,0.00194089686674,-6.08543452019e-05,9.31857976717e-06,4.65132640527e-05,0.999999997023,0.0,0.0,0.0,0.0,0.0,0.0
1609059643757308245,341,1609059643757308245,-0.00323085448615,0.011140823975,0.000883988507226,-4.39806691621e-05,4.18525792217e-06,1.64458041734e-05,0.999999998889,0.0,0.0,0.0,0.0,0.0,0.0
1609059643859513998,342,1609059643859513998,-0.00323085448615,0.011140823975,0.000883988507226,-4.39806691621e-05,4.18525792217e-06,1.64458041734e-05,0.999999998889,0.0,0.0,0.0,0.0,0.0,0.0
1609059643964254856,343,1609059643964254856,-0.00233244625485,0.0107532831357,0.00175154851193,-4.4390500303e-05,1.85653342533e-05,9.79232104427e-05,0.999999994048,0.0,0.0,0.0,0.0,0.0,0.0
1609059644066686869,344,1609059644066686869,-0.00233244625485,0.0107532831357,0.00175154851193,-4.4390500303e-05,1.85653342533e-05,9.79232104427e-05,0.999999994048,0.0,0.0,0.0,0.0,0.0,0.0
1609059644170776129,345,1609059644170776129,-0.00595525226141,0.00982008069847,0.00157580154342,-5.10361505034e-05,6.58219847007e-06,6.56186139835e-05,0.999999996523,0.0,0.0,0.0,0.0,0.0,0.0
1609059644341949224,346,1609059644341949224,-0.00595525226141,0.00982008069847,0.00157580154342,-5.10361505034e-05,6.58219847007e-06,6.56186139835e-05,0.999999996523,0.0,0.0,0.0,0.0,0.0,0.0
1609059644444971085,347,1609059644444971085,-0.00670548510317,0.00609898688081,0.000579732736578,-2.73714780507e-05,-6.63596878586e-06,2.95616459479e-05,0.999999999166,0.0,0.0,0.0,0.0,0.0,0.0
1609059644547915697,348,1609059644547915697,-0.00670548510317,0.00609898688081,0.000579732736578,-2.73714780507e-05,-6.63596878586e-06,2.95616459479e-05,0.999999999166,0.0,0.0,0.0,0.0,0.0,0.0
1609059644651111603,349,1609059644651111603,-0.00581400568322,0.00529312994411,0.000333167541769,-2.17511234958e-05,-1.00344692327e-05,3.46997452778e-05,0.999999999111,0.0,0.0,0.0,0.0,0.0,0.0
1609059644754060984,350,1609059644754060984,-0.00581400568322,0.00529312994411,0.000333167541769,-2.17511234958e-05,-1.00344692327e-05,3.46997452778e-05,0.999999999111,0.0,0.0,0.0,0.0,0.0,0.0
1609059644857210159,351,1609059644857210159,-0.0101748527947,0.00968367506378,0.00130933997815,-4.69699005668e-05,-6.33118093723e-07,1.00167329521e-05,0.999999998847,0.0,0.0,0.0,0.0,0.0,0.0
1609059644960304499,352,1609059644960304499,-0.0101748527947,0.00968367506378,0.00130933997815,-4.69699005668e-05,-6.33118093723e-07,1.00167329521e-05,0.999999998847,0.0,0.0,0.0,0.0,0.0,0.0
1609059645063082218,353,1609059645063082218,-0.000148405695983,0.00676979775721,0.00139346198868,-4.04512037317e-05,1.97940510394e-05,1.25283275454e-05,0.999999998907,0.0,0.0,0.0,0.0,0.0,0.0
1609059645166181087,354,1609059645166181087,-0.000148405695983,0.00676979775721,0.00139346198868,-4.04512037317e-05,1.97940510394e-05,1.25283275454e-05,0.999999998907,0.0,0.0,0.0,0.0,0.0,0.0
1609059645270364046,355,1609059645270364046,-0.00471253061686,0.0115386707854,0.000915605981609,-4.10017006408e-05,-5.3115460455e-07,2.95437311223e-05,0.999999998723,0.0,0.0,0.0,0.0,0.0,0.0
1609059645443591833,356,1609059645443591833,-0.00471253061686,0.0115386707854,0.000915605981609,-4.10017006408e-05,-5.3115460455e-07,2.95437311223e-05,0.999999998723,0.0,0.0,0.0,0.0,0.0,0.0
1609059645545550823,357,1609059645545550823,-0.00267384224225,0.00843623967294,0.00193875031212,-4.71992790162e-05,2.42911139148e-05,1.99671711571e-05,0.999999998392,0.0,0.0,0.0,0.0,0.0,0.0
1609059645647879124,358,1609059645647879124,-0.00267384224225,0.00843623967294,0.00193875031212,-4.71992790162e-05,2.42911139148e-05,1.99671711571e-05,0.999999998392,0.0,0.0,0.0,0.0,0.0,0.0
1609059645751046181,359,1609059645751046181,-0.00753888890614,0.00895744638783,0.000468652430823,-2.86117298e-05,-2.35421229853e-06,5.68634707612e-05,0.999999997971,0.0,0.0,0.0,0.0,0.0,0.0
1609059645854548216,360,1609059645854548216,-0.00753888890614,0.00895744638783,0.000468652430823,-2.86117298e-05,-2.35421229853e-06,5.68634707612e-05,0.999999997971,0.0,0.0,0.0,0.0,0.0,0.0
